timestamp,content
"2019-11-13 11:52:28.784907","$GPRMC,105228,A,5158.594,N,00359.652,E,1.5,259,290300,1.6,W*7C
"
"2019-11-13 11:52:28.784907","$GPRMC,105228,A,5158.594,N,00359.652,E,1.5,259,290300,1.6,W*7C
"
"2019-11-13 11:52:28.784907","$GPRMC,105228,A,5158.594,N,00359.652,E,1.5,259,290300,1.6,W*7C
"
"2019-11-13 11:52:28.784907","$GPRMC,105228,A,5158.594,N,00359.652,E,1.5,259,290300,1.6,W*7C
"
"2019-11-13 11:52:29.400005","$GPRMC,105229,A,5158.594,N,00359.652,E,1.3,257,290300,1.6,W*75
"
"2019-11-13 11:52:29.400005","$GPRMC,105229,A,5158.594,N,00359.652,E,1.3,257,290300,1.6,W*75
"
"2019-11-13 11:52:29.400005","$GPRMC,105229,A,5158.594,N,00359.652,E,1.3,257,290300,1.6,W*75
"
"2019-11-13 11:52:29.400005","$GPRMC,105229,A,5158.594,N,00359.652,E,1.3,257,290300,1.6,W*75
"
"2019-11-13 11:52:41.139946","$GPRMC,105240,A,5158.593,N,00359.649,E,0.6,236,290300,1.6,W*74
"
"2019-11-13 11:52:41.139946","$GPRMC,105240,A,5158.593,N,00359.649,E,0.6,236,290300,1.6,W*74
"
"2019-11-13 11:52:41.139946","$GPRMC,105240,A,5158.593,N,00359.649,E,0.6,236,290300,1.6,W*74
"
"2019-11-13 11:52:42.052717","$GPRMC,105241,A,5158.592,N,00359.649,E,0.6,235,290300,1.6,W*77
"
"2019-11-13 11:52:42.052717","$GPRMC,105241,A,5158.592,N,00359.649,E,0.6,235,290300,1.6,W*77
"
"2019-11-13 11:52:42.052717","$GPRMC,105241,A,5158.592,N,00359.649,E,0.6,235,290300,1.6,W*77
"
"2019-11-13 11:52:42.959808","$GPRMC,105242,A,5158.592,N,00359.649,E,0.6,234,290300,1.6,W*75
"
"2019-11-13 11:52:42.959808","$GPRMC,105242,A,5158.592,N,00359.649,E,0.6,234,290300,1.6,W*75
"
"2019-11-13 11:52:42.959808","$GPRMC,105242,A,5158.592,N,00359.649,E,0.6,234,290300,1.6,W*75
"
"2019-11-13 11:52:43.968001","$GPRMC,105243,A,5158.592,N,00359.649,E,0.5,234,290300,1.6,W*77
"
"2019-11-13 11:52:43.968001","$GPRMC,105243,A,5158.592,N,00359.649,E,0.5,234,290300,1.6,W*77
"
"2019-11-13 11:52:43.968001","$GPRMC,105243,A,5158.592,N,00359.649,E,0.5,234,290300,1.6,W*77
"
"2019-11-13 11:52:44.774324","$GPRMC,105244,A,5158.592,N,00359.649,E,0.5,229,290300,1.6,W*7C
"
"2019-11-13 11:52:44.774324","$GPRMC,105244,A,5158.592,N,00359.649,E,0.5,229,290300,1.6,W*7C
"
"2019-11-13 11:52:44.774324","$GPRMC,105244,A,5158.592,N,00359.649,E,0.5,229,290300,1.6,W*7C
"
"2019-11-13 11:52:45.379850","$GPRMC,105245,A,5158.592,N,00359.649,E,0.5,228,290300,1.6,W*7C
"
"2019-11-13 11:52:45.379850","$GPRMC,105245,A,5158.592,N,00359.649,E,0.5,228,290300,1.6,W*7C
"
"2019-11-13 11:52:45.379850","$GPRMC,105245,A,5158.592,N,00359.649,E,0.5,228,290300,1.6,W*7C
"
"2019-11-13 11:52:46.085434","$GPRMC,105245,A,5158.592,N,00359.649,E,0.5,227,290300,1.6,W*73
"
"2019-11-13 11:52:46.085434","$GPRMC,105245,A,5158.592,N,00359.649,E,0.5,227,290300,1.6,W*73
"
"2019-11-13 11:52:46.085434","$GPRMC,105245,A,5158.592,N,00359.649,E,0.5,227,290300,1.6,W*73
"
"2019-11-13 11:52:47.093239","$GPRMC,105246,A,5158.592,N,00359.649,E,0.4,228,290300,1.6,W*7E
"
"2019-11-13 11:52:47.093239","$GPRMC,105246,A,5158.592,N,00359.649,E,0.4,228,290300,1.6,W*7E
"
"2019-11-13 11:52:47.093239","$GPRMC,105246,A,5158.592,N,00359.649,E,0.4,228,290300,1.6,W*7E
"
"2019-11-13 11:52:48.001108","$GPRMC,105247,A,5158.592,N,00359.649,E,0.3,225,290300,1.6,W*75
"
"2019-11-13 11:52:48.001108","$GPRMC,105247,A,5158.592,N,00359.649,E,0.3,225,290300,1.6,W*75
"
"2019-11-13 11:52:48.001108","$GPRMC,105247,A,5158.592,N,00359.649,E,0.3,225,290300,1.6,W*75
"
"2019-11-13 11:52:48.807999","$GPRMC,105248,A,5158.592,N,00359.649,E,0.2,224,290300,1.6,W*7A
"
"2019-11-13 11:52:48.807999","$GPRMC,105248,A,5158.592,N,00359.649,E,0.2,224,290300,1.6,W*7A
"
"2019-11-13 11:52:48.807999","$GPRMC,105248,A,5158.592,N,00359.649,E,0.2,224,290300,1.6,W*7A
"
"2019-11-13 11:52:49.413084","$GPRMC,105249,A,5158.592,N,00359.649,E,0.2,224,290300,1.6,W*7B
"
"2019-11-13 11:52:49.413084","$GPRMC,105249,A,5158.592,N,00359.649,E,0.2,224,290300,1.6,W*7B
"
"2019-11-13 11:52:49.413084","$GPRMC,105249,A,5158.592,N,00359.649,E,0.2,224,290300,1.6,W*7B
"
"2019-11-13 11:52:50.118422","$GPRMC,105249,A,5158.592,N,00359.648,E,0.2,223,290300,1.6,W*7D
"
"2019-11-13 11:52:50.118422","$GPRMC,105249,A,5158.592,N,00359.648,E,0.2,223,290300,1.6,W*7D
"
"2019-11-13 11:52:50.118422","$GPRMC,105249,A,5158.592,N,00359.648,E,0.2,223,290300,1.6,W*7D
"
"2019-11-13 11:52:38.289974","$GPRMC,105237,A,5158.593,N,00359.649,E,0.7,242,290300,1.6,W*76
"
"2019-11-13 11:52:38.289974","$GPRMC,105237,A,5158.593,N,00359.649,E,0.7,242,290300,1.6,W*76
"
"2019-11-13 11:52:38.289974","$GPRMC,105237,A,5158.593,N,00359.649,E,0.7,242,290300,1.6,W*76
"
"2019-11-13 11:52:38.289974","$GPRMC,105237,A,5158.593,N,00359.649,E,0.7,242,290300,1.6,W*76
"
"2019-11-13 11:52:50.924653","$GPRMC,105250,A,5158.591,N,00359.648,E,0.3,219,290300,1.6,W*7E
"
"2019-11-13 11:52:50.924653","$GPRMC,105250,A,5158.591,N,00359.648,E,0.3,219,290300,1.6,W*7E
"
"2019-11-13 11:52:50.924653","$GPRMC,105250,A,5158.591,N,00359.648,E,0.3,219,290300,1.6,W*7E
"
"2019-11-13 11:52:51.932362","$GPRMC,105251,A,5158.591,N,00359.648,E,0.3,207,290300,1.6,W*70
"
"2019-11-13 11:52:51.932362","$GPRMC,105251,A,5158.591,N,00359.648,E,0.3,207,290300,1.6,W*70
"
"2019-11-13 11:52:51.932362","$GPRMC,105251,A,5158.591,N,00359.648,E,0.3,207,290300,1.6,W*70
"
"2019-11-13 11:52:52.537268","$GPRMC,105252,A,5158.591,N,00359.648,E,0.4,205,290300,1.6,W*76
"
"2019-11-13 11:52:52.537268","$GPRMC,105252,A,5158.591,N,00359.648,E,0.4,205,290300,1.6,W*76
"
"2019-11-13 11:52:52.537268","$GPRMC,105252,A,5158.591,N,00359.648,E,0.4,205,290300,1.6,W*76
"
"2019-11-13 11:52:53.243525","$GPRMC,105252,A,5158.590,N,00359.648,E,0.6,205,290300,1.6,W*75
"
"2019-11-13 11:52:53.243525","$GPRMC,105252,A,5158.590,N,00359.648,E,0.6,205,290300,1.6,W*75
"
"2019-11-13 11:52:53.243525","$GPRMC,105252,A,5158.590,N,00359.648,E,0.6,205,290300,1.6,W*75
"
"2019-11-13 11:53:08.444912","$GPRMC,105307,A,5158.589,N,00359.649,E,0.6,155,290300,1.6,W*7B
"
"2019-11-13 11:53:08.444912","$GPRMC,105307,A,5158.589,N,00359.649,E,0.6,155,290300,1.6,W*7B
"
"2019-11-13 11:53:08.444912","$GPRMC,105307,A,5158.589,N,00359.649,E,0.6,155,290300,1.6,W*7B
"
"2019-11-13 11:53:09.156239","$GPRMC,105308,A,5158.589,N,00359.650,E,0.6,148,290300,1.6,W*70
"
"2019-11-13 11:53:09.156239","$GPRMC,105308,A,5158.589,N,00359.650,E,0.6,148,290300,1.6,W*70
"
"2019-11-13 11:53:09.156239","$GPRMC,105308,A,5158.589,N,00359.650,E,0.6,148,290300,1.6,W*70
"
"2019-11-13 11:53:07.799779","$GPRMC,105307,A,5158.589,N,00359.649,E,0.6,160,290300,1.6,W*7D
"
"2019-11-13 11:53:07.799779","$GPRMC,105307,A,5158.589,N,00359.649,E,0.6,160,290300,1.6,W*7D
"
"2019-11-13 11:53:07.799779","$GPRMC,105307,A,5158.589,N,00359.649,E,0.6,160,290300,1.6,W*7D
"
"2019-11-13 11:53:09.962820","$GPRMC,105309,A,5158.589,N,00359.650,E,0.7,139,290300,1.6,W*76
"
"2019-11-13 11:53:09.962820","$GPRMC,105309,A,5158.589,N,00359.650,E,0.7,139,290300,1.6,W*76
"
"2019-11-13 11:53:09.962820","$GPRMC,105309,A,5158.589,N,00359.650,E,0.7,139,290300,1.6,W*76
"
"2019-11-13 11:53:10.769442","$GPRMC,105310,A,5158.589,N,00359.651,E,0.8,130,290300,1.6,W*79
"
"2019-11-13 11:53:10.769442","$GPRMC,105310,A,5158.589,N,00359.651,E,0.8,130,290300,1.6,W*79
"
"2019-11-13 11:53:10.769442","$GPRMC,105310,A,5158.589,N,00359.651,E,0.8,130,290300,1.6,W*79
"
"2019-11-13 11:53:11.374620","$GPRMC,105311,A,5158.589,N,00359.651,E,0.9,121,290300,1.6,W*79
"
"2019-11-13 11:53:11.374620","$GPRMC,105311,A,5158.589,N,00359.651,E,0.9,121,290300,1.6,W*79
"
"2019-11-13 11:53:11.374620","$GPRMC,105311,A,5158.589,N,00359.651,E,0.9,121,290300,1.6,W*79
"
"2019-11-13 11:53:12.381688","$GPRMC,105311,A,5158.589,N,00359.652,E,1.0,115,290300,1.6,W*75
"
"2019-11-13 11:53:12.381688","$GPRMC,105311,A,5158.589,N,00359.652,E,1.0,115,290300,1.6,W*75
"
"2019-11-13 11:53:12.381688","$GPRMC,105311,A,5158.589,N,00359.652,E,1.0,115,290300,1.6,W*75
"
"2019-11-13 11:53:13.187954","$GPRMC,105312,A,5158.589,N,00359.652,E,1.1,109,290300,1.6,W*7A
"
"2019-11-13 11:53:13.187954","$GPRMC,105312,A,5158.589,N,00359.652,E,1.1,109,290300,1.6,W*7A
"
"2019-11-13 11:53:13.187954","$GPRMC,105312,A,5158.589,N,00359.652,E,1.1,109,290300,1.6,W*7A
"
"2019-11-13 11:53:13.993908","$GPRMC,105313,A,5158.589,N,00359.653,E,1.2,106,290300,1.6,W*76
"
"2019-11-13 11:53:13.993908","$GPRMC,105313,A,5158.589,N,00359.653,E,1.2,106,290300,1.6,W*76
"
"2019-11-13 11:53:13.993908","$GPRMC,105313,A,5158.589,N,00359.653,E,1.2,106,290300,1.6,W*76
"
"2019-11-13 11:53:14.800155","$GPRMC,105314,A,5158.589,N,00359.654,E,1.3,105,290300,1.6,W*74
"
"2019-11-13 11:53:14.800155","$GPRMC,105314,A,5158.589,N,00359.654,E,1.3,105,290300,1.6,W*74
"
"2019-11-13 11:53:14.800155","$GPRMC,105314,A,5158.589,N,00359.654,E,1.3,105,290300,1.6,W*74
"
"2019-11-13 11:53:15.404750","$GPRMC,105314,A,5158.589,N,00359.654,E,1.3,102,290300,1.6,W*73
"
"2019-11-13 11:53:15.404750","$GPRMC,105314,A,5158.589,N,00359.654,E,1.3,102,290300,1.6,W*73
"
"2019-11-13 11:53:15.404750","$GPRMC,105314,A,5158.589,N,00359.654,E,1.3,102,290300,1.6,W*73
"
"2019-11-13 11:53:16.210498","$GPRMC,105315,A,5158.589,N,00359.655,E,1.4,101,290300,1.6,W*77
"
"2019-11-13 11:53:16.210498","$GPRMC,105315,A,5158.589,N,00359.655,E,1.4,101,290300,1.6,W*77
"
"2019-11-13 11:53:16.210498","$GPRMC,105315,A,5158.589,N,00359.655,E,1.4,101,290300,1.6,W*77
"
"2019-11-13 11:53:18.471819","$GPRMC,105318,A,5158.589,N,00359$GPRMC,105318,A,5158.589,N,00359$GPRMC,105318,A,5158.589,N,00359$GPRMC,105318,A,5158.589,N,00359$GPRMC,105318,A,5158.589,N,00359$GPRMC,105318,A,5158.589,N,00359$GPRMC,105318,A,5158.589,N,00359$GPRMC,105318,A,5158.589,N,00359$GPRMC,105318,A,5158.589,N,00359$GPRMC,105318,A,5158.589,N,00359$GPRMC,105318,A,5158.589,N,00359$GPRMC,105318,A,5158.589,N,00359$GPRMC,105318,A,5158.589,N,00359$GPRMC,105318,A,5158.589,N,00359$GPRMC,105318,A,5158.589,N,00359$GPRMC,105318,A,5158.589,N,00359$GPRMC,105318,A,5158.589,N,00359$GPRMC,105318,A,5158.589,N,00359$GPRMC,105318,A,5158.589,N,00359$GPRMC,105318,A,5158.589,N,00359$GPRMC,105318,A,5158.589,N,00359$GPRMC,105318,A,5158.589,N,00359$GPRMC,105318,A,5158.589,N,00359$GPRMC,105318,A,5158.589,N,00359$GPRMC,105318,A,5158.589,N,00359$GPRMC,105318,A,5158.589,N,00359$GPRMC,105318,A,5158.589,N,00359$GPRMC,105318,A,5158.589,N,00359$GPRMC,105318,A,5158.589,N,00359$GPRMC,105318,A,5158.589,N,00359$GPRMC,105318,A,5158.589,N,00359$GPRMC,105318,A,5158.589,N,00359$GPRMC,105318,A,5158.589,N,00359$GPRMC,105318,A,5158.589,N,00359$GPRMC,105318,A,5158.589,N,00359$GPRMC,105318,A,5158.589,N,00359$GPRMC,105318,A,5158.589,N,00359$GPRMC,105318,A,5158.589,N,00359$GPRMC,105318,A,5158.589,N,00359$GPRMC,105318,A,5158.589,N,00359$GPRMC,105318,A,5158.589,N,00359$GPRMC,105318,A,5158.589,N,00359$GPRMC,105318,A,5158.589,N,00359$GPRMC,105318,A,5158.589,N,00359$GPRMC,105318,A,5158.589,N,00359$GPRMC,105318,A,5158.589,N,00359$GPRMC,105318,A,5158.589,N,00359$GPRMC,105318,A,5158.589,N,00359$GPRMC,105318,A,5158.589,N,00359$GPRMC,105318,A,5158.589,N,00359$GPRMC,105318,A,5158.589,N,00359$GPRMC,105318,A,5158.589,N,00359$GPRMC,105318,A,5158.589,N,00359$GPRMC,105318,A,5158.589,N,00359$GPRMC,105318,A,5158.589,N,00359$GPRMC,105318,A,5158.589,N,00359$GPRMC,105318,A,5158.589,N,00359$GPRMC,105318,A,5158.589,N,00359$GPRMC,105318,A,5158.589,N,00359$GPRMC,105318,A,5158.589,N,00359$GPRMC,105318,A,5158.589,N,00359$GPRMC,105318,A,5158.589,N,00359$GPRMC,105318,A,5158.589,N,00359$GPRMC,105318,A,5158.589,N,00359$GPRMC,105318,A,5158.589,N,00359$GPRMC,105318,A,5158.589,N,00359$GPRMC,105318,A,5158.589,N,00359$GPRMC,105318,A,5158.589,N,00359$GPRMC,105318,A,5158.589,N,00359$GPRMC,105318,A,5158.589,N,00359$GPRMC,105318,A,5158.589,N,00359$GPRMC,105318,A,5158.589,N,00359$GPRMC,105318,A,5158.589,N,00359$GPRMC,105318,A,5158.589,N,00359$GPRMC,105318,A,5158.589,N,00359$GPRMC,105318,A,5158.589,N,00359$GPRMC,105318,A,5158.589,N,00359$GPRMC,105318,A,5158.589,N,00359$GPRMC,105318,A,5158.589,N,00359$GPRMC,105318,A,5158.589,N,00359$GPRMC,105318,A,5158.589,N,00359$GPRMC,105318,A,5158.589,N,00359$GPRMC,105318,A,5158.589,N,00359$GPRMC,105318,A,5158.589,N,00359$GPRMC,105318,A,5158.589,N,00359$GPRMC,105318,A,5158.589,N,00359$GPRMC,105318,A,5158.589,N,00359$GPRMC,105318,A,5158.589,N,00359$GPRMC,105318,A,5158.589,N,00359$GPRMC,105318,A,5158.589,N,00359.657,E,1.8,94,290300,1.6,W*49
"
"2019-11-13 11:53:18.471819","$GPRMC,105318,A,5158.589,N,00359$GPRMC,105318,A,5158.589,N,00359$GPRMC,105318,A,5158.589,N,00359$GPRMC,105318,A,5158.589,N,00359$GPRMC,105318,A,5158.589,N,00359$GPRMC,105318,A,5158.589,N,00359$GPRMC,105318,A,5158.589,N,00359$GPRMC,105318,A,5158.589,N,00359$GPRMC,105318,A,5158.589,N,00359$GPRMC,105318,A,5158.589,N,00359$GPRMC,105318,A,5158.589,N,00359$GPRMC,105318,A,5158.589,N,00359$GPRMC,105318,A,5158.589,N,00359$GPRMC,105318,A,5158.589,N,00359$GPRMC,105318,A,5158.589,N,00359$GPRMC,105318,A,5158.589,N,00359$GPRMC,105318,A,5158.589,N,00359$GPRMC,105318,A,5158.589,N,00359$GPRMC,105318,A,5158.589,N,00359$GPRMC,105318,A,5158.589,N,00359$GPRMC,105318,A,5158.589,N,00359$GPRMC,105318,A,5158.589,N,00359$GPRMC,105318,A,5158.589,N,00359$GPRMC,105318,A,5158.589,N,00359$GPRMC,105318,A,5158.589,N,00359$GPRMC,105318,A,5158.589,N,00359$GPRMC,105318,A,5158.589,N,00359$GPRMC,105318,A,5158.589,N,00359$GPRMC,105318,A,5158.589,N,00359$GPRMC,105318,A,5158.589,N,00359$GPRMC,105318,A,5158.589,N,00359$GPRMC,105318,A,5158.589,N,00359$GPRMC,105318,A,5158.589,N,00359$GPRMC,105318,A,5158.589,N,00359$GPRMC,105318,A,5158.589,N,00359$GPRMC,105318,A,5158.589,N,00359$GPRMC,105318,A,5158.589,N,00359$GPRMC,105318,A,5158.589,N,00359$GPRMC,105318,A,5158.589,N,00359$GPRMC,105318,A,5158.589,N,00359$GPRMC,105318,A,5158.589,N,00359$GPRMC,105318,A,5158.589,N,00359$GPRMC,105318,A,5158.589,N,00359$GPRMC,105318,A,5158.589,N,00359$GPRMC,105318,A,5158.589,N,00359$GPRMC,105318,A,5158.589,N,00359$GPRMC,105318,A,5158.589,N,00359$GPRMC,105318,A,5158.589,N,00359$GPRMC,105318,A,5158.589,N,00359$GPRMC,105318,A,5158.589,N,00359$GPRMC,105318,A,5158.589,N,00359$GPRMC,105318,A,5158.589,N,00359$GPRMC,105318,A,5158.589,N,00359$GPRMC,105318,A,5158.589,N,00359$GPRMC,105318,A,5158.589,N,00359$GPRMC,105318,A,5158.589,N,00359$GPRMC,105318,A,5158.589,N,00359$GPRMC,105318,A,5158.589,N,00359$GPRMC,105318,A,5158.589,N,00359$GPRMC,105318,A,5158.589,N,00359$GPRMC,105318,A,5158.589,N,00359$GPRMC,105318,A,5158.589,N,00359$GPRMC,105318,A,5158.589,N,00359$GPRMC,105318,A,5158.589,N,00359$GPRMC,105318,A,5158.589,N,00359$GPRMC,105318,A,5158.589,N,00359$GPRMC,105318,A,5158.589,N,00359$GPRMC,105318,A,5158.589,N,00359$GPRMC,105318,A,5158.589,N,00359$GPRMC,105318,A,5158.589,N,00359$GPRMC,105318,A,5158.589,N,00359$GPRMC,105318,A,5158.589,N,00359$GPRMC,105318,A,5158.589,N,00359$GPRMC,105318,A,5158.589,N,00359$GPRMC,105318,A,5158.589,N,00359$GPRMC,105318,A,5158.589,N,00359$GPRMC,105318,A,5158.589,N,00359$GPRMC,105318,A,5158.589,N,00359$GPRMC,105318,A,5158.589,N,00359$GPRMC,105318,A,5158.589,N,00359$GPRMC,105318,A,5158.589,N,00359$GPRMC,105318,A,5158.589,N,00359$GPRMC,105318,A,5158.589,N,00359$GPRMC,105318,A,5158.589,N,00359$GPRMC,105318,A,5158.589,N,00359$GPRMC,105318,A,5158.589,N,00359$GPRMC,105318,A,5158.589,N,00359$GPRMC,105318,A,5158.589,N,00359$GPRMC,105318,A,5158.589,N,00359$GPRMC,105318,A,5158.589,N,00359.657,E,1.8,94,290300,1.6,W*49
"
"2019-11-13 11:53:18.471819","$GPRMC,105318,A,5158.589,N,00359$GPRMC,105318,A,5158.589,N,00359$GPRMC,105318,A,5158.589,N,00359$GPRMC,105318,A,5158.589,N,00359$GPRMC,105318,A,5158.589,N,00359$GPRMC,105318,A,5158.589,N,00359$GPRMC,105318,A,5158.589,N,00359$GPRMC,105318,A,5158.589,N,00359$GPRMC,105318,A,5158.589,N,00359$GPRMC,105318,A,5158.589,N,00359$GPRMC,105318,A,5158.589,N,00359$GPRMC,105318,A,5158.589,N,00359$GPRMC,105318,A,5158.589,N,00359$GPRMC,105318,A,5158.589,N,00359$GPRMC,105318,A,5158.589,N,00359$GPRMC,105318,A,5158.589,N,00359$GPRMC,105318,A,5158.589,N,00359$GPRMC,105318,A,5158.589,N,00359$GPRMC,105318,A,5158.589,N,00359$GPRMC,105318,A,5158.589,N,00359$GPRMC,105318,A,5158.589,N,00359$GPRMC,105318,A,5158.589,N,00359$GPRMC,105318,A,5158.589,N,00359$GPRMC,105318,A,5158.589,N,00359$GPRMC,105318,A,5158.589,N,00359$GPRMC,105318,A,5158.589,N,00359$GPRMC,105318,A,5158.589,N,00359$GPRMC,105318,A,5158.589,N,00359$GPRMC,105318,A,5158.589,N,00359$GPRMC,105318,A,5158.589,N,00359$GPRMC,105318,A,5158.589,N,00359$GPRMC,105318,A,5158.589,N,00359$GPRMC,105318,A,5158.589,N,00359$GPRMC,105318,A,5158.589,N,00359$GPRMC,105318,A,5158.589,N,00359$GPRMC,105318,A,5158.589,N,00359$GPRMC,105318,A,5158.589,N,00359$GPRMC,105318,A,5158.589,N,00359$GPRMC,105318,A,5158.589,N,00359$GPRMC,105318,A,5158.589,N,00359$GPRMC,105318,A,5158.589,N,00359$GPRMC,105318,A,5158.589,N,00359$GPRMC,105318,A,5158.589,N,00359$GPRMC,105318,A,5158.589,N,00359$GPRMC,105318,A,5158.589,N,00359$GPRMC,105318,A,5158.589,N,00359$GPRMC,105318,A,5158.589,N,00359$GPRMC,105318,A,5158.589,N,00359$GPRMC,105318,A,5158.589,N,00359$GPRMC,105318,A,5158.589,N,00359$GPRMC,105318,A,5158.589,N,00359$GPRMC,105318,A,5158.589,N,00359$GPRMC,105318,A,5158.589,N,00359$GPRMC,105318,A,5158.589,N,00359$GPRMC,105318,A,5158.589,N,00359$GPRMC,105318,A,5158.589,N,00359$GPRMC,105318,A,5158.589,N,00359$GPRMC,105318,A,5158.589,N,00359$GPRMC,105318,A,5158.589,N,00359$GPRMC,105318,A,5158.589,N,00359$GPRMC,105318,A,5158.589,N,00359$GPRMC,105318,A,5158.589,N,00359$GPRMC,105318,A,5158.589,N,00359$GPRMC,105318,A,5158.589,N,00359$GPRMC,105318,A,5158.589,N,00359$GPRMC,105318,A,5158.589,N,00359$GPRMC,105318,A,5158.589,N,00359$GPRMC,105318,A,5158.589,N,00359$GPRMC,105318,A,5158.589,N,00359$GPRMC,105318,A,5158.589,N,00359$GPRMC,105318,A,5158.589,N,00359$GPRMC,105318,A,5158.589,N,00359$GPRMC,105318,A,5158.589,N,00359$GPRMC,105318,A,5158.589,N,00359$GPRMC,105318,A,5158.589,N,00359$GPRMC,105318,A,5158.589,N,00359$GPRMC,105318,A,5158.589,N,00359$GPRMC,105318,A,5158.589,N,00359$GPRMC,105318,A,5158.589,N,00359$GPRMC,105318,A,5158.589,N,00359$GPRMC,105318,A,5158.589,N,00359$GPRMC,105318,A,5158.589,N,00359$GPRMC,105318,A,5158.589,N,00359$GPRMC,105318,A,5158.589,N,00359$GPRMC,105318,A,5158.589,N,00359$GPRMC,105318,A,5158.589,N,00359$GPRMC,105318,A,5158.589,N,00359$GPRMC,105318,A,5158.589,N,00359$GPRMC,105318,A,5158.589,N,00359$GPRMC,105318,A,5158.589,N,00359.657,E,1.8,94,290300,1.6,W*49
"
"2019-11-13 11:53:19.177613","$GPRMC,105318,A,5158.589,N,00359.658,E,1.9,93,290300,1.6,W*40
"
"2019-11-13 11:53:19.177613","$GPRMC,105318,A,5158.589,N,00359.658,E,1.9,93,290300,1.6,W*40
"
"2019-11-13 11:53:19.177613","$GPRMC,105318,A,5158.589,N,00359.658,E,1.9,93,290300,1.6,W*40
"
"2019-11-13 11:53:19.983634","$GPRMC,105319,A,5158.589,N,00359.659,E,1.9,90,290300,1.6,W*43
"
"2019-11-13 11:53:19.983634","$GPRMC,105319,A,5158.589,N,00359.659,E,1.9,90,290300,1.6,W*43
"
"2019-11-13 11:53:19.983634","$GPRMC,105319,A,5158.589,N,00359.659,E,1.9,90,290300,1.6,W*43
"
"2019-11-13 11:53:20.789610","$GPRMC,105320,A,5158.589,N,00359.659,E,2.0,90,290300,1.6,W*43
"
"2019-11-13 11:53:20.789610","$GPRMC,105320,A,5158.589,N,00359.659,E,2.0,90,290300,1.6,W*43
"
"2019-11-13 11:53:20.789610","$GPRMC,105320,A,5158.589,N,00359.659,E,2.0,90,290300,1.6,W*43
"
"2019-11-13 11:53:21.394743","$GPRMC,105321,A,5158.589,N,00359.660,E,2.0,90,290300,1.6,W*48
"
"2019-11-13 11:53:21.394743","$GPRMC,105321,A,5158.589,N,00359.660,E,2.0,90,290300,1.6,W*48
"
"2019-11-13 11:53:21.394743","$GPRMC,105321,A,5158.589,N,00359.660,E,2.0,90,290300,1.6,W*48
"
"2019-11-13 11:53:22.200997","$GPRMC,105321,A,5158.589,N,00359.661,E,2.0,90,290300,1.6,W*49
"
"2019-11-13 11:53:22.200997","$GPRMC,105321,A,5158.589,N,00359.661,E,2.0,90,290300,1.6,W*49
"
"2019-11-13 11:53:22.200997","$GPRMC,105321,A,5158.589,N,00359.661,E,2.0,90,290300,1.6,W*49
"
"2019-11-13 11:53:22.907087","$GPRMC,105322,A,5158.589,N,00359.661,E,2.1,90,290300,1.6,W*4B
"
"2019-11-13 11:53:22.907087","$GPRMC,105322,A,5158.589,N,00359.661,E,2.1,90,290300,1.6,W*4B
"
"2019-11-13 11:53:22.907087","$GPRMC,105322,A,5158.589,N,00359.661,E,2.1,90,290300,1.6,W*4B
"
"2019-11-13 11:53:23.512545","$GPRMC,105323,A,5158.589,N,00359.662,E,2.1,90,290300,1.6,W*49
"
"2019-11-13 11:53:23.512545","$GPRMC,105323,A,5158.589,N,00359.662,E,2.1,90,290300,1.6,W*49
"
"2019-11-13 11:53:23.512545","$GPRMC,105323,A,5158.589,N,00359.662,E,2.1,90,290300,1.6,W*49
"
"2019-11-13 11:53:24.319389","$GPRMC,105323,A,5158.589,N,00359.663,E,2.1,90,290300,1.6,W*48
"
"2019-11-13 11:53:24.319389","$GPRMC,105323,A,5158.589,N,00359.663,E,2.1,90,290300,1.6,W*48
"
"2019-11-13 11:53:24.319389","$GPRMC,105323,A,5158.589,N,00359.663,E,2.1,90,290300,1.6,W*48
"
"2019-11-13 11:53:25.125197","$GPRMC,105324,A,5158.589,N,00359.663,E,2.1,90,290300,1.6,W*4F
"
"2019-11-13 11:53:25.125197","$GPRMC,105324,A,5158.589,N,00359.663,E,2.1,90,290300,1.6,W*4F
"
"2019-11-13 11:53:25.125197","$GPRMC,105324,A,5158.589,N,00359.663,E,2.1,90,290300,1.6,W*4F
"
"2019-11-13 11:53:25.931036","$GPRMC,105325,A,5158.589,N,00359.664,E,2.1,90,290300,1.6,W*49
"
"2019-11-13 11:53:25.931036","$GPRMC,105325,A,5158.589,N,00359.664,E,2.1,90,290300,1.6,W*49
"
"2019-11-13 11:53:25.931036","$GPRMC,105325,A,5158.589,N,00359.664,E,2.1,90,290300,1.6,W*49
"
"2019-11-13 11:53:26.535698","$GPRMC,105326,A,5158.589,N,00359.665,E,2.1,90,290300,1.6,W*4B
"
"2019-11-13 11:53:26.535698","$GPRMC,105326,A,5158.589,N,00359.665,E,2.1,90,290300,1.6,W*4B
"
"2019-11-13 11:53:26.535698","$GPRMC,105326,A,5158.589,N,00359.665,E,2.1,90,290300,1.6,W*4B
"
"2019-11-13 11:53:27.342297","$GPRMC,105326,A,5158.589,N,00359.666,E,2.1,90,290300,1.6,W*48
"
"2019-11-13 11:53:27.342297","$GPRMC,105326,A,5158.589,N,00359.666,E,2.1,90,290300,1.6,W*48
"
"2019-11-13 11:53:27.342297","$GPRMC,105326,A,5158.589,N,00359.666,E,2.1,90,290300,1.6,W*48
"
"2019-11-13 11:53:28.149533","$GPRMC,105327,A,5158.589,N,00359.666,E,2.1,90,290300,1.6,W*49
"
"2019-11-13 11:53:28.149533","$GPRMC,105327,A,5158.589,N,00359.666,E,2.1,90,290300,1.6,W*49
"
"2019-11-13 11:53:28.149533","$GPRMC,105327,A,5158.589,N,00359.666,E,2.1,90,290300,1.6,W*49
"
"2019-11-13 11:53:28.855453","$GPRMC,105328,A,5158.589,N,00359.667,E,2.1,90,290300,1.6,W*47
"
"2019-11-13 11:53:28.855453","$GPRMC,105328,A,5158.589,N,00359.667,E,2.1,90,290300,1.6,W*47
"
"2019-11-13 11:53:28.855453","$GPRMC,105328,A,5158.589,N,00359.667,E,2.1,90,290300,1.6,W*47
"
"2019-11-13 11:53:29.561832","$GPRMC,105329,A,5158.589,N,00359.668,E,2.1,90,290300,1.6,W*49
"
"2019-11-13 11:53:29.561832","$GPRMC,105329,A,5158.589,N,00359.668,E,2.1,90,290300,1.6,W*49
"
"2019-11-13 11:53:29.561832","$GPRMC,105329,A,5158.589,N,00359.668,E,2.1,90,290300,1.6,W*49
"
"2019-11-13 11:53:30.167675","$GPRMC,105329,A,5158.589,N,00359.668,E,2.0,90,290300,1.6,W*48
"
"2019-11-13 11:53:30.167675","$GPRMC,105329,A,5158.589,N,00359.668,E,2.0,90,290300,1.6,W*48
"
"2019-11-13 11:53:30.167675","$GPRMC,105329,A,5158.589,N,00359.668,E,2.0,90,290300,1.6,W*48
"
"2019-11-13 11:53:30.974584","$GPRMC,105330,A,5158.589,N,00359.669,E,2.0,90,290300,1.6,W*41
"
"2019-11-13 11:53:30.974584","$GPRMC,105330,A,5158.589,N,00359.669,E,2.0,90,290300,1.6,W*41
"
"2019-11-13 11:53:30.974584","$GPRMC,105330,A,5158.589,N,00359.669,E,2.0,90,290300,1.6,W*41
"
"2019-11-13 11:53:31.782105","$GPRMC,105331,A,5158.589,N,00359.669,E,2.0,90,290300,1.6,W*40
"
"2019-11-13 11:53:31.782105","$GPRMC,105331,A,5158.589,N,00359.669,E,2.0,90,290300,1.6,W*40
"
"2019-11-13 11:53:31.782105","$GPRMC,105331,A,5158.589,N,00359.669,E,2.0,90,290300,1.6,W*40
"
"2019-11-13 11:53:32.387679","$GPRMC,105332,A,5158.589,N,00359.670,E,2.0,90,290300,1.6,W*4B
"
"2019-11-13 11:53:32.387679","$GPRMC,105332,A,5158.589,N,00359.670,E,2.0,90,290300,1.6,W*4B
"
"2019-11-13 11:53:32.387679","$GPRMC,105332,A,5158.589,N,00359.670,E,2.0,90,290300,1.6,W*4B
"
"2019-11-13 11:53:33.195037","$GPRMC,105332,A,5158.589,N,00359.671,E,2.0,90,290300,1.6,W*4A
"
"2019-11-13 11:53:33.195037","$GPRMC,105332,A,5158.589,N,00359.671,E,2.0,90,290300,1.6,W*4A
"
"2019-11-13 11:53:33.195037","$GPRMC,105332,A,5158.589,N,00359.671,E,2.0,90,290300,1.6,W*4A
"
"2019-11-13 11:53:34.002428","$GPRMC,105333,A,5158.589,N,00359.671,E,2.0,90,290300,1.6,W*4B
"
"2019-11-13 11:53:34.002428","$GPRMC,105333,A,5158.589,N,00359.671,E,2.0,90,290300,1.6,W*4B
"
"2019-11-13 11:53:34.002428","$GPRMC,105333,A,5158.589,N,00359.671,E,2.0,90,290300,1.6,W*4B
"
"2019-11-13 11:53:34.809211","$GPRMC,105334,A,5158.589,N,00359.672,E,2.0,90,290300,1.6,W*4F
"
"2019-11-13 11:53:34.809211","$GPRMC,105334,A,5158.589,N,00359.672,E,2.0,90,290300,1.6,W*4F
"
"2019-11-13 11:53:34.809211","$GPRMC,105334,A,5158.589,N,00359.672,E,2.0,90,290300,1.6,W*4F
"
"2019-11-13 11:53:35.414818","$GPRMC,105335,A,5158.589,N,00359.673,E,2.0,90,290300,1.6,W*4F
"
"2019-11-13 11:53:35.414818","$GPRMC,105335,A,5158.589,N,00359.673,E,2.0,90,290300,1.6,W*4F
"
"2019-11-13 11:53:35.414818","$GPRMC,105335,A,5158.589,N,00359.673,E,2.0,90,290300,1.6,W*4F
"
"2019-11-13 11:53:36.221975","$GPRMC,105335,A,5158.589,N,00359.673,E,2.0,90,290300,1.6,W*4F
"
"2019-11-13 11:53:36.221975","$GPRMC,105335,A,5158.589,N,00359.673,E,2.0,90,290300,1.6,W*4F
"
"2019-11-13 11:53:36.221975","$GPRMC,105335,A,5158.589,N,00359.673,E,2.0,90,290300,1.6,W*4F
"
"2019-11-13 11:53:37.028469","$GPRMC,105336,A,5158.589,N,00359.674,E,2.0,90,290300,1.6,W*4B
"
"2019-11-13 11:53:37.028469","$GPRMC,105336,A,5158.589,N,00359.674,E,2.0,90,290300,1.6,W*4B
"
"2019-11-13 11:53:37.028469","$GPRMC,105336,A,5158.589,N,00359.674,E,2.0,90,290300,1.6,W*4B
"
"2019-11-13 11:53:37.834344","$GPRMC,105337,A,5158.589,N,00359.675,E,1.9,90,290300,1.6,W*41
"
"2019-11-13 11:53:37.834344","$GPRMC,105337,A,5158.589,N,00359.675,E,1.9,90,290300,1.6,W*41
"
"2019-11-13 11:53:37.834344","$GPRMC,105337,A,5158.589,N,00359.675,E,1.9,90,290300,1.6,W*41
"
"2019-11-13 11:53:38.440413","$GPRMC,105338,A,5158.589,N,00359.675,E,1.9,90,290300,1.6,W*4E
"
"2019-11-13 11:53:38.440413","$GPRMC,105338,A,5158.589,N,00359.675,E,1.9,90,290300,1.6,W*4E
"
"2019-11-13 11:53:38.440413","$GPRMC,105338,A,5158.589,N,00359.675,E,1.9,90,290300,1.6,W*4E
"
"2019-11-13 11:53:39.045674","$GPRMC,105338,A,5158.589,N,00359.676,E,1.9,90,290300,1.6,W*4D
"
"2019-11-13 11:53:39.045674","$GPRMC,105338,A,5158.589,N,00359.676,E,1.9,90,290300,1.6,W*4D
"
"2019-11-13 11:53:39.045674","$GPRMC,105338,A,5158.589,N,00359.676,E,1.9,90,290300,1.6,W*4D
"
"2019-11-13 11:53:40.053950","$GPRMC,105339,A,5158.589,N,00359.676,E,1.9,90,290300,1.6,W*4C
"
"2019-11-13 11:53:40.053950","$GPRMC,105339,A,5158.589,N,00359.676,E,1.9,90,290300,1.6,W*4C
"
"2019-11-13 11:53:40.053950","$GPRMC,105339,A,5158.589,N,00359.676,E,1.9,90,290300,1.6,W*4C
"
"2019-11-13 11:53:41.062328","$GPRMC,105340,A,5158.589,N,00359.677,E,1.9,90,290300,1.6,W*43
"
"2019-11-13 11:53:41.062328","$GPRMC,105340,A,5158.589,N,00359.677,E,1.9,90,290300,1.6,W*43
"
"2019-11-13 11:53:41.062328","$GPRMC,105340,A,5158.589,N,00359.677,E,1.9,90,290300,1.6,W*43
"
"2019-11-13 11:53:41.970107","$GPRMC,105341,A,5158.590,N,00359.679,E,2.2,87,290300,1.6,W*4A
"
"2019-11-13 11:53:41.970107","$GPRMC,105341,A,5158.590,N,00359.679,E,2.2,87,290300,1.6,W*4A
"
"2019-11-13 11:53:41.970107","$GPRMC,105341,A,5158.590,N,00359.679,E,2.2,87,290300,1.6,W*4A
"
"2019-11-13 11:53:42.978515","$GPRMC,105342,A,5158.590,N,00359.679,E,2.3,85,290300,1.6,W*4A
"
"2019-11-13 11:53:42.978515","$GPRMC,105342,A,5158.590,N,00359.679,E,2.3,85,290300,1.6,W*4A
"
"2019-11-13 11:53:42.978515","$GPRMC,105342,A,5158.590,N,00359.679,E,2.3,85,290300,1.6,W*4A
"
"2019-11-13 11:53:43.988027","$GPRMC,105343,A,5158.590,N,00359.681,E,2.5,81,290300,1.6,W*4E
"
"2019-11-13 11:53:43.988027","$GPRMC,105343,A,5158.590,N,00359.681,E,2.5,81,290300,1.6,W*4E
"
"2019-11-13 11:53:43.988027","$GPRMC,105343,A,5158.590,N,00359.681,E,2.5,81,290300,1.6,W*4E
"
"2019-11-13 11:53:44.895343","$GPRMC,105344,A,5158.591,N,00359.683,E,2.7,79,290300,1.6,W*4F
"
"2019-11-13 11:53:44.895343","$GPRMC,105344,A,5158.591,N,00359.683,E,2.7,79,290300,1.6,W*4F
"
"2019-11-13 11:53:44.895343","$GPRMC,105344,A,5158.591,N,00359.683,E,2.7,79,290300,1.6,W*4F
"
"2019-11-13 11:53:45.904099","$GPRMC,105345,A,5158.591,N,00359.684,E,2.8,78,290300,1.6,W*47
"
"2019-11-13 11:53:45.904099","$GPRMC,105345,A,5158.591,N,00359.684,E,2.8,78,290300,1.6,W*47
"
"2019-11-13 11:53:45.904099","$GPRMC,105345,A,5158.591,N,00359.684,E,2.8,78,290300,1.6,W*47
"
"2019-11-13 11:53:46.912014","$GPRMC,105346,A,5158.591,N,00359.686,E,2.9,76,290300,1.6,W*49
"
"2019-11-13 11:53:46.912014","$GPRMC,105346,A,5158.591,N,00359.686,E,2.9,76,290300,1.6,W*49
"
"2019-11-13 11:53:46.912014","$GPRMC,105346,A,5158.591,N,00359.686,E,2.9,76,290300,1.6,W*49
"
"2019-11-13 11:53:47.517206","$GPRMC,105347,A,5158.591,N,00359.686,E,3.0,76,290300,1.6,W*40
"
"2019-11-13 11:53:47.517206","$GPRMC,105347,A,5158.591,N,00359.686,E,3.0,76,290300,1.6,W*40
"
"2019-11-13 11:53:47.517206","$GPRMC,105347,A,5158.591,N,00359.686,E,3.0,76,290300,1.6,W*40
"
"2019-11-13 11:53:48.223054","$GPRMC,105347,A,5158.592,N,00359.687,E,3.0,75,290300,1.6,W*41
"
"2019-11-13 11:53:48.223054","$GPRMC,105347,A,5158.592,N,00359.687,E,3.0,75,290300,1.6,W*41
"
"2019-11-13 11:53:48.223054","$GPRMC,105347,A,5158.592,N,00359.687,E,3.0,75,290300,1.6,W*41
"
"2019-11-13 11:53:51.965581","$GPRMC,105351,A,5158.592,N,00359.692,E,3.2,75,290300,1.6,W*40
"
"2019-11-13 11:53:51.965581","$GPRMC,105351,A,5158.592,N,00359.692,E,3.2,75,290300,1.6,W*40
"
"2019-11-13 11:53:51.965581","$GPRMC,105351,A,5158.592,N,00359.692,E,3.2,75,290300,1.6,W*40
"
"2019-11-13 11:53:51.965581","$GPRMC,105351,A,5158.592,N,00359.692,E,3.2,75,290300,1.6,W*40
"
"2019-11-13 11:53:52.981322","$GPRMC,105352,A,5158.592,N,00359.694,E,3.1,76,290300,1.6,W*45
"
"2019-11-13 11:53:52.981322","$GPRMC,105352,A,5158.592,N,00359.694,E,3.1,76,290300,1.6,W*45
"
"2019-11-13 11:53:52.981322","$GPRMC,105352,A,5158.592,N,00359.694,E,3.1,76,290300,1.6,W*45
"
"2019-11-13 11:53:52.981322","$GPRMC,105352,A,5158.592,N,00359.694,E,3.1,76,290300,1.6,W*45
"
"2019-11-13 11:53:53.896733","$GPRMC,105353,A,5158.593,N,00359.695,E,3.0,76,290300,1.6,W*45
"
"2019-11-13 11:53:53.896733","$GPRMC,105353,A,5158.593,N,00359.695,E,3.0,76,290300,1.6,W*45
"
"2019-11-13 11:53:53.896733","$GPRMC,105353,A,5158.593,N,00359.695,E,3.0,76,290300,1.6,W*45
"
"2019-11-13 11:53:53.896733","$GPRMC,105353,A,5158.593,N,00359.695,E,3.0,76,290300,1.6,W*45
"
"2019-11-13 11:53:54.505932","$GPRMC,105354,A,5158.593,N,00359.696,E,3.0,77,290300,1.6,W*40
"
"2019-11-13 11:53:54.505932","$GPRMC,105354,A,5158.593,N,00359.696,E,3.0,77,290300,1.6,W*40
"
"2019-11-13 11:53:54.505932","$GPRMC,105354,A,5158.593,N,00359.696,E,3.0,77,290300,1.6,W*40
"
"2019-11-13 11:53:54.505932","$GPRMC,105354,A,5158.593,N,00359.696,E,3.0,77,290300,1.6,W*40
"
"2019-11-13 11:53:55.221139","$GPRMC,105354,A,5158.593,N,00359.696,E,2.9,77,290300,1.6,W*48
"
"2019-11-13 11:53:55.221139","$GPRMC,105354,A,5158.593,N,00359.696,E,2.9,77,290300,1.6,W*48
"
"2019-11-13 11:53:55.221139","$GPRMC,105354,A,5158.593,N,00359.696,E,2.9,77,290300,1.6,W*48
"
"2019-11-13 11:53:55.221139","$GPRMC,105354,A,5158.593,N,00359.696,E,2.9,77,290300,1.6,W*48
"
"2019-11-13 11:53:55.931195","$GPRMC,105355,A,5158.593,N,00359.697,E,2.8,77,290300,1.6,W*49
"
"2019-11-13 11:53:55.931195","$GPRMC,105355,A,5158.593,N,00359.697,E,2.8,77,290300,1.6,W*49
"
"2019-11-13 11:53:55.931195","$GPRMC,105355,A,5158.593,N,00359.697,E,2.8,77,290300,1.6,W*49
"
"2019-11-13 11:53:55.931195","$GPRMC,105355,A,5158.593,N,00359.697,E,2.8,77,290300,1.6,W*49
"
"2019-11-13 11:53:56.546371","$GPRMC,105356,A,5158.592,N,00359.698,E,2.6,78,290300,1.6,W*45
"
"2019-11-13 11:53:56.546371","$GPRMC,105356,A,5158.592,N,00359.698,E,2.6,78,290300,1.6,W*45
"
"2019-11-13 11:53:56.546371","$GPRMC,105356,A,5158.592,N,00359.698,E,2.6,78,290300,1.6,W*45
"
"2019-11-13 11:53:56.546371","$GPRMC,105356,A,5158.592,N,00359.698,E,2.6,78,290300,1.6,W*45
"
"2019-11-13 11:53:57.153735","$GPRMC,105356,A,5158.592,N,00359.698,E,2.5,78,290300,1.6,W*46
"
"2019-11-13 11:53:57.153735","$GPRMC,105356,A,5158.592,N,00359.698,E,2.5,78,290300,1.6,W*46
"
"2019-11-13 11:53:57.153735","$GPRMC,105356,A,5158.592,N,00359.698,E,2.5,78,290300,1.6,W*46
"
"2019-11-13 11:53:57.153735","$GPRMC,105356,A,5158.592,N,00359.698,E,2.5,78,290300,1.6,W*46
"
"2019-11-13 11:53:57.963850","$GPRMC,105357,A,5158.592,N,00359.699,E,2.5,79,290300,1.6,W*47
"
"2019-11-13 11:53:57.963850","$GPRMC,105357,A,5158.592,N,00359.699,E,2.5,79,290300,1.6,W*47
"
"2019-11-13 11:53:57.963850","$GPRMC,105357,A,5158.592,N,00359.699,E,2.5,79,290300,1.6,W*47
"
"2019-11-13 11:53:57.963850","$GPRMC,105357,A,5158.592,N,00359.699,E,2.5,79,290300,1.6,W*47
"
"2019-11-13 11:53:58.773842","$GPRMC,105358,A,5158.592,N,00359.700,E,2.4,79,290300,1.6,W*48
"
"2019-11-13 11:53:58.773842","$GPRMC,105358,A,5158.592,N,00359.700,E,2.4,79,290300,1.6,W*48
"
"2019-11-13 11:53:58.773842","$GPRMC,105358,A,5158.592,N,00359.700,E,2.4,79,290300,1.6,W*48
"
"2019-11-13 11:53:58.773842","$GPRMC,105358,A,5158.592,N,00359.700,E,2.4,79,290300,1.6,W*48
"
"2019-11-13 11:53:59.380457","$GPRMC,105358,A,5158.592,N,00359.700,E,2.3,79,290300,1.6,W*4F
"
"2019-11-13 11:53:59.380457","$GPRMC,105358,A,5158.592,N,00359.700,E,2.3,79,290300,1.6,W*4F
"
"2019-11-13 11:53:59.380457","$GPRMC,105358,A,5158.592,N,00359.700,E,2.3,79,290300,1.6,W*4F
"
"2019-11-13 11:53:59.380457","$GPRMC,105358,A,5158.592,N,00359.700,E,2.3,79,290300,1.6,W*4F
"
"2019-11-13 11:54:00.189383","$GPRMC,105359,A,5158.592,N,00359.701,E,2.3,80,290300,1.6,W*49
"
"2019-11-13 11:54:00.189383","$GPRMC,105359,A,5158.592,N,00359.701,E,2.3,80,290300,1.6,W*49
"
"2019-11-13 11:54:00.189383","$GPRMC,105359,A,5158.592,N,00359.701,E,2.3,80,290300,1.6,W*49
"
"2019-11-13 11:54:00.189383","$GPRMC,105359,A,5158.592,N,00359.701,E,2.3,80,290300,1.6,W*49
"
"2019-11-13 11:54:00.796102","$GPRMC,105400,A,5158.592,N,00359.702,E,2.4,81,290300,1.6,W*47
"
"2019-11-13 11:54:00.796102","$GPRMC,105400,A,5158.592,N,00359.702,E,2.4,81,290300,1.6,W*47
"
"2019-11-13 11:54:00.796102","$GPRMC,105400,A,5158.592,N,00359.702,E,2.4,81,290300,1.6,W*47
"
"2019-11-13 11:54:00.796102","$GPRMC,105400,A,5158.592,N,00359.702,E,2.4,81,290300,1.6,W*47
"
"2019-11-13 11:54:01.559109","$GPRMC,105401,A,5158.592,N,00359.703,E,2.5,82,290300,1.6,W*45
"
"2019-11-13 11:54:01.559109","$GPRMC,105401,A,5158.592,N,00359.703,E,2.5,82,290300,1.6,W*45
"
"2019-11-13 11:54:01.559109","$GPRMC,105401,A,5158.592,N,00359.703,E,2.5,82,290300,1.6,W*45
"
"2019-11-13 11:54:01.559109","$GPRMC,105401,A,5158.592,N,00359.703,E,2.5,82,290300,1.6,W*45
"
"2019-11-13 11:54:02.269828","$GPRMC,105401,A,5158.593,N,00359.704,E,2.7,82,290300,1.6,W*41
"
"2019-11-13 11:54:02.269828","$GPRMC,105401,A,5158.593,N,00359.704,E,2.7,82,290300,1.6,W*41
"
"2019-11-13 11:54:02.269828","$GPRMC,105401,A,5158.593,N,00359.704,E,2.7,82,290300,1.6,W*41
"
"2019-11-13 11:54:02.269828","$GPRMC,105401,A,5158.593,N,00359.704,E,2.7,82,290300,1.6,W*41
"
"2019-11-13 11:54:03.079689","$GPRMC,105402,A,5158.593,N,00359.706,E,3.1,84,290300,1.6,W*41
"
"2019-11-13 11:54:03.079689","$GPRMC,105402,A,5158.593,N,00359.706,E,3.1,84,290300,1.6,W*41
"
"2019-11-13 11:54:03.079689","$GPRMC,105402,A,5158.593,N,00359.706,E,3.1,84,290300,1.6,W*41
"
"2019-11-13 11:54:03.079689","$GPRMC,105402,A,5158.593,N,00359.706,E,3.1,84,290300,1.6,W*41
"
"2019-11-13 11:54:03.890579","$GPRMC,105403,A,5158.592,N,00359.708,E,3.7,86,290300,1.6,W*4B
"
"2019-11-13 11:54:03.890579","$GPRMC,105403,A,5158.592,N,00359.708,E,3.7,86,290300,1.6,W*4B
"
"2019-11-13 11:54:03.890579","$GPRMC,105403,A,5158.592,N,00359.708,E,3.7,86,290300,1.6,W*4B
"
"2019-11-13 11:54:03.890579","$GPRMC,105403,A,5158.592,N,00359.708,E,3.7,86,290300,1.6,W*4B
"
"2019-11-13 11:54:04.500002","$GPRMC,105404,A,5158.592,N,00359.711,E,4.4,89,290300,1.6,W*4F
"
"2019-11-13 11:54:04.500002","$GPRMC,105404,A,5158.592,N,00359.711,E,4.4,89,290300,1.6,W*4F
"
"2019-11-13 11:54:04.500002","$GPRMC,105404,A,5158.592,N,00359.711,E,4.4,89,290300,1.6,W*4F
"
"2019-11-13 11:54:04.500002","$GPRMC,105404,A,5158.592,N,00359.711,E,4.4,89,290300,1.6,W*4F
"
"2019-11-13 11:54:05.108690","$GPRMC,105404,A,5158.592,N,00359.714,E,5.1,90,290300,1.6,W*46
"
"2019-11-13 11:54:05.108690","$GPRMC,105404,A,5158.592,N,00359.714,E,5.1,90,290300,1.6,W*46
"
"2019-11-13 11:54:05.108690","$GPRMC,105404,A,5158.592,N,00359.714,E,5.1,90,290300,1.6,W*46
"
"2019-11-13 11:54:05.108690","$GPRMC,105404,A,5158.592,N,00359.714,E,5.1,90,290300,1.6,W*46
"
"2019-11-13 11:54:05.918713","$GPRMC,105405,A,5158.592,N,00359.717,E,5.9,92,290300,1.6,W*4E
"
"2019-11-13 11:54:05.918713","$GPRMC,105405,A,5158.592,N,00359.717,E,5.9,92,290300,1.6,W*4E
"
"2019-11-13 11:54:05.918713","$GPRMC,105405,A,5158.592,N,00359.717,E,5.9,92,290300,1.6,W*4E
"
"2019-11-13 11:54:05.918713","$GPRMC,105405,A,5158.592,N,00359.717,E,5.9,92,290300,1.6,W*4E
"
"2019-11-13 11:54:06.728599","$GPRMC,105406,A,5158.591,N,00359.721,E,6.8,92,290300,1.6,W*49
"
"2019-11-13 11:54:06.728599","$GPRMC,105406,A,5158.591,N,00359.721,E,6.8,92,290300,1.6,W*49
"
"2019-11-13 11:54:06.728599","$GPRMC,105406,A,5158.591,N,00359.721,E,6.8,92,290300,1.6,W*49
"
"2019-11-13 11:54:06.728599","$GPRMC,105406,A,5158.591,N,00359.721,E,6.8,92,290300,1.6,W*49
"
"2019-11-13 11:54:07.538015","$GPRMC,105407,A,5158.591,N,00359.725,E,7.7,93,290300,1.6,W*43
"
"2019-11-13 11:54:07.538015","$GPRMC,105407,A,5158.591,N,00359.725,E,7.7,93,290300,1.6,W*43
"
"2019-11-13 11:54:07.538015","$GPRMC,105407,A,5158.591,N,00359.725,E,7.7,93,290300,1.6,W*43
"
"2019-11-13 11:54:07.538015","$GPRMC,105407,A,5158.591,N,00359.725,E,7.7,93,290300,1.6,W*43
"
"2019-11-13 11:54:08.348576","$GPRMC,105407,A,5158.591,N,00359.730,E,8.6,93,290300,1.6,W*49
"
"2019-11-13 11:54:08.348576","$GPRMC,105407,A,5158.591,N,00359.730,E,8.6,93,290300,1.6,W*49
"
"2019-11-13 11:54:08.348576","$GPRMC,105407,A,5158.591,N,00359.730,E,8.6,93,290300,1.6,W*49
"
"2019-11-13 11:54:08.348576","$GPRMC,105407,A,5158.591,N,00359.730,E,8.6,93,290300,1.6,W*49
"
"2019-11-13 11:54:09.159736","$GPRMC,105408,A,5158.591,N,00359.734,E,9.4,93,290300,1.6,W*41
"
"2019-11-13 11:54:09.159736","$GPRMC,105408,A,5158.591,N,00359.734,E,9.4,93,290300,1.6,W*41
"
"2019-11-13 11:54:09.159736","$GPRMC,105408,A,5158.591,N,00359.734,E,9.4,93,290300,1.6,W*41
"
"2019-11-13 11:54:09.159736","$GPRMC,105408,A,5158.591,N,00359.734,E,9.4,93,290300,1.6,W*41
"
"2019-11-13 11:54:09.868772","$GPRMC,105409,A,5158.591,N,00359.739,E,10.2,93,290300,1.6,W*73
"
"2019-11-13 11:54:09.868772","$GPRMC,105409,A,5158.591,N,00359.739,E,10.2,93,290300,1.6,W*73
"
"2019-11-13 11:54:09.868772","$GPRMC,105409,A,5158.591,N,00359.739,E,10.2,93,290300,1.6,W*73
"
"2019-11-13 11:54:09.868772","$GPRMC,105409,A,5158.591,N,00359.739,E,10.2,93,290300,1.6,W*73
"
"2019-11-13 11:54:10.579222","$GPRMC,105410,A,5158.590,N,00359.743,E,10.9,93,290300,1.6,W*7C
"
"2019-11-13 11:54:10.579222","$GPRMC,105410,A,5158.590,N,00359.743,E,10.9,93,290300,1.6,W*7C
"
"2019-11-13 11:54:10.579222","$GPRMC,105410,A,5158.590,N,00359.743,E,10.9,93,290300,1.6,W*7C
"
"2019-11-13 11:54:10.579222","$GPRMC,105410,A,5158.590,N,00359.743,E,10.9,93,290300,1.6,W*7C
"
"2019-11-13 11:54:11.288151","$GPRMC,105410,A,5158.590,N,00359.748,E,11.4,93,290300,1.6,W*7B
"
"2019-11-13 11:54:11.288151","$GPRMC,105410,A,5158.590,N,00359.748,E,11.4,93,290300,1.6,W*7B
"
"2019-11-13 11:54:11.288151","$GPRMC,105410,A,5158.590,N,00359.748,E,11.4,93,290300,1.6,W*7B
"
"2019-11-13 11:54:11.288151","$GPRMC,105410,A,5158.590,N,00359.748,E,11.4,93,290300,1.6,W*7B
"
"2019-11-13 11:54:12.300136","$GPRMC,105411,A,5158.590,N,00359.753,E,12.0,93,290300,1.6,W*77
"
"2019-11-13 11:54:12.300136","$GPRMC,105411,A,5158.590,N,00359.753,E,12.0,93,290300,1.6,W*77
"
"2019-11-13 11:54:12.300136","$GPRMC,105411,A,5158.590,N,00359.753,E,12.0,93,290300,1.6,W*77
"
"2019-11-13 11:54:12.300136","$GPRMC,105411,A,5158.590,N,00359.753,E,12.0,93,290300,1.6,W*77
"
"2019-11-13 11:54:13.109496","$GPRMC,105412,A,5158.590,N,00359.759,E,12.5,93,290300,1.6,W*7B
"
"2019-11-13 11:54:13.109496","$GPRMC,105412,A,5158.590,N,00359.759,E,12.5,93,290300,1.6,W*7B
"
"2019-11-13 11:54:13.109496","$GPRMC,105412,A,5158.590,N,00359.759,E,12.5,93,290300,1.6,W*7B
"
"2019-11-13 11:54:13.109496","$GPRMC,105412,A,5158.590,N,00359.759,E,12.5,93,290300,1.6,W*7B
"
"2019-11-13 11:54:13.919463","$GPRMC,105413,A,5158.590,N,00359.765,E,13.0,93,290300,1.6,W*71
"
"2019-11-13 11:54:13.919463","$GPRMC,105413,A,5158.590,N,00359.765,E,13.0,93,290300,1.6,W*71
"
"2019-11-13 11:54:13.919463","$GPRMC,105413,A,5158.590,N,00359.765,E,13.0,93,290300,1.6,W*71
"
"2019-11-13 11:54:13.919463","$GPRMC,105413,A,5158.590,N,00359.765,E,13.0,93,290300,1.6,W*71
"
"2019-11-13 11:54:14.526982","$GPRMC,105414,A,5158.590,N,00359.769,E,13.4,93,290300,1.6,W*7E
"
"2019-11-13 11:54:14.526982","$GPRMC,105414,A,5158.590,N,00359.769,E,13.4,93,290300,1.6,W*7E
"
"2019-11-13 11:54:14.526982","$GPRMC,105414,A,5158.590,N,00359.769,E,13.4,93,290300,1.6,W*7E
"
"2019-11-13 11:54:14.526982","$GPRMC,105414,A,5158.590,N,00359.769,E,13.4,93,290300,1.6,W*7E
"
"2019-11-13 11:54:15.336717","$GPRMC,105414,A,5158.590,N,00359.775,E,13.8,93,290300,1.6,W*7F
"
"2019-11-13 11:54:15.336717","$GPRMC,105414,A,5158.590,N,00359.775,E,13.8,93,290300,1.6,W*7F
"
"2019-11-13 11:54:15.336717","$GPRMC,105414,A,5158.590,N,00359.775,E,13.8,93,290300,1.6,W*7F
"
"2019-11-13 11:54:15.336717","$GPRMC,105414,A,5158.590,N,00359.775,E,13.8,93,290300,1.6,W*7F
"
"2019-11-13 11:54:16.044978","$GPRMC,105415,A,5158.590,N,00359.780,E,14.1,93,290300,1.6,W*7A
"
"2019-11-13 11:54:16.044978","$GPRMC,105415,A,5158.590,N,00359.780,E,14.1,93,290300,1.6,W*7A
"
"2019-11-13 11:54:16.044978","$GPRMC,105415,A,5158.590,N,00359.780,E,14.1,93,290300,1.6,W*7A
"
"2019-11-13 11:54:16.044978","$GPRMC,105415,A,5158.590,N,00359.780,E,14.1,93,290300,1.6,W*7A
"
"2019-11-13 11:54:17.057306","$GPRMC,105416,A,5158.589,N,00359.786,E,14.4,92,290300,1.6,W*73
"
"2019-11-13 11:54:17.057306","$GPRMC,105416,A,5158.589,N,00359.786,E,14.4,92,290300,1.6,W*73
"
"2019-11-13 11:54:17.057306","$GPRMC,105416,A,5158.589,N,00359.786,E,14.4,92,290300,1.6,W*73
"
"2019-11-13 11:54:17.057306","$GPRMC,105416,A,5158.589,N,00359.786,E,14.4,92,290300,1.6,W*73
"
"2019-11-13 11:54:17.867688","$GPRMC,105417,A,5158.589,N,00359.790,E,14.7,92,290300,1.6,W*76
"
"2019-11-13 11:54:17.867688","$GPRMC,105417,A,5158.589,N,00359.790,E,14.7,92,290300,1.6,W*76
"
"2019-11-13 11:54:17.867688","$GPRMC,105417,A,5158.589,N,00359.790,E,14.7,92,290300,1.6,W*76
"
"2019-11-13 11:54:17.867688","$GPRMC,105417,A,5158.589,N,00359.790,E,14.7,92,290300,1.6,W*76
"
"2019-11-13 11:54:18.475278","$GPRMC,105418,A,5158.589,N,00359.796,E,14.9,93,290300,1.6,W*70
"
"2019-11-13 11:54:18.475278","$GPRMC,105418,A,5158.589,N,00359.796,E,14.9,93,290300,1.6,W*70
"
"2019-11-13 11:54:18.475278","$GPRMC,105418,A,5158.589,N,00359.796,E,14.9,93,290300,1.6,W*70
"
"2019-11-13 11:54:18.475278","$GPRMC,105418,A,5158.589,N,00359.796,E,14.9,93,290300,1.6,W*70
"
"2019-11-13 11:54:19.285295","$GPRMC,105418,A,5158.589,N,00359.802,E,15.1,93,290300,1.6,W*7B
"
"2019-11-13 11:54:19.285295","$GPRMC,105418,A,5158.589,N,00359.802,E,15.1,93,290300,1.6,W*7B
"
"2019-11-13 11:54:19.285295","$GPRMC,105418,A,5158.589,N,00359.802,E,15.1,93,290300,1.6,W*7B
"
"2019-11-13 11:54:19.285295","$GPRMC,105418,A,5158.589,N,00359.802,E,15.1,93,290300,1.6,W*7B
"
"2019-11-13 11:54:20.095754","$GPRMC,105419,A,5158.589,N,00359.809,E,15.5,93,290300,1.6,W*75
"
"2019-11-13 11:54:20.095754","$GPRMC,105419,A,5158.589,N,00359.809,E,15.5,93,290300,1.6,W*75
"
"2019-11-13 11:54:20.095754","$GPRMC,105419,A,5158.589,N,00359.809,E,15.5,93,290300,1.6,W*75
"
"2019-11-13 11:54:20.095754","$GPRMC,105419,A,5158.589,N,00359.809,E,15.5,93,290300,1.6,W*75
"
"2019-11-13 11:54:20.906079","$GPRMC,105420,A,5158.589,N,00359.815,E,15.8,93,290300,1.6,W*7F
"
"2019-11-13 11:54:20.906079","$GPRMC,105420,A,5158.589,N,00359.815,E,15.8,93,290300,1.6,W*7F
"
"2019-11-13 11:54:20.906079","$GPRMC,105420,A,5158.589,N,00359.815,E,15.8,93,290300,1.6,W*7F
"
"2019-11-13 11:54:20.906079","$GPRMC,105420,A,5158.589,N,00359.815,E,15.8,93,290300,1.6,W*7F
"
"2019-11-13 11:54:21.818239","$GPRMC,105421,A,5158.588,N,00359.820,E,16.0,93,290300,1.6,W*72
"
"2019-11-13 11:54:21.818239","$GPRMC,105421,A,5158.588,N,00359.820,E,16.0,93,290300,1.6,W*72
"
"2019-11-13 11:54:21.818239","$GPRMC,105421,A,5158.588,N,00359.820,E,16.0,93,290300,1.6,W*72
"
"2019-11-13 11:54:21.818239","$GPRMC,105421,A,5158.588,N,00359.820,E,16.0,93,290300,1.6,W*72
"
"2019-11-13 11:54:22.426438","$GPRMC,105422,A,5158.588,N,00359.826,E,16.3,93,290300,1.6,W*74
"
"2019-11-13 11:54:22.426438","$GPRMC,105422,A,5158.588,N,00359.826,E,16.3,93,290300,1.6,W*74
"
"2019-11-13 11:54:22.426438","$GPRMC,105422,A,5158.588,N,00359.826,E,16.3,93,290300,1.6,W*74
"
"2019-11-13 11:54:22.426438","$GPRMC,105422,A,5158.588,N,00359.826,E,16.3,93,290300,1.6,W*74
"
"2019-11-13 11:54:23.235905","$GPRMC,105422,A,5158.588,N,00359.833,E,16.6,93,290300,1.6,W*75
"
"2019-11-13 11:54:23.235905","$GPRMC,105422,A,5158.588,N,00359.833,E,16.6,93,290300,1.6,W*75
"
"2019-11-13 11:54:23.235905","$GPRMC,105422,A,5158.588,N,00359.833,E,16.6,93,290300,1.6,W*75
"
"2019-11-13 11:54:23.235905","$GPRMC,105422,A,5158.588,N,00359.833,E,16.6,93,290300,1.6,W*75
"
"2019-11-13 11:54:24.045895","$GPRMC,105423,A,5158.588,N,00359.840,E,16.9,92,290300,1.6,W*7E
"
"2019-11-13 11:54:24.045895","$GPRMC,105423,A,5158.588,N,00359.840,E,16.9,92,290300,1.6,W*7E
"
"2019-11-13 11:54:24.045895","$GPRMC,105423,A,5158.588,N,00359.840,E,16.9,92,290300,1.6,W*7E
"
"2019-11-13 11:54:24.045895","$GPRMC,105423,A,5158.588,N,00359.840,E,16.9,92,290300,1.6,W*7E
"
"2019-11-13 11:54:24.854557","$GPRMC,105424,A,5158.588,N,00359.846,E,17.1,92,290300,1.6,W*76
"
"2019-11-13 11:54:24.854557","$GPRMC,105424,A,5158.588,N,00359.846,E,17.1,92,290300,1.6,W*76
"
"2019-11-13 11:54:24.854557","$GPRMC,105424,A,5158.588,N,00359.846,E,17.1,92,290300,1.6,W*76
"
"2019-11-13 11:54:24.854557","$GPRMC,105424,A,5158.588,N,00359.846,E,17.1,92,290300,1.6,W*76
"
"2019-11-13 11:54:25.461492","$GPRMC,105425,A,5158.588,N,00359.852,E,17.3,92,290300,1.6,W*70
"
"2019-11-13 11:54:25.461492","$GPRMC,105425,A,5158.588,N,00359.852,E,17.3,92,290300,1.6,W*70
"
"2019-11-13 11:54:25.461492","$GPRMC,105425,A,5158.588,N,00359.852,E,17.3,92,290300,1.6,W*70
"
"2019-11-13 11:54:25.461492","$GPRMC,105425,A,5158.588,N,00359.852,E,17.3,92,290300,1.6,W*70
"
"2019-11-13 11:54:26.271752","$GPRMC,105425,A,5158.588,N,00359.859,E,17.6,92,290300,1.6,W*7E
"
"2019-11-13 11:54:26.271752","$GPRMC,105425,A,5158.588,N,00359.859,E,17.6,92,290300,1.6,W*7E
"
"2019-11-13 11:54:26.271752","$GPRMC,105425,A,5158.588,N,00359.859,E,17.6,92,290300,1.6,W*7E
"
"2019-11-13 11:54:26.271752","$GPRMC,105425,A,5158.588,N,00359.859,E,17.6,92,290300,1.6,W*7E
"
"2019-11-13 11:54:27.080915","$GPRMC,105426,A,5158.588,N,00359.865,E,17.8,92,290300,1.6,W*7C
"
"2019-11-13 11:54:27.080915","$GPRMC,105426,A,5158.588,N,00359.865,E,17.8,92,290300,1.6,W*7C
"
"2019-11-13 11:54:27.080915","$GPRMC,105426,A,5158.588,N,00359.865,E,17.8,92,290300,1.6,W*7C
"
"2019-11-13 11:54:27.080915","$GPRMC,105426,A,5158.588,N,00359.865,E,17.8,92,290300,1.6,W*7C
"
"2019-11-13 11:54:27.991539","$GPRMC,105427,A,5158.588,N,00359.873,E,18.1,92,290300,1.6,W*7C
"
"2019-11-13 11:54:27.991539","$GPRMC,105427,A,5158.588,N,00359.873,E,18.1,92,290300,1.6,W*7C
"
"2019-11-13 11:54:27.991539","$GPRMC,105427,A,5158.588,N,00359.873,E,18.1,92,290300,1.6,W*7C
"
"2019-11-13 11:54:27.991539","$GPRMC,105427,A,5158.588,N,00359.873,E,18.1,92,290300,1.6,W*7C
"
"2019-11-13 11:54:29.004854","$GPRMC,105428,A,5158.588,N,00359.878,E,18.3,92,290300,1.6,W*7A
"
"2019-11-13 11:54:29.004854","$GPRMC,105428,A,5158.588,N,00359.878,E,18.3,92,290300,1.6,W*7A
"
"2019-11-13 11:54:29.004854","$GPRMC,105428,A,5158.588,N,00359.878,E,18.3,92,290300,1.6,W*7A
"
"2019-11-13 11:54:29.004854","$GPRMC,105428,A,5158.588,N,00359.878,E,18.3,92,290300,1.6,W*7A
"
"2019-11-13 11:54:29.917017","$GPRMC,105429,A,5158.588,N,00359.885,E,18.5,91,290300,1.6,W*7C
"
"2019-11-13 11:54:29.917017","$GPRMC,105429,A,5158.588,N,00359.885,E,18.5,91,290300,1.6,W*7C
"
"2019-11-13 11:54:29.917017","$GPRMC,105429,A,5158.588,N,00359.885,E,18.5,91,290300,1.6,W*7C
"
"2019-11-13 11:54:29.917017","$GPRMC,105429,A,5158.588,N,00359.885,E,18.5,91,290300,1.6,W*7C
"
"2019-11-13 11:54:30.930656","$GPRMC,105430,A,5158.588,N,00359.899,E,18.8,91,290300,1.6,W*74
"
"2019-11-13 11:54:30.930656","$GPRMC,105430,A,5158.588,N,00359.899,E,18.8,91,290300,1.6,W*74
"
"2019-11-13 11:54:30.930656","$GPRMC,105430,A,5158.588,N,00359.899,E,18.8,91,290300,1.6,W*74
"
"2019-11-13 11:54:30.930656","$GPRMC,105430,A,5158.588,N,00359.899,E,18.8,91,290300,1.6,W*74
"
"2019-11-13 11:54:31.941954","$GPRMC,105431,A,5158.588,N,00359.907,E,18.9,91,290300,1.6,W*72
"
"2019-11-13 11:54:31.941954","$GPRMC,105431,A,5158.588,N,00359.907,E,18.9,91,290300,1.6,W*72
"
"2019-11-13 11:54:31.941954","$GPRMC,105431,A,5158.588,N,00359.907,E,18.9,91,290300,1.6,W*72
"
"2019-11-13 11:54:31.941954","$GPRMC,105431,A,5158.588,N,00359.907,E,18.9,91,290300,1.6,W*72
"
"2019-11-13 11:54:32.559438","$GPRMC,105432,A,5158.588,N,00359.913,E,19.0,91,290300,1.6,W*7C
"
"2019-11-13 11:54:32.559438","$GPRMC,105432,A,5158.588,N,00359.913,E,19.0,91,290300,1.6,W*7C
"
"2019-11-13 11:54:32.559438","$GPRMC,105432,A,5158.588,N,00359.913,E,19.0,91,290300,1.6,W*7C
"
"2019-11-13 11:54:32.559438","$GPRMC,105432,A,5158.588,N,00359.913,E,19.0,91,290300,1.6,W*7C
"
"2019-11-13 11:54:33.384050","$GPRMC,105432,A,5158.588,N,00359.920,E,19.1,91,290300,1.6,W*7D
"
"2019-11-13 11:54:33.384050","$GPRMC,105432,A,5158.588,N,00359.920,E,19.1,91,290300,1.6,W*7D
"
"2019-11-13 11:54:33.384050","$GPRMC,105432,A,5158.588,N,00359.920,E,19.1,91,290300,1.6,W*7D
"
"2019-11-13 11:54:33.384050","$GPRMC,105432,A,5158.588,N,00359.920,E,19.1,91,290300,1.6,W*7D
"
"2019-11-13 11:54:34.100037","$GPRMC,105433,A,5158.588,N,00359.927,E,19.2,91,290300,1.6,W*78
"
"2019-11-13 11:54:34.100037","$GPRMC,105433,A,5158.588,N,00359.927,E,19.2,91,290300,1.6,W*78
"
"2019-11-13 11:54:34.100037","$GPRMC,105433,A,5158.588,N,00359.927,E,19.2,91,290300,1.6,W*78
"
"2019-11-13 11:54:34.100037","$GPRMC,105433,A,5158.588,N,00359.927,E,19.2,91,290300,1.6,W*78
"
"2019-11-13 11:54:35.117610","$GPRMC,105434,A,5158.589,N,00359.936,E,19.7,90,290300,1.6,W*7A
"
"2019-11-13 11:54:35.117610","$GPRMC,105434,A,5158.589,N,00359.936,E,19.7,90,290300,1.6,W*7A
"
"2019-11-13 11:54:35.117610","$GPRMC,105434,A,5158.589,N,00359.936,E,19.7,90,290300,1.6,W*7A
"
"2019-11-13 11:54:35.117610","$GPRMC,105434,A,5158.589,N,00359.936,E,19.7,90,290300,1.6,W*7A
"
"2019-11-13 11:54:35.930670","$GPRMC,105435,A,5158.589,N,00359.944,E,19.9,89,290300,1.6,W*78
"
"2019-11-13 11:54:35.930670","$GPRMC,105435,A,5158.589,N,00359.944,E,19.9,89,290300,1.6,W*78
"
"2019-11-13 11:54:35.930670","$GPRMC,105435,A,5158.589,N,00359.944,E,19.9,89,290300,1.6,W*78
"
"2019-11-13 11:54:35.930670","$GPRMC,105435,A,5158.589,N,00359.944,E,19.9,89,290300,1.6,W*78
"
"2019-11-13 11:54:36.541153","$GPRMC,105436,A,5158.589,N,00359.949,E,20.0,89,290300,1.6,W*75
"
"2019-11-13 11:54:36.541153","$GPRMC,105436,A,5158.589,N,00359.949,E,20.0,89,290300,1.6,W*75
"
"2019-11-13 11:54:36.541153","$GPRMC,105436,A,5158.589,N,00359.949,E,20.0,89,290300,1.6,W*75
"
"2019-11-13 11:54:36.541153","$GPRMC,105436,A,5158.589,N,00359.949,E,20.0,89,290300,1.6,W*75
"
"2019-11-13 11:54:37.353923","$GPRMC,105436,A,5158.589,N,00359.957,E,20.1,89,290300,1.6,W*7B
"
"2019-11-13 11:54:37.353923","$GPRMC,105436,A,5158.589,N,00359.957,E,20.1,89,290300,1.6,W*7B
"
"2019-11-13 11:54:37.353923","$GPRMC,105436,A,5158.589,N,00359.957,E,20.1,89,290300,1.6,W*7B
"
"2019-11-13 11:54:37.353923","$GPRMC,105436,A,5158.589,N,00359.957,E,20.1,89,290300,1.6,W*7B
"
"2019-11-13 11:54:38.066558","$GPRMC,105437,A,5158.590,N,00359.965,E,20.5,88,290300,1.6,W*76
"
"2019-11-13 11:54:38.066558","$GPRMC,105437,A,5158.590,N,00359.965,E,20.5,88,290300,1.6,W*76
"
"2019-11-13 11:54:38.066558","$GPRMC,105437,A,5158.590,N,00359.965,E,20.5,88,290300,1.6,W*76
"
"2019-11-13 11:54:38.066558","$GPRMC,105437,A,5158.590,N,00359.965,E,20.5,88,290300,1.6,W*76
"
"2019-11-13 11:54:38.879315","$GPRMC,105438,A,5158.591,N,00359.973,E,20.8,87,290300,1.6,W*7D
"
"2019-11-13 11:54:38.879315","$GPRMC,105438,A,5158.591,N,00359.973,E,20.8,87,290300,1.6,W*7D
"
"2019-11-13 11:54:38.879315","$GPRMC,105438,A,5158.591,N,00359.973,E,20.8,87,290300,1.6,W*7D
"
"2019-11-13 11:54:38.879315","$GPRMC,105438,A,5158.591,N,00359.973,E,20.8,87,290300,1.6,W*7D
"
"2019-11-13 11:54:39.489832","$GPRMC,105439,A,5158.591,N,00359.978,E,20.8,87,290300,1.6,W*77
"
"2019-11-13 11:54:39.489832","$GPRMC,105439,A,5158.591,N,00359.978,E,20.8,87,290300,1.6,W*77
"
"2019-11-13 11:54:39.489832","$GPRMC,105439,A,5158.591,N,00359.978,E,20.8,87,290300,1.6,W*77
"
"2019-11-13 11:54:39.489832","$GPRMC,105439,A,5158.591,N,00359.978,E,20.8,87,290300,1.6,W*77
"
"2019-11-13 11:54:40.201311","$GPRMC,105439,A,5158.591,N,00359.984,E,20.8,87,290300,1.6,W*74
"
"2019-11-13 11:54:40.201311","$GPRMC,105439,A,5158.591,N,00359.984,E,20.8,87,290300,1.6,W*74
"
"2019-11-13 11:54:40.201311","$GPRMC,105439,A,5158.591,N,00359.984,E,20.8,87,290300,1.6,W*74
"
"2019-11-13 11:54:40.201311","$GPRMC,105439,A,5158.591,N,00359.984,E,20.8,87,290300,1.6,W*74
"
"2019-11-13 11:54:41.013038","$GPRMC,105440,A,5158.591,N,00359.991,E,20.7,87,290300,1.6,W*71
"
"2019-11-13 11:54:41.013038","$GPRMC,105440,A,5158.591,N,00359.991,E,20.7,87,290300,1.6,W*71
"
"2019-11-13 11:54:41.013038","$GPRMC,105440,A,5158.591,N,00359.991,E,20.7,87,290300,1.6,W*71
"
"2019-11-13 11:54:41.013038","$GPRMC,105440,A,5158.591,N,00359.991,E,20.7,87,290300,1.6,W*71
"
"2019-11-13 11:54:41.826493","$GPRMC,105441,A,5158.590,N,00359.998,E,20.6,88,290300,1.6,W*76
"
"2019-11-13 11:54:41.826493","$GPRMC,105441,A,5158.590,N,00359.998,E,20.6,88,290300,1.6,W*76
"
"2019-11-13 11:54:41.826493","$GPRMC,105441,A,5158.590,N,00359.998,E,20.6,88,290300,1.6,W*76
"
"2019-11-13 11:54:41.826493","$GPRMC,105441,A,5158.590,N,00359.998,E,20.6,88,290300,1.6,W*76
"
"2019-11-13 11:54:42.437362","$GPRMC,105442,A,5158.590,N,00400.003,E,20.5,88,290300,1.6,W*76
"
"2019-11-13 11:54:42.437362","$GPRMC,105442,A,5158.590,N,00400.003,E,20.5,88,290300,1.6,W*76
"
"2019-11-13 11:54:42.437362","$GPRMC,105442,A,5158.590,N,00400.003,E,20.5,88,290300,1.6,W*76
"
"2019-11-13 11:54:42.437362","$GPRMC,105442,A,5158.590,N,00400.003,E,20.5,88,290300,1.6,W*76
"
"2019-11-13 11:54:43.251447","$GPRMC,105442,A,5158.590,N,00400.011,E,20.4,88,290300,1.6,W*74
"
"2019-11-13 11:54:43.251447","$GPRMC,105442,A,5158.590,N,00400.011,E,20.4,88,290300,1.6,W*74
"
"2019-11-13 11:54:43.251447","$GPRMC,105442,A,5158.590,N,00400.011,E,20.4,88,290300,1.6,W*74
"
"2019-11-13 11:54:43.251447","$GPRMC,105442,A,5158.590,N,00400.011,E,20.4,88,290300,1.6,W*74
"
"2019-11-13 11:54:43.962576","$GPRMC,105443,A,5158.589,N,00400.018,E,20.4,89,290300,1.6,W*75
"
"2019-11-13 11:54:43.962576","$GPRMC,105443,A,5158.589,N,00400.018,E,20.4,89,290300,1.6,W*75
"
"2019-11-13 11:54:43.962576","$GPRMC,105443,A,5158.589,N,00400.018,E,20.4,89,290300,1.6,W*75
"
"2019-11-13 11:54:43.962576","$GPRMC,105443,A,5158.589,N,00400.018,E,20.4,89,290300,1.6,W*75
"
"2019-11-13 11:54:44.777779","$GPRMC,105444,A,5158.589,N,00400.025,E,20.3,89,290300,1.6,W*7B
"
"2019-11-13 11:54:44.777779","$GPRMC,105444,A,5158.589,N,00400.025,E,20.3,89,290300,1.6,W*7B
"
"2019-11-13 11:54:44.777779","$GPRMC,105444,A,5158.589,N,00400.025,E,20.3,89,290300,1.6,W*7B
"
"2019-11-13 11:54:44.777779","$GPRMC,105444,A,5158.589,N,00400.025,E,20.3,89,290300,1.6,W*7B
"
"2019-11-13 11:54:45.390071","$GPRMC,105445,A,5158.588,N,00400.028,E,19.8,90,290300,1.6,W*7F
"
"2019-11-13 11:54:45.390071","$GPRMC,105445,A,5158.588,N,00400.028,E,19.8,90,290300,1.6,W*7F
"
"2019-11-13 11:54:45.390071","$GPRMC,105445,A,5158.588,N,00400.028,E,19.8,90,290300,1.6,W*7F
"
"2019-11-13 11:54:45.390071","$GPRMC,105445,A,5158.588,N,00400.028,E,19.8,90,290300,1.6,W*7F
"
"2019-11-13 11:54:46.101136","$GPRMC,105445,A,5158.587,N,00400.033,E,19.2,91,290300,1.6,W*71
"
"2019-11-13 11:54:46.101136","$GPRMC,105445,A,5158.587,N,00400.033,E,19.2,91,290300,1.6,W*71
"
"2019-11-13 11:54:46.101136","$GPRMC,105445,A,5158.587,N,00400.033,E,19.2,91,290300,1.6,W*71
"
"2019-11-13 11:54:46.101136","$GPRMC,105445,A,5158.587,N,00400.033,E,19.2,91,290300,1.6,W*71
"
"2019-11-13 11:54:46.917291","$GPRMC,105446,A,5158.586,N,00400.038,E,18.9,92,290300,1.6,W*71
"
"2019-11-13 11:54:46.917291","$GPRMC,105446,A,5158.586,N,00400.038,E,18.9,92,290300,1.6,W*71
"
"2019-11-13 11:54:46.917291","$GPRMC,105446,A,5158.586,N,00400.038,E,18.9,92,290300,1.6,W*71
"
"2019-11-13 11:54:46.917291","$GPRMC,105446,A,5158.586,N,00400.038,E,18.9,92,290300,1.6,W*71
"
"2019-11-13 11:54:47.528273","$GPRMC,105447,A,5158.586,N,00400.044,E,18.9,93,290300,1.6,W*7A
"
"2019-11-13 11:54:47.528273","$GPRMC,105447,A,5158.586,N,00400.044,E,18.9,93,290300,1.6,W*7A
"
"2019-11-13 11:54:47.528273","$GPRMC,105447,A,5158.586,N,00400.044,E,18.9,93,290300,1.6,W*7A
"
"2019-11-13 11:54:47.528273","$GPRMC,105447,A,5158.586,N,00400.044,E,18.9,93,290300,1.6,W*7A
"
"2019-11-13 11:54:48.138026","$GPRMC,105447,A,5158.586,N,00400.051,E,18.9,93,290300,1.6,W*7E
"
"2019-11-13 11:54:48.138026","$GPRMC,105447,A,5158.586,N,00400.051,E,18.9,93,290300,1.6,W*7E
"
"2019-11-13 11:54:48.138026","$GPRMC,105447,A,5158.586,N,00400.051,E,18.9,93,290300,1.6,W*7E
"
"2019-11-13 11:54:48.138026","$GPRMC,105447,A,5158.586,N,00400.051,E,18.9,93,290300,1.6,W*7E
"
"2019-11-13 11:54:48.851692","$GPRMC,105448,A,5158.586,N,00400.057,E,18.9,93,290300,1.6,W*77
"
"2019-11-13 11:54:48.851692","$GPRMC,105448,A,5158.586,N,00400.057,E,18.9,93,290300,1.6,W*77
"
"2019-11-13 11:54:48.851692","$GPRMC,105448,A,5158.586,N,00400.057,E,18.9,93,290300,1.6,W*77
"
"2019-11-13 11:54:48.851692","$GPRMC,105448,A,5158.586,N,00400.057,E,18.9,93,290300,1.6,W*77
"
"2019-11-13 11:54:49.462039","$GPRMC,105449,A,5158.586,N,00400.062,E,18.9,93,290300,1.6,W*70
"
"2019-11-13 11:54:49.462039","$GPRMC,105449,A,5158.586,N,00400.062,E,18.9,93,290300,1.6,W*70
"
"2019-11-13 11:54:49.462039","$GPRMC,105449,A,5158.586,N,00400.062,E,18.9,93,290300,1.6,W*70
"
"2019-11-13 11:54:49.462039","$GPRMC,105449,A,5158.586,N,00400.062,E,18.9,93,290300,1.6,W*70
"
"2019-11-13 11:54:50.174903","$GPRMC,105449,A,5158.585,N,00400.067,E,18.6,94,290300,1.6,W*7E
"
"2019-11-13 11:54:50.174903","$GPRMC,105449,A,5158.585,N,00400.067,E,18.6,94,290300,1.6,W*7E
"
"2019-11-13 11:54:50.174903","$GPRMC,105449,A,5158.585,N,00400.067,E,18.6,94,290300,1.6,W*7E
"
"2019-11-13 11:54:50.174903","$GPRMC,105449,A,5158.585,N,00400.067,E,18.6,94,290300,1.6,W*7E
"
"2019-11-13 11:54:50.885473","$GPRMC,105450,A,5158.585,N,00400.073,E,18.4,94,290300,1.6,W*71
"
"2019-11-13 11:54:50.885473","$GPRMC,105450,A,5158.585,N,00400.073,E,18.4,94,290300,1.6,W*71
"
"2019-11-13 11:54:50.885473","$GPRMC,105450,A,5158.585,N,00400.073,E,18.4,94,290300,1.6,W*71
"
"2019-11-13 11:54:50.885473","$GPRMC,105450,A,5158.585,N,00400.073,E,18.4,94,290300,1.6,W*71
"
"2019-11-13 11:54:51.496033","$GPRMC,105451,A,5158.585,N,00400.077,E,18.0,94,290300,1.6,W*70
"
"2019-11-13 11:54:51.496033","$GPRMC,105451,A,5158.585,N,00400.077,E,18.0,94,290300,1.6,W*70
"
"2019-11-13 11:54:51.496033","$GPRMC,105451,A,5158.585,N,00400.077,E,18.0,94,290300,1.6,W*70
"
"2019-11-13 11:54:51.496033","$GPRMC,105451,A,5158.585,N,00400.077,E,18.0,94,290300,1.6,W*70
"
"2019-11-13 11:54:52.206309","$GPRMC,105451,A,5158.585,N,00400.083,E,17.8,94,290300,1.6,W*7C
"
"2019-11-13 11:54:52.206309","$GPRMC,105451,A,5158.585,N,00400.083,E,17.8,94,290300,1.6,W*7C
"
"2019-11-13 11:54:52.206309","$GPRMC,105451,A,5158.585,N,00400.083,E,17.8,94,290300,1.6,W*7C
"
