timestamp,payload
2020-11-27T13:59:03.507101,"$SDDPT,7.72,0.00,100.0*56"
2020-11-27T13:59:03.530747,"$GPRMC,125901,A,5153.8108,N,00428.3615,E,007.1,114.,271120,01.,E*40"
2020-11-27T13:59:03.584842,"$WIMDA,30.0822,I,1.0187,B,6.7,C,,,,,,,101.3,T,100.8,M,9.0,N,4.6,M*1E"
2020-11-27T13:59:03.587710,"$SDDBT,25.33,f,7.72,M,4.22,F*07"
2020-11-27T13:59:03.626288,"$YXMTW,36.9,C*1E"
2020-11-27T13:59:03.632934,"$GPGLL,5153.8108,N,00428.3615,E,125901.00,A*06"
2020-11-27T13:59:03.656404,"$HEROT,44.59,A*27"
2020-11-27T13:59:03.703940,"$GPVTG,114.4,T,,,007.1,N,013.1,K*28"
2020-11-27T13:59:03.716229,"$YXXDR,C,1.2,C,WCHR,C,2.6,C,WCHT,C,,C,HINX,P,1.0174,B,STNP*4F"
2020-11-27T13:59:03.732732,"$VDVBW,007.64,,A,00.00,00.00,V,,V,00.00,V*73"
2020-11-27T13:59:03.746606,"$GPROT,-0008.1,A*25"
2020-11-27T13:59:03.792034,"$YXXDR,A,-4.7,D,PTCH,A,0.6,D,ROLL*75"
2020-11-27T13:59:03.797460,"$VDVLW,9917.01,N,5847.02,N*54"
2020-11-27T13:59:03.811427,"$GPDTM,W84,,0,N,0,E,+0,W84*5A"
2020-11-27T13:59:03.832291,"$HCHDT,93.1,T*12"
2020-11-27T13:59:03.891186,"$WIMWV,351.3,R,16.0,N,A*10"
2020-11-27T13:59:03.896137,"$GPZDA,125901.00,27,11,2020,-02,00*42"
2020-11-27T13:59:03.942380,"$HEROT,44.70,A*2C"
2020-11-27T13:59:03.978424,"$GPVTG,115.0,T,114.5,M,7.1,N,13.1,K,D*17"
2020-11-27T13:59:04.058098,"$GPZDA,125903.80,27,11,2020,00,00*67"
2020-11-27T13:59:04.228424,"$GPHDT,117.4,T*36"
2020-11-27T13:59:04.232407,"$HEROT,44.86,A*25"
2020-11-27T13:59:04.344857,"$GPGGA,125904.10,5153.8097,N,00428.3625,E,2,9,1.1,11.5,M,44.9,M,,*68"
2020-11-27T13:59:04.378324,"$HCHDT,93.4,T*17"
2020-11-27T13:59:04.387198,"$GPGGA,125902,5153.8098,N,00428.3642,E,2,04,06,+0006,M,+047,M,00,0000*63"
2020-11-27T13:59:04.437216,"$WIMWV,352.4,R,15.8,N,A*1F"
2020-11-27T13:59:04.509125,"$SDDPT,7.69,0.00,100.0*5C"
2020-11-27T13:59:04.514411,"$HEROT,44.83,A*20"
2020-11-27T13:59:04.530828,"$GPRMC,125902,A,5153.8098,N,00428.3642,E,007.1,115.,271120,01.,E*48"
2020-11-27T13:59:04.584885,"$WIMDA,30.0822,I,1.0187,B,6.7,C,,,,,,,102.1,T,101.6,M,8.8,N,4.5,M*1A"
2020-11-27T13:59:04.587734,"$SDDBT,25.23,f,7.69,M,4.20,F*0E"
2020-11-27T13:59:04.628976,"$GPGLL,5153.8098,N,00428.3642,E,125902.00,A*0F"
2020-11-27T13:59:04.630610,"$YXMTW,36.9,C*1E"
2020-11-27T13:59:04.636770,"$VDVBW,007.63,,A,00.00,00.00,V,,V,00.00,V*74"
2020-11-27T13:59:04.697515,"$VDVLW,9917.01,N,5847.02,N*54"
2020-11-27T13:59:04.703988,"$GPVTG,115.7,T,,,007.1,N,013.1,K*2A"
2020-11-27T13:59:04.716250,"$YXXDR,C,1.3,C,WCHR,C,2.7,C,WCHT,C,,C,HINX,P,1.0174,B,STNP*4F"
2020-11-27T13:59:04.746617,"$GPROT,-0004.1,A*29"
2020-11-27T13:59:04.792087,"$YXXDR,A,-4.5,D,PTCH,A,2.8,D,ROLL*7B"
2020-11-27T13:59:04.800425,"$HEROT,41.91,A*26"
2020-11-27T13:59:04.811490,"$GPDTM,W84,,0,N,0,E,+0,W84*5A"
2020-11-27T13:59:04.832334,"$HCHDT,93.8,T*1B"
2020-11-27T13:59:04.891240,"$WIMWV,351.9,R,16.1,N,A*1B"
2020-11-27T13:59:04.896212,"$GPZDA,125902.00,27,11,2020,-02,00*41"
2020-11-27T13:59:04.980447,"$GPVTG,116.2,T,115.7,M,7.1,N,13.1,K,D*15"
2020-11-27T13:59:05.058157,"$GPZDA,125904.80,27,11,2020,00,00*60"
2020-11-27T13:59:05.086450,"$HEROT,38.04,A*24"
2020-11-27T13:59:05.228523,"$GPHDT,117.9,T*3B"
2020-11-27T13:59:05.344887,"$GPGGA,125905.10,5153.8087,N,00428.3654,E,2,9,0.9,11.5,M,44.9,M,,*67"
2020-11-27T13:59:05.372459,"$HEROT,33.38,A*20"
2020-11-27T13:59:05.376386,"$HCHDT,94.0,T*14"
2020-11-27T13:59:05.387234,"$GPGGA,125903,5153.8088,N,00428.3671,E,2,04,06,+0006,M,+047,M,00,0000*63"
2020-11-27T13:59:05.435231,"$WIMWV,350.9,R,16.0,N,A*1B"
2020-11-27T13:59:05.511167,"$SDDPT,7.75,0.00,100.0*51"
2020-11-27T13:59:05.530818,"$GPRMC,125903,A,5153.8088,N,00428.3671,E,007.1,117.,271120,01.,E*4A"
2020-11-27T13:59:05.582822,"$WIMDA,30.0852,I,1.0188,B,6.7,C,,,,,,,100.0,T,99.5,M,8.9,N,4.6,M*20"
2020-11-27T13:59:05.589676,"$SDDBT,25.42,f,7.75,M,4.23,F*07"
2020-11-27T13:59:05.628986,"$GPGLL,5153.8088,N,00428.3671,E,125903.00,A*0F"
2020-11-27T13:59:05.632379,"$YXMTW,36.9,C*1E"
2020-11-27T13:59:05.656484,"$HEROT,25.92,A*27"
2020-11-27T13:59:05.704033,"$GPVTG,117.1,T,,,007.1,N,013.1,K*2E"
2020-11-27T13:59:05.714307,"$YXXDR,C,1.3,C,WCHR,C,2.7,C,WCHT,C,,C,HINX,P,1.0175,B,STNP*4E"
2020-11-27T13:59:05.746653,"$GPROT,-0000.7,A*2B"
2020-11-27T13:59:05.790137,"$YXXDR,A,-4.3,D,PTCH,A,1.5,D,ROLL*73"
2020-11-27T13:59:05.811609,"$GPDTM,W84,,0,N,0,E,+0,W84*5A"
2020-11-27T13:59:05.830394,"$HCHDT,94.2,T*16"
2020-11-27T13:59:05.856821,"$VDVBW,007.63,,A,00.00,00.00,V,,V,00.00,V*74"
2020-11-27T13:59:05.889268,"$WIMWV,351.1,R,16.0,N,A*12"
2020-11-27T13:59:05.894219,"$GPZDA,125903.00,27,11,2020,-02,00*40"
2020-11-27T13:59:05.919615,"$VDVLW,9917.01,N,5847.02,N*54"
2020-11-27T13:59:05.942498,"$HEROT,18.67,A*23"
2020-11-27T13:59:05.978487,"$GPVTG,115.8,T,115.3,M,7.1,N,13.1,K,D*18"
2020-11-27T13:59:06.058141,"$GPZDA,125905.80,27,11,2020,00,00*61"
2020-11-27T13:59:06.228513,"$GPHDT,118.1,T*3C"
2020-11-27T13:59:06.232543,"$HEROT,10.77,A*2A"
2020-11-27T13:59:06.342919,"$GPGGA,125906.10,5153.8079,N,00428.3681,E,2,9,0.9,11.2,M,44.9,M,,*6A"
2020-11-27T13:59:06.376463,"$HCHDT,94.6,T*12"
2020-11-27T13:59:06.387288,"$GPGGA,125904,5153.8080,N,00428.3700,E,2,04,06,+0006,M,+047,M,00,0000*6B"
2020-11-27T13:59:06.435287,"$WIMWV,350.2,R,16.1,N,A*11"
2020-11-27T13:59:06.507199,"$SDDPT,7.65,0.00,100.0*50"
2020-11-27T13:59:06.512420,"$HEROT,6.13,A*1F"
2020-11-27T13:59:06.530849,"$GPRMC,125904,A,5153.8080,N,00428.3700,E,007.1,117.,271120,01.,E*42"
2020-11-27T13:59:06.580807,"$WIMDA,30.0822,I,1.0187,B,6.7,C,,,,,,,98.2,T,97.7,M,9.0,N,4.6,M*1E"
2020-11-27T13:59:06.585736,"$SDDBT,25.10,f,7.65,M,4.18,F*09"
2020-11-27T13:59:06.629080,"$GPGLL,5153.8080,N,00428.3700,E,125904.00,A*07"
2020-11-27T13:59:06.630656,"$YXMTW,36.9,C*1E"
2020-11-27T13:59:06.704085,"$GPVTG,117.2,T,,,007.1,N,013.2,K*2E"
2020-11-27T13:59:06.710369,"$YXXDR,C,1.3,C,WCHR,C,2.7,C,WCHT,C,,C,HINX,P,1.0174,B,STNP*4F"
2020-11-27T13:59:06.724875,"$VDVBW,007.63,,A,00.00,00.00,V,,V,00.00,V*74"
2020-11-27T13:59:06.746752,"$GPROT,+0000.5,A*2F"
2020-11-27T13:59:06.787648,"$VDVLW,9917.01,N,5847.02,N*54"
2020-11-27T13:59:06.792256,"$YXXDR,A,-5.2,D,PTCH,A,-0.8,D,ROLL*52"
2020-11-27T13:59:06.798417,"$HEROT,0.93,A*11"
2020-11-27T13:59:06.811607,"$GPDTM,W84,,0,N,0,E,+0,W84*5A"
2020-11-27T13:59:06.832444,"$HCHDT,94.7,T*13"
2020-11-27T13:59:06.891330,"$WIMWV,350.3,R,15.6,N,A*14"
2020-11-27T13:59:06.896260,"$GPZDA,125904.00,27,11,2020,-02,00*47"
2020-11-27T13:59:06.978608,"$GPVTG,116.2,T,115.7,M,7.1,N,13.1,K,D*15"
2020-11-27T13:59:07.058180,"$GPZDA,125906.80,27,11,2020,00,00*62"
2020-11-27T13:59:07.084608,"$HEROT,-2.90,A*3D"
2020-11-27T13:59:07.228609,"$GPHDT,118.0,T*3D"
2020-11-27T13:59:07.344987,"$GPGGA,125907.10,5153.8068,N,00428.3708,E,2,9,0.9,10.4,M,44.9,M,,*6C"
2020-11-27T13:59:07.370609,"$HEROT,-5.53,A*35"
2020-11-27T13:59:07.376448,"$HCHDT,94.6,T*12"
2020-11-27T13:59:07.387324,"$GPGGA,125905,5153.8071,N,00428.3729,E,2,04,06,+0006,M,+047,M,00,0000*6F"
2020-11-27T13:59:07.437317,"$WIMWV,350.9,R,15.4,N,A*1C"
2020-11-27T13:59:07.511243,"$SDDPT,7.68,0.00,100.0*5D"
2020-11-27T13:59:07.530933,"$GPRMC,125905,A,5153.8071,N,00428.3729,E,007.1,116.,271120,01.,E*47"
2020-11-27T13:59:07.584994,"$WIMDA,30.0763,I,1.0185,B,6.7,C,,,,,,,101.0,T,100.5,M,8.4,N,4.3,M*18"
2020-11-27T13:59:07.589783,"$SDDBT,25.20,f,7.68,M,4.20,F*0C"
2020-11-27T13:59:07.629103,"$GPGLL,5153.8071,N,00428.3729,E,125905.00,A*03"
2020-11-27T13:59:07.630660,"$YXMTW,36.9,C*1E"
2020-11-27T13:59:07.656600,"$HEROT,-7.82,A*3B"
2020-11-27T13:59:07.704137,"$GPVTG,116.6,T,,,007.1,N,013.1,K*28"
2020-11-27T13:59:07.716441,"$YXXDR,C,1.3,C,WCHR,C,2.8,C,WCHT,C,,C,HINX,P,1.0173,B,STNP*47"
2020-11-27T13:59:07.730941,"$VDVBW,007.62,,A,00.00,00.00,V,,V,00.00,V*75"
2020-11-27T13:59:07.746739,"$GPROT,-0000.6,A*2A"
2020-11-27T13:59:07.794309,"$YXXDR,A,-4.4,D,PTCH,A,-0.2,D,ROLL*5F"
2020-11-27T13:59:07.797614,"$VDVLW,9917.01,N,5847.02,N*54"
2020-11-27T13:59:07.811614,"$GPDTM,W84,,0,N,0,E,+0,W84*5A"
2020-11-27T13:59:07.830521,"$HCHDT,94.3,T*17"
2020-11-27T13:59:07.889342,"$WIMWV,351.9,R,15.3,N,A*1A"
2020-11-27T13:59:07.894310,"$GPZDA,125905.00,27,11,2020,-02,00*46"
2020-11-27T13:59:07.942653,"$HEROT,-9.23,A*3E"
2020-11-27T13:59:07.978616,"$GPVTG,117.9,T,117.4,M,7.1,N,13.1,K,D*1E"
2020-11-27T13:59:08.058256,"$GPZDA,125907.70,27,11,2020,00,00*6C"
2020-11-27T13:59:08.228617,"$HEROT,-9.82,A*35"
2020-11-27T13:59:08.242629,"$GPHDT,117.6,T*34"
2020-11-27T13:59:08.342947,"$GPGGA,125908.10,5153.8059,N,00428.3734,E,2,9,0.9,9.9,M,44.9,M,,*5B"
2020-11-27T13:59:08.374516,"$HCHDT,93.9,T*1A"
2020-11-27T13:59:08.401378,"$GPGGA,125906,5153.8060,N,00428.3755,E,2,04,06,+0006,M,+047,M,00,0000*67"
2020-11-27T13:59:08.433429,"$WIMWV,352.8,R,15.5,N,A*1E"
2020-11-27T13:59:08.507292,"$SDDPT,7.74,0.00,100.0*50"
2020-11-27T13:59:08.514641,"$HEROT,-8.77,A*3E"
2020-11-27T13:59:08.544952,"$GPRMC,125906,A,5153.8060,N,00428.3755,E,007.1,116.,271120,01.,E*4F"
2020-11-27T13:59:08.583038,"$WIMDA,30.0733,I,1.0184,B,6.7,C,,,,,,,105.8,T,105.3,M,8.6,N,4.4,M*16"
2020-11-27T13:59:08.585886,"$SDDBT,25.39,f,7.74,M,4.23,F*0A"
2020-11-27T13:59:08.626510,"$YXMTW,36.9,C*1E"
2020-11-27T13:59:08.643137,"$GPGLL,5153.8060,N,00428.3755,E,125906.00,A*0B"
2020-11-27T13:59:08.714478,"$YXXDR,C,1.3,C,WCHR,C,2.7,C,WCHT,C,,C,HINX,P,1.0173,B,STNP*48"
2020-11-27T13:59:08.720184,"$GPVTG,116.9,T,,,007.1,N,013.2,K*24"
2020-11-27T13:59:08.738944,"$VDVBW,007.62,,A,00.00,00.00,V,,V,00.00,V*75"
2020-11-27T13:59:08.762814,"$GPROT,-0002.9,A*27"
2020-11-27T13:59:08.790267,"$YXXDR,A,-4.8,D,PTCH,A,2.0,D,ROLL*7E"
2020-11-27T13:59:08.801772,"$VDVLW,9917.02,N,5847.03,N*56"
2020-11-27T13:59:08.804635,"$HEROT,-8.27,A*3B"
2020-11-27T13:59:08.827673,"$GPDTM,W84,,0,N,0,E,+0,W84*5A"
2020-11-27T13:59:08.830609,"$HCHDT,93.5,T*16"
2020-11-27T13:59:08.889396,"$WIMWV,353.0,R,15.9,N,A*1B"
2020-11-27T13:59:08.910350,"$GPZDA,125906.00,27,11,2020,-02,00*45"
2020-11-27T13:59:08.978615,"$GPVTG,119.2,T,118.7,M,7.1,N,13.1,K,D*17"
2020-11-27T13:59:09.058296,"$GPZDA,125908.80,27,11,2020,00,00*6C"
2020-11-27T13:59:09.084631,"$HEROT,-6.30,A*33"
2020-11-27T13:59:09.232662,"$GPHDT,117.2,T*30"
2020-11-27T13:59:09.341012,"$GPGGA,125909.10,5153.8053,N,00428.3758,E,2,9,0.9,8.9,M,44.9,M,,*5B"
2020-11-27T13:59:09.370650,"$HEROT,-5.05,A*36"
2020-11-27T13:59:09.374609,"$HCHDT,93.1,T*12"
2020-11-27T13:59:09.391420,"$GPGGA,125907,5153.8049,N,00428.3782,E,2,04,06,+0006,M,+047,M,00,0000*67"
2020-11-27T13:59:09.433486,"$WIMWV,352.5,R,15.2,N,A*14"
2020-11-27T13:59:09.509364,"$SDDPT,7.75,0.00,100.0*51"
2020-11-27T13:59:09.535065,"$GPRMC,125907,A,5153.8049,N,00428.3782,E,007.1,118.,271120,01.,E*41"
2020-11-27T13:59:09.583092,"$WIMDA,30.0733,I,1.0184,B,6.7,C,,,,,,,105.5,T,105.0,M,8.2,N,4.2,M*1A"
2020-11-27T13:59:09.587863,"$SDDBT,25.42,f,7.75,M,4.23,F*07"
2020-11-27T13:59:09.628650,"$YXMTW,36.9,C*1E"
2020-11-27T13:59:09.635173,"$GPGLL,5153.8049,N,00428.3782,E,125907.00,A*0B"
2020-11-27T13:59:09.656659,"$HEROT,-3.84,A*39"
2020-11-27T13:59:09.712489,"$YXXDR,C,1.4,C,WCHR,C,2.9,C,WCHT,C,,C,HINX,P,1.0174,B,STNP*46"
2020-11-27T13:59:09.715703,"$GPVTG,118.5,T,,,007.1,N,013.2,K*26"
2020-11-27T13:59:09.733039,"$VDVBW,007.62,,A,00.00,00.00,V,,V,00.00,V*75"
2020-11-27T13:59:09.752876,"$GPROT,-0004.8,A*20"
2020-11-27T13:59:09.790301,"$YXXDR,A,-4.0,D,PTCH,A,2.7,D,ROLL*71"
2020-11-27T13:59:09.795696,"$VDVLW,9917.02,N,5847.03,N*56"
2020-11-27T13:59:09.817740,"$GPDTM,W84,,0,N,0,E,+0,W84*5A"
2020-11-27T13:59:09.832629,"$HCHDT,93.1,T*12"
2020-11-27T13:59:09.891453,"$WIMWV,352.2,R,15.2,N,A*13"
2020-11-27T13:59:09.900397,"$GPZDA,125907.00,27,11,2020,-02,00*44"
2020-11-27T13:59:09.942662,"$HEROT,-2.01,A*35"
2020-11-27T13:59:09.978660,"$GPVTG,119.5,T,119.0,M,7.1,N,13.1,K,D*16"
2020-11-27T13:59:10.058313,"$GPZDA,125909.80,27,11,2020,00,00*6D"
2020-11-27T13:59:10.228713,"$GPHDT,117.0,T*32"
2020-11-27T13:59:10.232710,"$HEROT,-2.27,A*31"
2020-11-27T13:59:10.343053,"$GPGGA,125910.10,5153.8042,N,00428.3785,E,2,9,0.9,8.7,M,44.9,M,,*5D"
2020-11-27T13:59:10.374652,"$HCHDT,93.2,T*11"
2020-11-27T13:59:10.387459,"$GPGGA,125908,5153.8039,N,00428.3810,E,2,04,06,+0006,M,+047,M,00,0000*6B"
2020-11-27T13:59:10.433453,"$WIMWV,351.9,R,15.2,N,A*1B"
2020-11-27T13:59:10.511386,"$SDDPT,7.71,0.00,100.0*55"
2020-11-27T13:59:10.514684,"$HEROT,-2.11,A*34"
2020-11-27T13:59:10.531043,"$GPRMC,125908,A,5153.8039,N,00428.3810,E,007.1,119.,271120,01.,E*4C"
2020-11-27T13:59:10.583135,"$WIMDA,30.0733,I,1.0184,B,6.7,C,,,,,,,103.9,T,103.4,M,8.2,N,4.2,M*12"
2020-11-27T13:59:10.589938,"$SDDBT,25.29,f,7.71,M,4.21,F*0C"
2020-11-27T13:59:10.629253,"$GPGLL,5153.8039,N,00428.3810,E,125908.00,A*07"
2020-11-27T13:59:10.630775,"$YXMTW,36.9,C*1E"
2020-11-27T13:59:10.704253,"$GPVTG,119.6,T,,,007.1,N,013.2,K*24"
2020-11-27T13:59:10.714529,"$YXXDR,C,1.4,C,WCHR,C,2.9,C,WCHT,C,,C,HINX,P,1.0174,B,STNP*46"
2020-11-27T13:59:10.747093,"$VDVBW,007.62,,A,00.00,00.00,V,,V,00.00,V*75"
2020-11-27T13:59:10.748946,"$GPROT,-0005.8,A*21"
2020-11-27T13:59:10.790344,"$YXXDR,A,-4.8,D,PTCH,A,2.6,D,ROLL*78"
2020-11-27T13:59:10.800703,"$HEROT,-2.76,A*35"
2020-11-27T13:59:10.809807,"$VDVLW,9917.02,N,5847.03,N*56"
2020-11-27T13:59:10.813787,"$GPDTM,W84,,0,N,0,E,+0,W84*5A"
2020-11-27T13:59:10.832618,"$HCHDT,93.2,T*11"
2020-11-27T13:59:10.891504,"$WIMWV,351.3,R,15.2,N,A*11"
2020-11-27T13:59:10.896479,"$GPZDA,125908.00,27,11,2020,-02,00*4B"
2020-11-27T13:59:10.980704,"$GPVTG,118.6,T,118.1,M,7.2,N,13.3,K,D*15"
2020-11-27T13:59:11.058352,"$GPZDA,125910.80,27,11,2020,00,00*65"
2020-11-27T13:59:11.084750,"$HEROT,-2.46,A*36"
2020-11-27T13:59:11.228728,"$GPHDT,116.7,T*34"
2020-11-27T13:59:11.343077,"$GPGGA,125911.10,5153.8030,N,00428.3813,E,2,9,0.9,8.8,M,44.9,M,,*56"
2020-11-27T13:59:11.370751,"$HEROT,-2.67,A*35"
2020-11-27T13:59:11.374650,"$HCHDT,93.0,T*13"
2020-11-27T13:59:11.387482,"$GPGGA,125909,5153.8031,N,00428.3840,E,2,04,07,+0006,M,+047,M,00,0000*66"
2020-11-27T13:59:11.433512,"$WIMWV,351.3,R,15.7,N,A*14"
2020-11-27T13:59:11.507430,"$SDDPT,7.71,0.00,100.0*55"
2020-11-27T13:59:11.531094,"$GPRMC,125909,A,5153.8031,N,00428.3840,E,007.1,119.,271120,01.,E*40"
2020-11-27T13:59:11.583162,"$WIMDA,30.0704,I,1.0183,B,6.7,C,,,,,,,102.4,T,101.9,M,8.6,N,4.4,M*10"
2020-11-27T13:59:11.586046,"$SDDBT,25.29,f,7.71,M,4.21,F*0C"
2020-11-27T13:59:11.626674,"$YXMTW,36.9,C*1E"
2020-11-27T13:59:11.633269,"$GPGLL,5153.8031,N,00428.3840,E,125909.00,A*0B"
2020-11-27T13:59:11.656727,"$HEROT,-2.96,A*3B"
2020-11-27T13:59:11.704311,"$GPVTG,119.3,T,,,007.1,N,013.2,K*21"
2020-11-27T13:59:11.714633,"$YXXDR,C,1.3,C,WCHR,C,2.7,C,WCHT,C,,C,HINX,P,1.0173,B,STNP*48"
2020-11-27T13:59:11.746973,"$GPROT,-0006.4,A*2E"
2020-11-27T13:59:11.790440,"$YXXDR,A,-4.7,D,PTCH,A,1.3,D,ROLL*71"
2020-11-27T13:59:11.811852,"$GPDTM,W84,,0,N,0,E,+0,W84*5A"
2020-11-27T13:59:11.830697,"$HCHDT,92.9,T*1B"
2020-11-27T13:59:11.861105,"$VDVBW,007.62,,A,00.00,00.00,V,,V,00.00,V*75"
2020-11-27T13:59:11.889572,"$WIMWV,351.8,R,15.8,N,A*10"
2020-11-27T13:59:11.894476,"$GPZDA,125909.00,27,11,2020,-02,00*4A"
2020-11-27T13:59:11.923784,"$VDVLW,9917.02,N,5847.03,N*56"
2020-11-27T13:59:11.942753,"$HEROT,-4.94,A*3F"
2020-11-27T13:59:11.978828,"$GPVTG,118.1,T,117.6,M,7.2,N,13.3,K,D*1A"
2020-11-27T13:59:12.058410,"$GPZDA,125911.80,27,11,2020,00,00*64"
2020-11-27T13:59:12.228807,"$GPHDT,116.5,T*36"
2020-11-27T13:59:12.232770,"$HEROT,-6.94,A*3D"
2020-11-27T13:59:12.341114,"$GPGGA,125912.10,5153.8019,N,00428.3837,E,2,9,0.9,9.6,M,44.9,M,,*57"
2020-11-27T13:59:12.374691,"$HCHDT,92.7,T*15"
2020-11-27T13:59:12.387613,"$GPGGA,125910,5153.8023,N,00428.3869,E,2,04,07,+0006,M,+047,M,00,0000*66"
2020-11-27T13:59:12.433611,"$WIMWV,351.6,R,16.2,N,A*17"
2020-11-27T13:59:12.509469,"$SDDPT,7.65,0.00,100.0*50"
2020-11-27T13:59:12.514789,"$HEROT,-9.06,A*39"
2020-11-27T13:59:12.531130,"$GPRMC,125910,A,5153.8023,N,00428.3869,E,007.2,118.,271120,01.,E*42"
2020-11-27T13:59:12.583202,"$WIMDA,30.0763,I,1.0185,B,6.7,C,,,,,,,104.0,T,103.5,M,9.0,N,4.6,M*1E"
2020-11-27T13:59:12.587994,"$SDDBT,25.10,f,7.65,M,4.18,F*09"
2020-11-27T13:59:12.629364,"$GPGLL,5153.8023,N,00428.3869,E,125910.00,A*0B"
2020-11-27T13:59:12.630927,"$YXMTW,36.9,C*1E"
2020-11-27T13:59:12.704356,"$GPVTG,118.1,T,,,007.2,N,013.3,K*20"
2020-11-27T13:59:12.712609,"$YXXDR,C,1.2,C,WCHR,C,2.6,C,WCHT,C,,C,HINX,P,1.0174,B,STNP*4F"
2020-11-27T13:59:12.746981,"$GPROT,-0007.4,A*2F"
2020-11-27T13:59:12.773144,"$VDVBW,007.62,,A,00.00,00.00,V,,V,00.00,V*75"
2020-11-27T13:59:12.790452,"$YXXDR,A,-5.5,D,PTCH,A,0.4,D,ROLL*74"
2020-11-27T13:59:12.802878,"$HEROT,-10.69,A*08"
2020-11-27T13:59:12.811852,"$GPDTM,W84,,0,N,0,E,+0,W84*5A"
2020-11-27T13:59:12.830709,"$HCHDT,92.5,T*17"
2020-11-27T13:59:12.837846,"$VDVLW,9917.02,N,5847.03,N*56"
2020-11-27T13:59:12.891656,"$WIMWV,352.3,R,16.2,N,A*11"
2020-11-27T13:59:12.896524,"$GPZDA,125910.00,27,11,2020,-02,00*42"
2020-11-27T13:59:12.978823,"$GPVTG,119.0,T,118.5,M,7.3,N,13.5,K,D*11"
2020-11-27T13:59:13.059056,"$GPZDA,125912.80,27,11,2020,00,00*67"
2020-11-27T13:59:13.088899,"$HEROT,-11.18,A*0F"
2020-11-27T13:59:13.228858,"$GPHDT,116.1,T*32"
2020-11-27T13:59:13.345243,"$GPGGA,125913.10,5153.8011,N,00428.3864,E,2,9,0.9,10.1,M,44.9,M,,*67"
2020-11-27T13:59:13.374931,"$HEROT,-12.88,A*05"
2020-11-27T13:59:13.378738,"$HCHDT,92.2,T*10"
2020-11-27T13:59:13.387619,"$GPGGA,125911,5153.8013,N,00428.3897,E,2,04,07,+0006,M,+047,M,00,0000*65"
2020-11-27T13:59:13.437618,"$WIMWV,352.5,R,15.9,N,A*1F"
2020-11-27T13:59:13.505642,"$SDDPT,7.60,0.00,100.0*55"
2020-11-27T13:59:13.531176,"$GPRMC,125911,A,5153.8013,N,00428.3897,E,007.2,117.,271120,01.,E*4E"
2020-11-27T13:59:13.585288,"$WIMDA,30.0792,I,1.0186,B,6.7,C,,,,,,,105.1,T,104.6,M,8.7,N,4.5,M*12"
2020-11-27T13:59:13.588151,"$SDDBT,24.93,f,7.60,M,4.15,F*0B"
2020-11-27T13:59:13.624801,"$YXMTW,36.9,C*1E"
2020-11-27T13:59:13.631372,"$GPGLL,5153.8013,N,00428.3897,E,125911.00,A*08"
2020-11-27T13:59:13.660928,"$HEROT,-14.22,A*03"
2020-11-27T13:59:13.667192,"$VDVBW,007.62,,A,00.00,00.00,V,,V,00.00,V*75"
2020-11-27T13:59:13.704418,"$GPVTG,117.7,T,,,007.2,N,013.3,K*29"
2020-11-27T13:59:13.716681,"$YXXDR,C,1.3,C,WCHR,C,2.7,C,WCHT,C,,C,HINX,P,1.0174,B,STNP*4F"
2020-11-27T13:59:13.727888,"$VDVLW,9917.03,N,5847.04,N*50"
2020-11-27T13:59:13.747063,"$GPROT,-0009.1,A*24"
2020-11-27T13:59:13.792485,"$YXXDR,A,-4.5,D,PTCH,A,1.2,D,ROLL*72"
2020-11-27T13:59:13.811880,"$GPDTM,W84,,0,N,0,E,+0,W84*5A"
2020-11-27T13:59:13.832747,"$HCHDT,91.9,T*18"
2020-11-27T13:59:13.891753,"$WIMWV,352.5,R,15.7,N,A*11"
2020-11-27T13:59:13.896623,"$GPZDA,125911.00,27,11,2020,-02,00*43"
2020-11-27T13:59:13.944921,"$HEROT,-15.86,A*0C"
2020-11-27T13:59:13.978883,"$GPVTG,119.0,T,118.5,M,7.2,N,13.3,K,D*16"
2020-11-27T13:59:14.058485,"$GPZDA,125913.80,27,11,2020,00,00*66"
2020-11-27T13:59:14.228872,"$GPHDT,115.6,T*36"
2020-11-27T13:59:14.232925,"$HEROT,-18.81,A*06"
2020-11-27T13:59:14.345294,"$GPGGA,125914.10,5153.8005,N,00428.3893,E,2,9,0.9,10.3,M,44.9,M,,*6F"
2020-11-27T13:59:14.376778,"$HCHDT,91.7,T*16"
2020-11-27T13:59:14.387650,"$GPGGA,125912,5153.8002,N,00428.3925,E,2,04,07,+0006,M,+047,M,00,0000*6E"
2020-11-27T13:59:14.435649,"$WIMWV,352.9,R,15.9,N,A*13"
2020-11-27T13:59:14.509650,"$SDDPT,7.66,0.00,100.0*53"
2020-11-27T13:59:14.516985,"$HEROT,-21.46,A*07"
2020-11-27T13:59:14.531251,"$GPRMC,125912,A,5153.8002,N,00428.3925,E,007.2,118.,271120,01.,E*4A"
2020-11-27T13:59:14.585349,"$WIMDA,30.0763,I,1.0185,B,6.7,C,,,,,,,105.6,T,105.1,M,8.7,N,4.5,M*1E"
2020-11-27T13:59:14.588190,"$SDDBT,25.13,f,7.66,M,4.18,F*09"
2020-11-27T13:59:14.629457,"$GPGLL,5153.8002,N,00428.3925,E,125912.00,A*03"
2020-11-27T13:59:14.631054,"$YXMTW,36.9,C*1E"
2020-11-27T13:59:14.704445,"$GPVTG,118.2,T,,,007.2,N,013.3,K*23"
2020-11-27T13:59:14.716765,"$YXXDR,C,1.3,C,WCHR,C,2.7,C,WCHT,C,,C,HINX,P,1.0173,B,STNP*48"
2020-11-27T13:59:14.737309,"$VDVBW,007.62,,A,00.00,00.00,V,,V,00.00,V*75"
2020-11-27T13:59:14.747071,"$GPROT,-0011.2,A*2E"
2020-11-27T13:59:14.792610,"$YXXDR,A,-5.3,D,PTCH,A,2.2,D,ROLL*76"
2020-11-27T13:59:14.801944,"$VDVLW,9917.03,N,5847.04,N*50"
2020-11-27T13:59:14.804950,"$HEROT,-25.93,A*0B"
2020-11-27T13:59:14.811925,"$GPDTM,W84,,0,N,0,E,+0,W84*5A"
2020-11-27T13:59:14.830811,"$HCHDT,91.5,T*14"
2020-11-27T13:59:14.889659,"$WIMWV,351.7,R,15.9,N,A*1E"
2020-11-27T13:59:14.894650,"$GPZDA,125912.00,27,11,2020,-02,00*40"
2020-11-27T13:59:14.978877,"$GPVTG,118.6,T,118.1,M,7.2,N,13.3,K,D*15"
2020-11-27T13:59:15.058610,"$GPZDA,125914.80,27,11,2020,00,00*61"
2020-11-27T13:59:15.088995,"$HEROT,-30.37,A*01"
2020-11-27T13:59:15.228895,"$GPHDT,114.9,T*38"
2020-11-27T13:59:15.343327,"$GPGGA,125915.10,5153.8000,N,00428.3918,E,2,9,0.9,10.5,M,44.9,M,,*6F"
2020-11-27T13:59:15.375045,"$HEROT,-35.74,A*03"
2020-11-27T13:59:15.378817,"$HCHDT,91.0,T*11"
2020-11-27T13:59:15.387685,"$GPGGA,125913,5153.7992,N,00428.3953,E,2,04,07,+0006,M,+047,M,00,0000*61"
2020-11-27T13:59:15.435685,"$WIMWV,349.8,R,15.6,N,A*17"
2020-11-27T13:59:15.511609,"$SDDPT,7.72,0.00,100.0*56"
2020-11-27T13:59:15.531268,"$GPRMC,125913,A,5153.7992,N,00428.3953,E,007.2,118.,271120,01.,E*45"
2020-11-27T13:59:15.581170,"$WIMDA,30.0792,I,1.0186,B,6.7,C,,,,,,,98.6,T,98.1,M,8.5,N,4.4,M*10"
2020-11-27T13:59:15.590154,"$SDDBT,25.33,f,7.72,M,4.22,F*07"
2020-11-27T13:59:15.629456,"$GPGLL,5153.7992,N,00428.3953,E,125913.00,A*0C"
2020-11-27T13:59:15.631000,"$YXMTW,36.9,C*1E"
2020-11-27T13:59:15.660991,"$HEROT,-41.99,A*03"
2020-11-27T13:59:15.704479,"$GPVTG,118.7,T,,,007.2,N,013.3,K*26"
2020-11-27T13:59:15.710746,"$YXXDR,C,1.4,C,WCHR,C,2.8,C,WCHT,C,,C,HINX,P,1.0174,B,STNP*47"
2020-11-27T13:59:15.731271,"$VDVBW,007.62,,A,00.00,00.00,V,,V,00.00,V*75"
2020-11-27T13:59:15.747117,"$GPROT,-0014.0,A*29"
2020-11-27T13:59:15.788610,"$YXXDR,A,-5.4,D,PTCH,A,3.4,D,ROLL*76"
2020-11-27T13:59:15.793972,"$VDVLW,9917.03,N,5847.04,N*50"
2020-11-27T13:59:15.811960,"$GPDTM,W84,,0,N,0,E,+0,W84*5A"
2020-11-27T13:59:15.832851,"$HCHDT,90.8,T*18"
2020-11-27T13:59:15.891732,"$WIMWV,349.7,R,15.2,N,A*1C"
2020-11-27T13:59:15.896659,"$GPZDA,125913.00,27,11,2020,-02,00*41"
2020-11-27T13:59:15.945045,"$HEROT,-46.88,A*04"
2020-11-27T13:59:15.978937,"$GPVTG,117.6,T,117.1,M,7.2,N,13.3,K,D*15"
2020-11-27T13:59:16.058614,"$GPZDA,125915.80,27,11,2020,00,00*60"
2020-11-27T13:59:16.228982,"$GPHDT,113.9,T*3F"
2020-11-27T13:59:16.233025,"$HEROT,-50.70,A*04"
2020-11-27T13:59:16.345439,"$GPGGA,125916.10,5153.7990,N,00428.3947,E,2,9,0.9,10.7,M,44.9,M,,*6B"
2020-11-27T13:59:16.376852,"$HCHDT,90.2,T*12"
2020-11-27T13:59:16.387728,"$GPGGA,125914,5153.7984,N,00428.3983,E,2,04,07,+0006,M,+047,M,00,0000*6C"
2020-11-27T13:59:16.435758,"$WIMWV,351.1,R,15.1,N,A*10"
2020-11-27T13:59:16.507653,"$SDDPT,7.77,0.00,100.0*53"
2020-11-27T13:59:16.517046,"$HEROT,-54.02,A*05"
2020-11-27T13:59:16.531321,"$GPRMC,125914,A,5153.7984,N,00428.3983,E,007.2,118.,271120,01.,E*48"
2020-11-27T13:59:16.585437,"$WIMDA,30.0792,I,1.0186,B,6.7,C,,,,,,,100.9,T,100.4,M,8.2,N,4.2,M*1B"
2020-11-27T13:59:16.588295,"$SDDBT,25.49,f,7.77,M,4.24,F*09"
2020-11-27T13:59:16.626857,"$YXMTW,36.9,C*1E"
2020-11-27T13:59:16.633688,"$GPGLL,5153.7984,N,00428.3983,E,125914.00,A*01"
2020-11-27T13:59:16.704613,"$GPVTG,118.3,T,,,007.2,N,013.3,K*22"
2020-11-27T13:59:16.716780,"$YXXDR,C,1.4,C,WCHR,C,2.9,C,WCHT,C,,C,HINX,P,1.0173,B,STNP*41"
2020-11-27T13:59:16.737331,"$VDVBW,007.62,,A,00.00,00.00,V,,V,00.00,V*75"
2020-11-27T13:59:16.747160,"$GPROT,-0018.4,A*21"
2020-11-27T13:59:16.792622,"$YXXDR,A,-5.1,D,PTCH,A,1.5,D,ROLL*70"
2020-11-27T13:59:16.800028,"$VDVLW,9917.03,N,5847.04,N*50"
2020-11-27T13:59:16.803043,"$HEROT,-56.68,A*0B"
2020-11-27T13:59:16.812012,"$GPDTM,W84,,0,N,0,E,+0,W84*5A"
2020-11-27T13:59:16.828877,"$HCHDT,89.5,T*1D"
2020-11-27T13:59:16.887786,"$WIMWV,351.8,R,15.4,N,A*1C"
2020-11-27T13:59:16.894750,"$GPZDA,125914.00,27,11,2020,-02,00*46"
2020-11-27T13:59:16.977000,"$GPVTG,117.1,T,116.6,M,7.2,N,13.3,K,D*14"
2020-11-27T13:59:17.054652,"$GPZDA,125916.70,27,11,2020,00,00*6C"
2020-11-27T13:59:17.089081,"$HEROT,-58.43,A*0C"
2020-11-27T13:59:17.229053,"$GPHDT,112.7,T*30"
2020-11-27T13:59:17.345457,"$GPGGA,125917.10,5153.7984,N,00428.3982,E,2,9,0.9,11.1,M,44.9,M,,*61"
2020-11-27T13:59:17.375087,"$HEROT,-59.15,A*0E"
2020-11-27T13:59:17.378885,"$HCHDT,88.6,T*1F"
2020-11-27T13:59:17.387772,"$GPGGA,125915,5153.7975,N,00428.4013,E,2,04,07,+0006,M,+047,M,00,0000*64"
2020-11-27T13:59:17.435777,"$WIMWV,352.5,R,16.0,N,A*15"
2020-11-27T13:59:17.509721,"$SDDPT,7.90,0.00,100.0*5A"
2020-11-27T13:59:17.531362,"$GPRMC,125915,A,5153.7975,N,00428.4013,E,007.2,117.,271120,01.,E*4F"
2020-11-27T13:59:17.585529,"$WIMDA,30.0822,I,1.0187,B,6.7,C,,,,,,,103.5,T,103.0,M,8.8,N,4.5,M*1B"
2020-11-27T13:59:17.588286,"$SDDBT,25.92,f,7.90,M,4.32,F*01"
2020-11-27T13:59:17.629610,"$GPGLL,5153.7975,N,00428.4013,E,125915.00,A*09"
2020-11-27T13:59:17.631115,"$YXMTW,36.9,C*1E"
2020-11-27T13:59:17.661087,"$HEROT,-60.34,A*07"
2020-11-27T13:59:17.704610,"$GPVTG,117.2,T,,,007.2,N,013.3,K*2C"
2020-11-27T13:59:17.716866,"$YXXDR,C,1.2,C,WCHR,C,2.7,C,WCHT,C,,C,HINX,P,1.0174,B,STNP*4E"
2020-11-27T13:59:17.747206,"$GPROT,-0023.6,A*2B"
2020-11-27T13:59:17.761359,"$VDVBW,007.63,,A,00.00,00.00,V,,V,00.00,V*74"
2020-11-27T13:59:17.792686,"$YXXDR,A,-4.5,D,PTCH,A,0.5,D,ROLL*74"
2020-11-27T13:59:17.812064,"$GPDTM,W84,,0,N,0,E,+0,W84*5A"
2020-11-27T13:59:17.824060,"$VDVLW,9917.03,N,5847.05,N*51"
2020-11-27T13:59:17.830922,"$HCHDT,87.5,T*13"
2020-11-27T13:59:17.889830,"$WIMWV,353.9,R,16.2,N,A*1A"
2020-11-27T13:59:17.894752,"$GPZDA,125915.00,27,11,2020,-02,00*47"
2020-11-27T13:59:17.945112,"$HEROT,-60.04,A*04"
2020-11-27T13:59:17.979015,"$GPVTG,116.7,T,116.2,M,7.3,N,13.5,K,D*10"
2020-11-27T13:59:18.058665,"$GPZDA,125917.80,27,11,2020,00,00*62"
2020-11-27T13:59:18.229115,"$GPHDT,111.4,T*30"
2020-11-27T13:59:18.233121,"$HEROT,-58.47,A*08"
2020-11-27T13:59:18.343460,"$GPGGA,125918.10,5153.7977,N,00428.4014,E,2,9,0.9,11.3,M,44.9,M,,*61"
2020-11-27T13:59:18.376946,"$HCHDT,86.7,T*10"
2020-11-27T13:59:18.387816,"$GPGGA,125916,5153.7966,N,00428.4041,E,2,04,07,+0006,M,+047,M,00,0000*62"
2020-11-27T13:59:18.435831,"$WIMWV,354.1,R,16.1,N,A*16"
2020-11-27T13:59:18.505749,"$SDDPT,7.87,0.00,100.0*5C"
2020-11-27T13:59:18.517112,"$HEROT,-56.24,A*03"
2020-11-27T13:59:18.531393,"$GPRMC,125916,A,5153.7966,N,00428.4041,E,007.2,116.,271120,01.,E*48"
2020-11-27T13:59:18.585505,"$WIMDA,30.0822,I,1.0187,B,6.7,C,,,,,,,106.1,T,105.6,M,8.8,N,4.5,M*1A"
2020-11-27T13:59:18.588368,"$SDDBT,25.82,f,7.87,M,4.30,F*04"
2020-11-27T13:59:18.625019,"$YXMTW,36.9,C*1E"
2020-11-27T13:59:18.631609,"$GPGLL,5153.7966,N,00428.4041,E,125916.00,A*0F"
2020-11-27T13:59:18.639393,"$VDVBW,007.64,,A,00.00,00.00,V,,V,00.00,V*73"
2020-11-27T13:59:18.702111,"$VDVLW,9917.04,N,5847.05,N*56"
2020-11-27T13:59:18.706650,"$GPVTG,116.8,T,,,007.2,N,013.3,K*27"
2020-11-27T13:59:18.716865,"$YXXDR,C,1.2,C,WCHR,C,2.7,C,WCHT,C,,C,HINX,P,1.0174,B,STNP*4E"
2020-11-27T13:59:18.747232,"$GPROT,-0028.8,A*2E"
2020-11-27T13:59:18.792704,"$YXXDR,A,-4.8,D,PTCH,A,2.9,D,ROLL*77"
2020-11-27T13:59:18.803169,"$HEROT,-52.58,A*0C"
2020-11-27T13:59:18.812119,"$GPDTM,W84,,0,N,0,E,+0,W84*5A"
2020-11-27T13:59:18.832954,"$HCHDT,85.9,T*1D"
2020-11-27T13:59:18.891847,"$WIMWV,355.0,R,15.9,N,A*1D"
2020-11-27T13:59:18.896805,"$GPZDA,125916.00,27,11,2020,-02,00*44"
2020-11-27T13:59:18.981052,"$GPVTG,116.5,T,116.0,M,7.2,N,13.3,K,D*17"
2020-11-27T13:59:19.058720,"$GPZDA,125918.80,27,11,2020,00,00*6D"
2020-11-27T13:59:19.089146,"$HEROT,-47.13,A*07"
2020-11-27T13:59:19.243134,"$GPHDT,110.3,T*36"
2020-11-27T13:59:19.345544,"$GPGGA,125919.10,5153.7972,N,00428.4039,E,2,9,0.9,11.2,M,44.9,M,,*6B"
2020-11-27T13:59:19.375181,"$HEROT,-39.16,A*0B"
2020-11-27T13:59:19.378979,"$HCHDT,85.2,T*16"
2020-11-27T13:59:19.401852,"$GPGGA,125917,5153.7956,N,00428.4070,E,2,04,07,+0006,M,+047,M,00,0000*62"
2020-11-27T13:59:19.437851,"$WIMWV,355.2,R,15.4,N,A*12"
2020-11-27T13:59:19.507772,"$SDDPT,7.86,0.00,100.0*5D"
2020-11-27T13:59:19.545437,"$GPRMC,125917,A,5153.7956,N,00428.4070,E,007.2,117.,271120,01.,E*49"
2020-11-27T13:59:19.585523,"$WIMDA,30.0822,I,1.0187,B,6.7,C,,,,,,,106.9,T,106.4,M,8.2,N,4.2,M*1E"
2020-11-27T13:59:19.588394,"$SDDBT,25.79,f,7.86,M,4.29,F*09"
2020-11-27T13:59:19.627055,"$YXMTW,36.9,C*1E"
2020-11-27T13:59:19.643616,"$GPGLL,5153.7956,N,00428.4070,E,125917.00,A*0F"
2020-11-27T13:59:19.659168,"$HEROT,-31.20,A*06"
2020-11-27T13:59:19.716929,"$YXXDR,C,1.3,C,WCHR,C,2.8,C,WCHT,C,,C,HINX,P,1.0174,B,STNP*40"
2020-11-27T13:59:19.720658,"$GPVTG,117.0,T,,,007.2,N,013.3,K*2E"
2020-11-27T13:59:19.733523,"$VDVBW,007.64,,A,00.00,00.00,V,,V,00.00,V*73"
2020-11-27T13:59:19.763270,"$GPROT,-0032.5,A*28"
2020-11-27T13:59:19.792748,"$YXXDR,A,-4.4,D,PTCH,A,3.7,D,ROLL*74"
2020-11-27T13:59:19.798180,"$VDVLW,9917.04,N,5847.05,N*56"
2020-11-27T13:59:19.828194,"$GPDTM,W84,,0,N,0,E,+0,W84*5A"
2020-11-27T13:59:19.833018,"$HCHDT,84.7,T*12"
2020-11-27T13:59:19.891882,"$WIMWV,355.0,R,15.6,N,A*12"
2020-11-27T13:59:19.910896,"$GPZDA,125917.00,27,11,2020,-02,00*45"
2020-11-27T13:59:19.945179,"$HEROT,-23.54,A*06"
2020-11-27T13:59:19.979131,"$GPVTG,115.7,T,115.2,M,7.2,N,13.3,K,D*17"
2020-11-27T13:59:20.058752,"$GPZDA,125919.80,27,11,2020,00,00*6C"
2020-11-27T13:59:20.231297,"$HEROT,-17.09,A*09"
2020-11-27T13:59:20.235136,"$GPHDT,109.7,T*3A"
2020-11-27T13:59:20.343629,"$GPGGA,125920.10,5153.7961,N,00428.4068,E,2,9,0.9,10.5,M,44.9,M,,*61"
2020-11-27T13:59:20.377098,"$HCHDT,84.4,T*11"
2020-11-27T13:59:20.391906,"$GPGGA,125918,5153.7949,N,00428.4100,E,2,04,07,+0006,M,+047,M,00,0000*65"
2020-11-27T13:59:20.435896,"$WIMWV,355.2,R,15.5,N,A*13"
2020-11-27T13:59:20.511821,"$SDDPT,7.98,0.00,100.0*52"
2020-11-27T13:59:20.517208,"$HEROT,-14.10,A*02"
2020-11-27T13:59:20.535480,"$GPRMC,125918,A,5153.7949,N,00428.4100,E,007.2,116.,271120,01.,E*4F"
2020-11-27T13:59:20.585609,"$WIMDA,30.0792,I,1.0186,B,6.7,C,,,,,,,106.8,T,106.3,M,8.4,N,4.3,M*1A"
2020-11-27T13:59:20.590326,"$SDDBT,26.18,f,7.98,M,4.36,F*0C"
2020-11-27T13:59:20.631078,"$YXMTW,36.9,C*1E"
2020-11-27T13:59:20.637666,"$GPGLL,5153.7949,N,00428.4100,E,125918.00,A*08"
2020-11-27T13:59:20.710753,"$GPVTG,116.7,T,,,007.2,N,013.3,K*28"
2020-11-27T13:59:20.716964,"$YXXDR,C,1.3,C,WCHR,C,2.8,C,WCHT,C,,C,HINX,P,1.0174,B,STNP*40"
2020-11-27T13:59:20.733495,"$VDVBW,007.65,,A,00.00,00.00,V,,V,00.00,V*72"
2020-11-27T13:59:20.753371,"$GPROT,-0033.2,A*2E"
2020-11-27T13:59:20.792807,"$YXXDR,A,-5.0,D,PTCH,A,3.3,D,ROLL*75"
2020-11-27T13:59:20.796198,"$VDVLW,9917.04,N,5847.05,N*56"
2020-11-27T13:59:20.803236,"$HEROT,-12.17,A*03"
2020-11-27T13:59:20.818262,"$GPDTM,W84,,0,N,0,E,+0,W84*5A"
2020-11-27T13:59:20.831045,"$HCHDT,84.4,T*11"
2020-11-27T13:59:20.891938,"$WIMWV,354.7,R,15.7,N,A*15"
2020-11-27T13:59:20.900869,"$GPZDA,125918.00,27,11,2020,-02,00*4A"
2020-11-27T13:59:20.979145,"$GPVTG,115.9,T,115.4,M,7.2,N,13.3,K,D*1F"
2020-11-27T13:59:21.058811,"$GPZDA,125920.80,27,11,2020,00,00*66"
2020-11-27T13:59:21.089252,"$HEROT,-12.27,A*00"
2020-11-27T13:59:21.229185,"$GPHDT,109.2,T*3F"
2020-11-27T13:59:21.343496,"$GPGGA,125921.10,5153.7939,N,00428.4085,E,2,9,0.9,9.4,M,44.9,M,,*57"
2020-11-27T13:59:21.373278,"$HEROT,-12.52,A*02"
2020-11-27T13:59:21.377085,"$HCHDT,84.6,T*13"
2020-11-27T13:59:21.387969,"$GPGGA,125919,5153.7943,N,00428.4131,E,2,04,07,+0006,M,+047,M,00,0000*6C"
2020-11-27T13:59:21.435960,"$WIMWV,353.8,R,15.4,N,A*1E"
2020-11-27T13:59:21.505871,"$SDDPT,7.78,0.00,100.0*5C"
2020-11-27T13:59:21.531520,"$GPRMC,125919,A,5153.7943,N,00428.4131,E,007.2,115.,271120,01.,E*45"
2020-11-27T13:59:21.583610,"$WIMDA,30.0763,I,1.0185,B,6.7,C,,,,,,,103.7,T,103.2,M,8.2,N,4.2,M*1E"
2020-11-27T13:59:21.586468,"$SDDBT,25.52,f,7.78,M,4.25,F*0D"
2020-11-27T13:59:21.627108,"$YXMTW,36.9,C*1E"
2020-11-27T13:59:21.633708,"$GPGLL,5153.7943,N,00428.4131,E,125919.00,A*01"
2020-11-27T13:59:21.659261,"$HEROT,-13.27,A*01"
2020-11-27T13:59:21.704751,"$GPVTG,115.3,T,,,007.2,N,013.3,K*2F"
2020-11-27T13:59:21.715030,"$YXXDR,C,1.3,C,WCHR,C,2.9,C,WCHT,C,,C,HINX,P,1.0174,B,STNP*41"
2020-11-27T13:59:21.721607,"$VDVBW,007.65,,A,00.00,00.00,V,,V,00.00,V*72"
2020-11-27T13:59:21.747379,"$GPROT,-0032.3,A*2E"
2020-11-27T13:59:21.784312,"$VDVLW,9917.04,N,5847.05,N*56"
2020-11-27T13:59:21.790832,"$YXXDR,A,-4.2,D,PTCH,A,0.8,D,ROLL*7E"
2020-11-27T13:59:21.812276,"$GPDTM,W84,,0,N,0,E,+0,W84*5A"
2020-11-27T13:59:21.831131,"$HCHDT,84.7,T*12"
2020-11-27T13:59:21.892040,"$WIMWV,354.3,R,15.3,N,A*15"
2020-11-27T13:59:21.896925,"$GPZDA,125919.00,27,11,2020,-02,00*4B"
2020-11-27T13:59:21.945287,"$HEROT,-13.93,A*0E"
2020-11-27T13:59:21.979210,"$GPVTG,114.9,T,114.4,M,7.2,N,13.3,K,D*1F"
2020-11-27T13:59:22.060139,"$GPZDA,125921.80,27,11,2020,00,00*67"
2020-11-27T13:59:22.229268,"$GPHDT,108.8,T*34"
2020-11-27T13:59:22.233302,"$HEROT,-14.10,A*02"
2020-11-27T13:59:22.343609,"$GPGGA,125922.10,5153.7932,N,00428.4113,E,2,9,0.9,9.3,M,44.9,M,,*56"
2020-11-27T13:59:22.375125,"$HCHDT,84.8,T*1D"
2020-11-27T13:59:22.387976,"$GPGGA,125920,5153.7936,N,00428.4162,E,2,04,07,+0006,M,+047,M,00,0000*62"
2020-11-27T13:59:22.433994,"$WIMWV,355.3,R,15.2,N,A*15"
2020-11-27T13:59:22.509948,"$SDDPT,7.72,0.00,100.0*56"
2020-11-27T13:59:22.517311,"$HEROT,-15.63,A*07"
2020-11-27T13:59:22.531607,"$GPRMC,125920,A,5153.7936,N,00428.4162,E,007.2,113.,271120,01.,E*4D"
2020-11-27T13:59:22.583652,"$WIMDA,30.0763,I,1.0185,B,6.7,C,,,,,,,104.3,T,103.8,M,8.0,N,4.1,M*16"
2020-11-27T13:59:22.588438,"$SDDBT,25.33,f,7.72,M,4.22,F*07"
2020-11-27T13:59:22.629776,"$GPGLL,5153.7936,N,00428.4162,E,125920.00,A*0F"
2020-11-27T13:59:22.631323,"$YXMTW,36.9,C*1E"
2020-11-27T13:59:22.647639,"$VDVBW,007.65,,A,00.00,00.00,V,,V,00.00,V*72"
2020-11-27T13:59:22.704799,"$GPVTG,113.3,T,,,007.2,N,013.3,K*29"
2020-11-27T13:59:22.710306,"$VDVLW,9917.05,N,5847.06,N*54"
2020-11-27T13:59:22.717066,"$YXXDR,C,1.3,C,WCHR,C,2.8,C,WCHT,C,,C,HINX,P,1.0174,B,STNP*40"
2020-11-27T13:59:22.747456,"$GPROT,-0031.6,A*28"
2020-11-27T13:59:22.790918,"$YXXDR,A,-3.8,D,PTCH,A,1.0,D,ROLL*7A"
2020-11-27T13:59:22.803354,"$HEROT,-18.56,A*0C"
2020-11-27T13:59:22.812280,"$GPDTM,W84,,0,N,0,E,+0,W84*5A"
2020-11-27T13:59:22.831157,"$HCHDT,84.4,T*11"
2020-11-27T13:59:22.890010,"$WIMWV,355.3,R,15.7,N,A*10"
2020-11-27T13:59:22.895014,"$GPZDA,125920.00,27,11,2020,-02,00*41"
2020-11-27T13:59:22.979231,"$GPVTG,112.6,T,112.1,M,7.3,N,13.5,K,D*12"
2020-11-27T13:59:23.058930,"$GPZDA,125922.80,27,11,2020,00,00*64"
2020-11-27T13:59:23.089335,"$HEROT,-20.73,A*00"
2020-11-27T13:59:23.229277,"$GPHDT,108.3,T*3F"
2020-11-27T13:59:23.343713,"$GPGGA,125923.10,5153.7927,N,00428.4149,E,2,9,0.9,10.7,M,44.9,M,,*60"
2020-11-27T13:59:23.373379,"$HEROT,-21.94,A*08"
2020-11-27T13:59:23.377179,"$HCHDT,83.8,T*1A"
2020-11-27T13:59:23.388030,"$GPGGA,125921,5153.7929,N,00428.4192,E,2,04,07,+0006,M,+047,M,00,0000*62"
2020-11-27T13:59:23.436031,"$WIMWV,355.4,R,16.0,N,A*13"
2020-11-27T13:59:23.505953,"$SDDPT,7.72,0.00,100.0*56"
2020-11-27T13:59:23.531610,"$GPRMC,125921,A,5153.7929,N,00428.4192,E,007.2,111.,271120,01.,E*4F"
2020-11-27T13:59:23.585722,"$WIMDA,30.0822,I,1.0187,B,6.7,C,,,,,,,103.5,T,103.0,M,8.8,N,4.5,M*1B"
2020-11-27T13:59:23.588609,"$SDDBT,25.33,f,7.72,M,4.22,F*07"
2020-11-27T13:59:23.625210,"$YXMTW,36.9,C*1E"
2020-11-27T13:59:23.631785,"$GPGLL,5153.7929,N,00428.4192,E,125921.00,A*0F"
2020-11-27T13:59:23.659349,"$HEROT,-20.97,A*0A"
2020-11-27T13:59:23.704829,"$GPVTG,111.9,T,,,007.2,N,013.3,K*21"
2020-11-27T13:59:23.715079,"$YXXDR,C,1.2,C,WCHR,C,2.7,C,WCHT,C,,C,HINX,P,1.0174,B,STNP*4E"
2020-11-27T13:59:23.747449,"$GPROT,-0031.8,A*26"
2020-11-27T13:59:23.792917,"$YXXDR,A,-5.1,D,PTCH,A,1.5,D,ROLL*70"
2020-11-27T13:59:23.812332,"$GPDTM,W84,,0,N,0,E,+0,W84*5A"
2020-11-27T13:59:23.833188,"$HCHDT,83.3,T*11"
2020-11-27T13:59:23.857656,"$VDVBW,007.65,,A,00.00,00.00,V,,V,00.00,V*72"
2020-11-27T13:59:23.892094,"$WIMWV,354.6,R,16.3,N,A*13"
2020-11-27T13:59:23.897064,"$GPZDA,125921.00,27,11,2020,-02,00*40"
2020-11-27T13:59:23.920330,"$VDVLW,9917.05,N,5847.06,N*54"
2020-11-27T13:59:23.945369,"$HEROT,-17.70,A*07"
2020-11-27T13:59:23.981276,"$GPVTG,111.8,T,111.3,M,7.3,N,13.5,K,D*1E"
2020-11-27T13:59:24.058947,"$GPZDA,125923.80,27,11,2020,00,00*65"
2020-11-27T13:59:24.229363,"$GPHDT,107.7,T*34"
2020-11-27T13:59:24.233376,"$HEROT,-13.18,A*0D"
2020-11-27T13:59:24.345791,"$GPGGA,125924.10,5153.7926,N,00428.4182,E,2,9,0.9,10.8,M,44.9,M,,*6E"
2020-11-27T13:59:24.377197,"$HCHDT,82.9,T*1A"
2020-11-27T13:59:24.388058,"$GPGGA,125922,5153.7921,N,00428.4222,E,2,04,07,+0006,M,+047,M,00,0000*61"
2020-11-27T13:59:24.438081,"$WIMWV,354.2,R,16.7,N,A*13"
2020-11-27T13:59:24.507987,"$SDDPT,8.65,0.00,100.0*5F"
2020-11-27T13:59:24.515291,"$HEROT,-7.34,A*36"
2020-11-27T13:59:24.531673,"$GPRMC,125922,A,5153.7921,N,00428.4222,E,007.2,111.,271120,01.,E*4C"
2020-11-27T13:59:24.585726,"$WIMDA,30.0792,I,1.0186,B,6.7,C,,,,,,,100.9,T,100.4,M,9.5,N,4.9,M*16"
2020-11-27T13:59:24.588605,"$SDDBT,28.38,f,8.65,M,4.73,F*0C"
2020-11-27T13:59:24.629840,"$GPGLL,5153.7921,N,00428.4222,E,125922.00,A*0C"
2020-11-27T13:59:24.631382,"$YXMTW,36.9,C*1E"
2020-11-27T13:59:24.704870,"$GPVTG,111.5,T,,,007.2,N,013.3,K*2D"
2020-11-27T13:59:24.717163,"$YXXDR,C,1.1,C,WCHR,C,2.5,C,WCHT,C,,C,HINX,P,1.0173,B,STNP*48"
2020-11-27T13:59:24.747488,"$GPROT,-0031.9,A*27"
2020-11-27T13:59:24.761655,"$VDVBW,007.64,,A,00.00,00.00,V,,V,00.00,V*73"
2020-11-27T13:59:24.792952,"$YXXDR,A,-4.4,D,PTCH,A,2.7,D,ROLL*75"
2020-11-27T13:59:24.799215,"$HEROT,0.66,A*1B"
2020-11-27T13:59:24.812414,"$GPDTM,W84,,0,N,0,E,+0,W84*5A"
2020-11-27T13:59:24.824366,"$VDVLW,9917.05,N,5847.06,N*54"
2020-11-27T13:59:24.833226,"$HCHDT,82.8,T*1B"
2020-11-27T13:59:24.892128,"$WIMWV,354.4,R,16.9,N,A*1B"
2020-11-27T13:59:24.897060,"$GPZDA,125922.00,27,11,2020,-02,00*43"
2020-11-27T13:59:24.981411,"$GPVTG,110.8,T,110.3,M,7.3,N,13.5,K,D*1E"
2020-11-27T13:59:25.058976,"$GPZDA,125924.80,27,11,2020,00,00*62"
2020-11-27T13:59:25.085262,"$HEROT,7.94,A*11"
2020-11-27T13:59:25.229427,"$GPHDT,107.5,T*36"
2020-11-27T13:59:25.343760,"$GPGGA,125925.10,5153.7921,N,00428.4214,E,2,9,0.9,10.5,M,44.9,M,,*69"
2020-11-27T13:59:25.373351,"$HEROT,13.60,A*2F"
2020-11-27T13:59:25.377276,"$HCHDT,82.7,T*14"
2020-11-27T13:59:25.388127,"$GPGGA,125923,5153.7914,N,00428.4252,E,2,04,07,+0006,M,+047,M,00,0000*61"
2020-11-27T13:59:25.436140,"$WIMWV,354.2,R,16.7,N,A*13"
2020-11-27T13:59:25.510038,"$SDDPT,8.19,0.00,100.0*54"
2020-11-27T13:59:25.531701,"$GPRMC,125923,A,5153.7914,N,00428.4252,E,007.2,111.,271120,01.,E*4C"
2020-11-27T13:59:25.583704,"$WIMDA,30.0763,I,1.0185,B,6.7,C,,,,,,,100.3,T,99.8,M,9.2,N,4.7,M*25"
2020-11-27T13:59:25.588604,"$SDDBT,26.87,f,8.19,M,4.47,F*0A"
2020-11-27T13:59:25.629931,"$GPGLL,5153.7914,N,00428.4252,E,125923.00,A*0C"
2020-11-27T13:59:25.631458,"$YXMTW,36.9,C*1E"
2020-11-27T13:59:25.659354,"$HEROT,15.77,A*2F"
2020-11-27T13:59:25.704916,"$GPVTG,111.6,T,,,007.2,N,013.3,K*2E"
2020-11-27T13:59:25.713187,"$YXXDR,C,1.2,C,WCHR,C,2.7,C,WCHT,C,,C,HINX,P,1.0173,B,STNP*49"
2020-11-27T13:59:25.733700,"$VDVBW,007.64,,A,00.00,00.00,V,,V,00.00,V*73"
2020-11-27T13:59:25.747604,"$GPROT,-0029.9,A*2E"
2020-11-27T13:59:25.791040,"$YXXDR,A,-3.9,D,PTCH,A,2.7,D,ROLL*7F"
2020-11-27T13:59:25.796436,"$VDVLW,9917.05,N,5847.06,N*54"
2020-11-27T13:59:25.812406,"$GPDTM,W84,,0,N,0,E,+0,W84*5A"
2020-11-27T13:59:25.831264,"$HCHDT,82.6,T*15"
2020-11-27T13:59:25.890189,"$WIMWV,354.1,R,15.8,N,A*1C"
2020-11-27T13:59:25.895096,"$GPZDA,125923.00,27,11,2020,-02,00*42"
2020-11-27T13:59:25.945371,"$HEROT,17.43,A*2A"
2020-11-27T13:59:25.979411,"$GPVTG,110.1,T,109.6,M,7.3,N,13.5,K,D*1A"
2020-11-27T13:59:26.059252,"$GPZDA,125925.80,27,11,2020,00,00*63"
2020-11-27T13:59:26.229398,"$GPHDT,107.7,T*34"
2020-11-27T13:59:26.233416,"$HEROT,18.96,A*2D"
2020-11-27T13:59:26.341734,"$GPGGA,125926.10,5153.7916,N,00428.4249,E,2,9,0.9,9.6,M,44.9,M,,*5D"
2020-11-27T13:59:26.375296,"$HCHDT,82.7,T*14"
2020-11-27T13:59:26.388164,"$GPGGA,125924,5153.7907,N,00428.4279,E,2,04,07,+0006,M,+047,M,00,0000*6D"
2020-11-27T13:59:26.434156,"$WIMWV,353.3,R,15.7,N,A*16"
2020-11-27T13:59:26.506107,"$SDDPT,8.23,0.00,100.0*5D"
2020-11-27T13:59:26.515415,"$HEROT,19.86,A*2D"
2020-11-27T13:59:26.531747,"$GPRMC,125924,A,5153.7907,N,00428.4279,E,007.2,111.,271120,01.,E*40"
2020-11-27T13:59:26.579710,"$WIMDA,30.0763,I,1.0185,B,6.7,C,,,,,,,96.0,T,95.5,M,8.4,N,4.3,M*1A"
2020-11-27T13:59:26.584605,"$SDDBT,27.00,f,8.23,M,4.50,F*0B"
2020-11-27T13:59:26.625360,"$YXMTW,36.9,C*1E"
2020-11-27T13:59:26.631919,"$GPGLL,5153.7907,N,00428.4279,E,125924.00,A*00"
2020-11-27T13:59:26.704966,"$GPVTG,111.3,T,,,007.2,N,013.3,K*2B"
2020-11-27T13:59:26.711224,"$YXXDR,C,1.3,C,WCHR,C,2.8,C,WCHT,C,,C,HINX,P,1.0174,B,STNP*40"
2020-11-27T13:59:26.733824,"$VDVBW,007.64,,A,00.00,00.00,V,,V,00.00,V*73"
2020-11-27T13:59:26.747655,"$GPROT,-0026.3,A*2B"
2020-11-27T13:59:26.787047,"$YXXDR,A,-4.4,D,PTCH,A,2.6,D,ROLL*74"
2020-11-27T13:59:26.796445,"$VDVLW,9917.05,N,5847.06,N*54"
2020-11-27T13:59:26.801401,"$HEROT,20.79,A*27"
2020-11-27T13:59:26.812454,"$GPDTM,W84,,0,N,0,E,+0,W84*5A"
2020-11-27T13:59:26.833327,"$HCHDT,83.1,T*13"
2020-11-27T13:59:26.892206,"$WIMWV,352.7,R,15.7,N,A*13"
2020-11-27T13:59:26.897127,"$GPZDA,125924.00,27,11,2020,-02,00*45"
2020-11-27T13:59:26.979417,"$GPVTG,108.5,T,108.0,M,7.3,N,13.5,K,D*10"
2020-11-27T13:59:27.059066,"$GPZDA,125926.80,27,11,2020,00,00*60"
2020-11-27T13:59:27.087421,"$HEROT,20.77,A*29"
2020-11-27T13:59:27.229442,"$GPHDT,107.9,T*3A"
2020-11-27T13:59:27.345852,"$GPGGA,125927.10,5153.7912,N,00428.4283,E,2,9,0.9,10.3,M,44.9,M,,*63"
2020-11-27T13:59:27.373415,"$HEROT,21.26,A*2C"
2020-11-27T13:59:27.377342,"$HCHDT,83.5,T*17"
2020-11-27T13:59:27.388197,"$GPGGA,125925,5153.7902,N,00428.4311,E,2,04,07,+0006,M,+047,M,00,0000*66"
2020-11-27T13:59:27.438233,"$WIMWV,352.7,R,15.8,N,A*1C"
2020-11-27T13:59:27.510124,"$SDDPT,7.87,0.00,100.0*5C"
2020-11-27T13:59:27.531822,"$GPRMC,125925,A,5153.7902,N,00428.4311,E,007.2,110.,271120,01.,E*4A"
2020-11-27T13:59:27.581723,"$WIMDA,30.0792,I,1.0186,B,6.7,C,,,,,,,94.3,T,93.8,M,8.6,N,4.4,M*18"
2020-11-27T13:59:27.586652,"$SDDBT,25.82,f,7.87,M,4.30,F*04"
2020-11-27T13:59:27.630070,"$GPGLL,5153.7902,N,00428.4311,E,125925.00,A*0B"
2020-11-27T13:59:27.631652,"$YXMTW,36.9,C*1E"
2020-11-27T13:59:27.655773,"$VDVBW,007.64,,A,00.00,00.00,V,,V,00.00,V*73"
2020-11-27T13:59:27.659430,"$HEROT,21.54,A*29"
2020-11-27T13:59:27.704995,"$GPVTG,110.1,T,,,007.2,N,013.3,K*28"
2020-11-27T13:59:27.713271,"$YXXDR,C,1.3,C,WCHR,C,2.8,C,WCHT,C,,C,HINX,P,1.0174,B,STNP*40"
2020-11-27T13:59:27.720488,"$VDVLW,9917.06,N,5847.07,N*56"
2020-11-27T13:59:27.747645,"$GPROT,-0022.5,A*29"
2020-11-27T13:59:27.789107,"$YXXDR,A,-5.0,D,PTCH,A,0.2,D,ROLL*77"
2020-11-27T13:59:27.812536,"$GPDTM,W84,,0,N,0,E,+0,W84*5A"
2020-11-27T13:59:27.831354,"$HCHDT,83.8,T*1A"
2020-11-27T13:59:27.892267,"$WIMWV,352.3,R,15.7,N,A*17"
2020-11-27T13:59:27.897216,"$GPZDA,125925.00,27,11,2020,-02,00*44"
2020-11-27T13:59:27.945503,"$HEROT,20.45,A*28"
2020-11-27T13:59:27.979451,"$GPVTG,108.1,T,107.6,M,7.2,N,13.3,K,D*1A"
2020-11-27T13:59:28.059111,"$GPZDA,125927.80,27,11,2020,00,00*61"
2020-11-27T13:59:28.229548,"$GPHDT,108.1,T*3D"
2020-11-27T13:59:28.233485,"$HEROT,20.29,A*22"
2020-11-27T13:59:28.343891,"$GPGGA,125928.10,5153.7905,N,00428.4315,E,2,9,0.9,10.4,M,44.9,M,,*63"
2020-11-27T13:59:28.377425,"$HCHDT,83.9,T*1B"
2020-11-27T13:59:28.388250,"$GPGGA,125926,5153.7897,N,00428.4342,E,2,04,07,+0006,M,+047,M,00,0000*6E"
2020-11-27T13:59:28.436236,"$WIMWV,353.6,R,15.5,N,A*11"
2020-11-27T13:59:28.504191,"$SDDPT,7.95,0.00,100.0*5F"
2020-11-27T13:59:28.515509,"$HEROT,19.01,A*22"
2020-11-27T13:59:28.531842,"$GPRMC,125926,A,5153.7897,N,00428.4342,E,007.2,108.,271120,01.,E*4B"
2020-11-27T13:59:28.581756,"$WIMDA,30.0763,I,1.0185,B,6.7,C,,,,,,,96.0,T,95.5,M,8.2,N,4.2,M*1D"
2020-11-27T13:59:28.584611,"$SDDBT,26.08,f,7.95,M,4.34,F*02"
2020-11-27T13:59:28.625412,"$YXMTW,36.9,C*1E"
2020-11-27T13:59:28.632050,"$GPGLL,5153.7897,N,00428.4342,E,125926.00,A*03"
2020-11-27T13:59:28.705053,"$GPVTG,108.6,T,,,007.2,N,013.3,K*26"
2020-11-27T13:59:28.711308,"$YXXDR,C,1.3,C,WCHR,C,2.8,C,WCHT,C,,C,HINX,P,1.0173,B,STNP*47"
2020-11-27T13:59:28.729869,"$VDVBW,007.64,,A,00.00,00.00,V,,V,00.00,V*73"
2020-11-27T13:59:28.747671,"$GPROT,-0019.3,A*27"
2020-11-27T13:59:28.791234,"$YXXDR,A,-4.7,D,PTCH,A,-0.1,D,ROLL*5F"
2020-11-27T13:59:28.794603,"$VDVLW,9917.06,N,5847.07,N*56"
2020-11-27T13:59:28.801494,"$HEROT,19.46,A*21"
2020-11-27T13:59:28.812603,"$GPDTM,W84,,0,N,0,E,+0,W84*5A"
2020-11-27T13:59:28.831402,"$HCHDT,83.8,T*1A"
2020-11-27T13:59:28.890271,"$WIMWV,353.3,R,16.0,N,A*12"
2020-11-27T13:59:28.895228,"$GPZDA,125926.00,27,11,2020,-02,00*47"
2020-11-27T13:59:28.979499,"$GPVTG,108.8,T,108.3,M,7.3,N,13.5,K,D*1E"
2020-11-27T13:59:29.059138,"$GPZDA,125928.80,27,11,2020,00,00*6E"
2020-11-27T13:59:29.087502,"$HEROT,19.69,A*2C"
2020-11-27T13:59:29.229668,"$GPHDT,108.2,T*3E"
2020-11-27T13:59:29.343951,"$GPGGA,125929.10,5153.7894,N,00428.4351,E,2,9,0.9,11.4,M,44.9,M,,*6A"
2020-11-27T13:59:29.373504,"$HEROT,20.53,A*2F"
2020-11-27T13:59:29.377432,"$HCHDT,83.6,T*14"
2020-11-27T13:59:29.388303,"$GPGGA,125927,5153.7889,N,00428.4372,E,2,04,07,+0006,M,+047,M,00,0000*63"
2020-11-27T13:59:29.436301,"$WIMWV,354.4,R,16.2,N,A*10"
2020-11-27T13:59:29.508190,"$SDDPT,7.33,0.00,100.0*53"
2020-11-27T13:59:29.531861,"$GPRMC,125927,A,5153.7889,N,00428.4372,E,007.2,108.,271120,01.,E*46"
2020-11-27T13:59:29.581812,"$WIMDA,30.0822,I,1.0187,B,6.7,C,,,,,,,99.3,T,98.8,M,8.9,N,4.6,M*16"
2020-11-27T13:59:29.586720,"$SDDBT,24.05,f,7.33,M,4.00,F*06"
2020-11-27T13:59:29.627450,"$YXMTW,36.9,C*1E"
2020-11-27T13:59:29.634096,"$GPGLL,5153.7889,N,00428.4372,E,125927.00,A*0E"
2020-11-27T13:59:29.659510,"$HEROT,20.65,A*2A"
2020-11-27T13:59:29.705084,"$GPVTG,108.2,T,,,007.2,N,013.3,K*22"
2020-11-27T13:59:29.713388,"$YXXDR,C,1.2,C,WCHR,C,2.7,C,WCHT,C,,C,HINX,P,1.0173,B,STNP*49"
2020-11-27T13:59:29.747704,"$GPROT,-0016.8,A*23"
2020-11-27T13:59:29.789171,"$YXXDR,A,-5.0,D,PTCH,A,1.6,D,ROLL*72"
2020-11-27T13:59:29.812628,"$GPDTM,W84,,0,N,0,E,+0,W84*5A"
2020-11-27T13:59:29.833428,"$HCHDT,83.6,T*14"
2020-11-27T13:59:29.859870,"$VDVBW,007.63,,A,00.00,00.00,V,,V,00.00,V*74"
2020-11-27T13:59:29.892344,"$WIMWV,354.7,R,15.8,N,A*1A"
2020-11-27T13:59:29.897350,"$GPZDA,125927.00,27,11,2020,-02,00*46"
2020-11-27T13:59:29.922606,"$VDVLW,9917.06,N,5847.07,N*56"
2020-11-27T13:59:29.945610,"$HEROT,20.35,A*2F"
2020-11-27T13:59:29.979600,"$GPVTG,109.5,T,109.0,M,7.3,N,13.5,K,D*10"
2020-11-27T13:59:30.059225,"$GPZDA,125929.80,27,11,2020,00,00*6F"
2020-11-27T13:59:30.231604,"$HEROT,20.56,A*2A"
2020-11-27T13:59:30.243602,"$GPHDT,108.4,T*38"
2020-11-27T13:59:30.345988,"$GPGGA,125930.10,5153.7890,N,00428.4386,E,2,9,0.9,12.7,M,44.9,M,,*6C"
2020-11-27T13:59:30.377502,"$HCHDT,83.8,T*1A"
2020-11-27T13:59:30.402325,"$GPGGA,125928,5153.7882,N,00428.4403,E,2,04,07,+0006,M,+047,M,00,0000*66"
2020-11-27T13:59:30.438328,"$WIMWV,355.1,R,15.8,N,A*1D"
2020-11-27T13:59:30.510259,"$SDDPT,7.39,0.00,100.0*59"
2020-11-27T13:59:30.515601,"$HEROT,21.81,A*21"
2020-11-27T13:59:30.545913,"$GPRMC,125928,A,5153.7882,N,00428.4403,E,007.2,108.,271120,01.,E*43"
2020-11-27T13:59:30.581817,"$WIMDA,30.0852,I,1.0188,B,6.7,C,,,,,,,99.6,T,99.1,M,8.5,N,4.4,M*1D"
2020-11-27T13:59:30.588769,"$SDDBT,24.24,f,7.39,M,4.04,F*0B"
2020-11-27T13:59:30.629523,"$YXMTW,36.9,C*1E"
2020-11-27T13:59:30.644103,"$GPGLL,5153.7882,N,00428.4403,E,125928.00,A*0B"
2020-11-27T13:59:30.713405,"$YXXDR,C,1.3,C,WCHR,C,2.8,C,WCHT,C,,C,HINX,P,1.0173,B,STNP*47"
2020-11-27T13:59:30.721138,"$GPVTG,108.9,T,,,007.2,N,013.3,K*29"
2020-11-27T13:59:30.743917,"$VDVBW,007.63,,A,00.00,00.00,V,,V,00.00,V*74"
2020-11-27T13:59:30.763851,"$GPROT,-0014.3,A*2A"
2020-11-27T13:59:30.789265,"$YXXDR,A,-5.0,D,PTCH,A,3.1,D,ROLL*77"
2020-11-27T13:59:30.801647,"$HEROT,25.95,A*20"
2020-11-27T13:59:30.806639,"$VDVLW,9917.06,N,5847.07,N*56"
2020-11-27T13:59:30.828639,"$GPDTM,W84,,0,N,0,E,+0,W84*5A"
2020-11-27T13:59:30.831473,"$HCHDT,84.1,T*14"
2020-11-27T13:59:30.892361,"$WIMWV,354.3,R,15.9,N,A*1F"
2020-11-27T13:59:30.911308,"$GPZDA,125928.00,27,11,2020,-02,00*49"
2020-11-27T13:59:30.979602,"$GPVTG,108.2,T,107.7,M,7.2,N,13.3,K,D*18"
2020-11-27T13:59:31.059222,"$GPZDA,125930.80,27,11,2020,00,00*67"
2020-11-27T13:59:31.087653,"$HEROT,29.67,A*21"
2020-11-27T13:59:31.233601,"$GPHDT,108.7,T*3B"
2020-11-27T13:59:31.344035,"$GPGGA,125931.10,5153.7886,N,00428.4415,E,2,9,0.9,13.0,M,44.9,M,,*61"
2020-11-27T13:59:31.373601,"$HEROT,35.41,A*28"
2020-11-27T13:59:31.377518,"$HCHDT,84.4,T*11"
2020-11-27T13:59:31.392383,"$GPGGA,125929,5153.7865,N,00428.4440,E,2,04,07,+0006,M,+047,M,00,0000*69"
2020-11-27T13:59:31.436391,"$WIMWV,354.1,R,15.4,N,A*10"
2020-11-27T13:59:31.506310,"$SDDPT,7.80,0.00,100.0*5B"
2020-11-27T13:59:31.535948,"$GPRMC,125929,A,5153.7865,N,00428.4440,E,007.2,109.,271120,01.,E*4D"
2020-11-27T13:59:31.581862,"$WIMDA,30.0852,I,1.0188,B,6.7,C,,,,,,,96.2,T,95.7,M,8.3,N,4.3,M*1D"
2020-11-27T13:59:31.584814,"$SDDBT,25.59,f,7.80,M,4.26,F*02"
2020-11-27T13:59:31.625677,"$YXMTW,36.9,C*1E"
2020-11-27T13:59:31.634176,"$GPGLL,5153.7865,N,00428.4440,E,125929.00,A*04"
2020-11-27T13:59:31.657637,"$HEROT,42.68,A*23"
2020-11-27T13:59:31.711453,"$YXXDR,C,1.3,C,WCHR,C,2.8,C,WCHT,C,,C,HINX,P,1.0173,B,STNP*47"
2020-11-27T13:59:31.714674,"$GPVTG,109.4,T,,,007.2,N,013.3,K*25"
2020-11-27T13:59:31.738006,"$VDVBW,007.63,,A,00.00,00.00,V,,V,00.00,V*74"
2020-11-27T13:59:31.753814,"$GPROT,-0011.3,A*2F"
2020-11-27T13:59:31.789285,"$YXXDR,A,-4.4,D,PTCH,A,0.9,D,ROLL*79"
2020-11-27T13:59:31.802649,"$VDVLW,9917.06,N,5847.07,N*56"
2020-11-27T13:59:31.818671,"$GPDTM,W84,,0,N,0,E,+0,W84*5A"
2020-11-27T13:59:31.831640,"$HCHDT,84.8,T*1D"
2020-11-27T13:59:31.890421,"$WIMWV,353.3,R,15.5,N,A*14"
2020-11-27T13:59:31.901349,"$GPZDA,125929.00,27,11,2020,-02,00*48"
2020-11-27T13:59:31.943686,"$HEROT,52.40,A*28"
2020-11-27T13:59:31.979645,"$GPVTG,107.2,T,106.7,M,7.1,N,13.1,K,D*17"
2020-11-27T13:59:32.059291,"$GPZDA,125931.80,27,11,2020,00,00*66"
2020-11-27T13:59:32.229648,"$GPHDT,109.4,T*39"
2020-11-27T13:59:32.233673,"$HEROT,62.24,A*29"
2020-11-27T13:59:32.344076,"$GPGGA,125932.10,5153.7879,N,00428.4443,E,2,9,0.9,11.9,M,44.9,M,,*6A"
2020-11-27T13:59:32.377599,"$HCHDT,85.1,T*15"
2020-11-27T13:59:32.388401,"$GPGGA,125930,5153.7870,N,00428.4465,E,2,04,07,+0006,M,+047,M,00,0000*62"
2020-11-27T13:59:32.436429,"$WIMWV,352.8,R,15.6,N,A*1D"
2020-11-27T13:59:32.508333,"$SDDPT,8.11,0.00,100.0*5C"
2020-11-27T13:59:32.515672,"$HEROT,75.44,A*29"
2020-11-27T13:59:32.531984,"$GPRMC,125930,A,5153.7870,N,00428.4465,E,007.2,109.,271120,01.,E*46"
2020-11-27T13:59:32.581951,"$WIMDA,30.0822,I,1.0187,B,6.7,C,,,,,,,94.5,T,94.0,M,8.5,N,4.4,M*17"
2020-11-27T13:59:32.586864,"$SDDBT,26.61,f,8.11,M,4.43,F*0E"
2020-11-27T13:59:32.630200,"$GPGLL,5153.7870,N,00428.4465,E,125930.00,A*0F"
2020-11-27T13:59:32.631770,"$YXMTW,36.9,C*1E"
2020-11-27T13:59:32.638029,"$VDVBW,007.62,,A,00.00,00.00,V,,V,00.00,V*75"
2020-11-27T13:59:32.702735,"$VDVLW,9917.07,N,5847.08,N*58"
2020-11-27T13:59:32.707216,"$GPVTG,109.0,T,,,007.2,N,013.3,K*21"
2020-11-27T13:59:32.713515,"$YXXDR,C,1.3,C,WCHR,C,2.8,C,WCHT,C,,C,HINX,P,1.0173,B,STNP*47"
2020-11-27T13:59:32.747865,"$GPROT,-0006.1,A*2B"
2020-11-27T13:59:32.789356,"$YXXDR,A,-4.3,D,PTCH,A,0.5,D,ROLL*72"
2020-11-27T13:59:32.801646,"$HEROT,87.44,A*24"
2020-11-27T13:59:32.814699,"$GPDTM,W84,,0,N,0,E,+0,W84*5A"
2020-11-27T13:59:32.833596,"$HCHDT,85.8,T*1C"
2020-11-27T13:59:32.892457,"$WIMWV,353.5,R,15.2,N,A*15"
2020-11-27T13:59:32.897426,"$GPZDA,125930.00,27,11,2020,-02,00*40"
2020-11-27T13:59:32.979666,"$GPVTG,107.6,T,107.1,M,7.1,N,13.1,K,D*14"
2020-11-27T13:59:33.059315,"$GPZDA,125932.80,27,11,2020,00,00*65"
2020-11-27T13:59:33.089795,"$HEROT,104.86,A*10"
2020-11-27T13:59:33.229693,"$GPHDT,110.8,T*3D"
2020-11-27T13:59:33.346102,"$GPGGA,125933.10,5153.7871,N,00428.4474,E,2,9,0.9,10.9,M,44.9,M,,*66"
2020-11-27T13:59:33.375787,"$HEROT,122.13,A*18"
2020-11-27T13:59:33.379597,"$HCHDT,86.7,T*10"
2020-11-27T13:59:33.388466,"$GPGGA,125931,5153.7863,N,00428.4496,E,2,04,07,+0006,M,+047,M,00,0000*6D"
2020-11-27T13:59:33.438467,"$WIMWV,353.6,R,15.1,N,A*15"
2020-11-27T13:59:33.504366,"$SDDPT,7.84,0.00,100.0*5F"
2020-11-27T13:59:33.532026,"$GPRMC,125931,A,5153.7863,N,00428.4496,E,007.2,108.,271120,01.,E*48"
2020-11-27T13:59:33.581957,"$WIMDA,30.0763,I,1.0185,B,6.7,C,,,,,,,95.6,T,95.1,M,7.9,N,4.1,M*1B"
2020-11-27T13:59:33.584817,"$SDDBT,25.72,f,7.84,M,4.28,F*01"
2020-11-27T13:59:33.623598,"$YXMTW,36.9,C*1E"
2020-11-27T13:59:33.630223,"$GPGLL,5153.7863,N,00428.4496,E,125931.00,A*00"
2020-11-27T13:59:33.661768,"$HEROT,140.75,A*1C"
2020-11-27T13:59:33.705274,"$GPVTG,108.6,T,,,007.2,N,013.3,K*26"
2020-11-27T13:59:33.713597,"$YXXDR,C,1.4,C,WCHR,C,3.0,C,WCHT,C,,C,HINX,P,1.0173,B,STNP*49"
2020-11-27T13:59:33.724063,"$VDVBW,007.62,,A,00.00,00.00,V,,V,00.00,V*75"
2020-11-27T13:59:33.747874,"$GPROT,+0002.6,A*2E"
2020-11-27T13:59:33.789345,"$YXXDR,A,-6.1,D,PTCH,A,2.2,D,ROLL*77"
2020-11-27T13:59:33.792778,"$VDVLW,9917.07,N,5847.08,N*58"
2020-11-27T13:59:33.814783,"$GPDTM,W84,,0,N,0,E,+0,W84*5A"
2020-11-27T13:59:33.831595,"$HCHDT,88.1,T*18"
2020-11-27T13:59:33.890478,"$WIMWV,352.9,R,14.9,N,A*12"
2020-11-27T13:59:33.895446,"$GPZDA,125931.00,27,11,2020,-02,00*41"
2020-11-27T13:59:33.945785,"$HEROT,160.50,A*19"
2020-11-27T13:59:33.979704,"$GPVTG,108.4,T,107.9,M,7.2,N,13.3,K,D*10"
2020-11-27T13:59:34.059366,"$GPZDA,125933.80,27,11,2020,00,00*64"
2020-11-27T13:59:34.229739,"$GPHDT,113.4,T*32"
2020-11-27T13:59:34.233798,"$HEROT,181.36,A*16"
2020-11-27T13:59:34.344186,"$GPGGA,125934.10,5153.7863,N,00428.4507,E,2,9,0.9,10.2,M,44.9,M,,*6C"
2020-11-27T13:59:34.377649,"$HCHDT,89.8,T*10"
2020-11-27T13:59:34.388493,"$GPGGA,125932,5153.7847,N,00428.4531,E,2,04,07,+0006,M,+047,M,00,0000*64"
2020-11-27T13:59:34.436495,"$WIMWV,352.3,R,14.5,N,A*14"
2020-11-27T13:59:34.506413,"$SDDPT,7.83,0.00,100.0*58"
2020-11-27T13:59:34.517814,"$HEROT,200.30,A*1A"
2020-11-27T13:59:34.532064,"$GPRMC,125932,A,5153.7847,N,00428.4531,E,007.2,108.,271120,01.,E*41"
2020-11-27T13:59:34.582068,"$WIMDA,30.0792,I,1.0186,B,6.7,C,,,,,,,93.4,T,92.9,M,7.4,N,3.8,M*1E"
2020-11-27T13:59:34.584952,"$SDDBT,25.69,f,7.83,M,4.28,F*0C"
2020-11-27T13:59:34.625662,"$YXMTW,36.9,C*1E"
2020-11-27T13:59:34.632293,"$GPGLL,5153.7847,N,00428.4531,E,125932.00,A*09"
2020-11-27T13:59:34.705323,"$GPVTG,108.5,T,,,007.2,N,013.3,K*25"
2020-11-27T13:59:34.711589,"$YXXDR,C,1.5,C,WCHR,C,3.0,C,WCHT,C,,C,HINX,P,1.0174,B,STNP*4F"
2020-11-27T13:59:34.726107,"$VDVBW,007.62,,A,00.00,00.00,V,,V,00.00,V*75"
2020-11-27T13:59:34.747922,"$GPROT,+0017.2,A*2E"
2020-11-27T13:59:34.789432,"$YXXDR,A,-4.8,D,PTCH,A,2.9,D,ROLL*77"
2020-11-27T13:59:34.792829,"$VDVLW,9917.07,N,5847.08,N*58"
2020-11-27T13:59:34.803827,"$HEROT,217.50,A*1A"
2020-11-27T13:59:34.814801,"$GPDTM,W84,,0,N,0,E,+0,W84*5A"
2020-11-27T13:59:34.831697,"$HCHDT,91.8,T*19"
2020-11-27T13:59:34.890599,"$WIMWV,350.5,R,14.7,N,A*12"
2020-11-27T13:59:34.895495,"$GPZDA,125932.00,27,11,2020,-02,00*42"
2020-11-27T13:59:34.979758,"$GPVTG,108.4,T,107.9,M,7.2,N,13.3,K,D*10"
2020-11-27T13:59:35.059538,"$GPZDA,125934.80,27,11,2020,00,00*63"
2020-11-27T13:59:35.089838,"$HEROT,233.91,A*11"
2020-11-27T13:59:35.229788,"$GPHDT,117.1,T*33"
2020-11-27T13:59:35.346203,"$GPGGA,125935.10,5153.7860,N,00428.4543,E,2,9,0.9,10.2,M,44.9,M,,*6E"
2020-11-27T13:59:35.375864,"$HEROT,246.11,A*1B"
2020-11-27T13:59:35.379688,"$HCHDT,94.3,T*17"
2020-11-27T13:59:35.388597,"$GPGGA,125933,5153.7840,N,00428.4560,E,2,04,07,+0006,M,+047,M,00,0000*66"
2020-11-27T13:59:35.436593,"$WIMWV,349.4,R,14.0,N,A*1C"
2020-11-27T13:59:35.510499,"$SDDPT,7.92,0.00,100.0*58"
2020-11-27T13:59:35.532119,"$GPRMC,125933,A,5153.7840,N,00428.4560,E,007.2,109.,271120,01.,E*42"
2020-11-27T13:59:35.582027,"$WIMDA,30.0792,I,1.0186,B,6.7,C,,,,,,,86.6,T,86.1,M,6.8,N,3.5,M*15"
2020-11-27T13:59:35.588995,"$SDDBT,25.98,f,7.92,M,4.33,F*08"
2020-11-27T13:59:35.630318,"$GPGLL,5153.7840,N,00428.4560,E,125933.00,A*0B"
2020-11-27T13:59:35.631876,"$YXMTW,36.9,C*1E"
2020-11-27T13:59:35.661863,"$HEROT,253.41,A*1A"
2020-11-27T13:59:35.705378,"$GPVTG,109.0,T,,,007.2,N,013.3,K*21"
2020-11-27T13:59:35.713664,"$YXXDR,C,1.7,C,WCHR,C,3.4,C,WCHT,C,,C,HINX,P,1.0174,B,STNP*49"
2020-11-27T13:59:35.747958,"$GPROT,+0036.7,A*28"
2020-11-27T13:59:35.789433,"$YXXDR,A,-4.0,D,PTCH,A,1.0,D,ROLL*75"
2020-11-27T13:59:35.814863,"$GPDTM,W84,,0,N,0,E,+0,W84*5A"
2020-11-27T13:59:35.833742,"$HCHDT,97.0,T*17"
2020-11-27T13:59:35.850124,"$VDVBW,007.62,,A,00.00,00.00,V,,V,00.00,V*75"
2020-11-27T13:59:35.892947,"$WIMWV,349.5,R,13.6,N,A*1C"
2020-11-27T13:59:35.897600,"$GPZDA,125933.00,27,11,2020,-02,00*43"
2020-11-27T13:59:35.912859,"$VDVLW,9917.07,N,5847.08,N*58"
2020-11-27T13:59:35.947918,"$HEROT,260.83,A*14"
2020-11-27T13:59:35.979800,"$GPVTG,108.3,T,107.8,M,7.2,N,13.3,K,D*16"
2020-11-27T13:59:36.059448,"$GPZDA,125935.80,27,11,2020,00,00*62"
2020-11-27T13:59:36.229828,"$GPHDT,121.5,T*32"
2020-11-27T13:59:36.233971,"$HEROT,266.30,A*1A"
2020-11-27T13:59:36.344172,"$GPGGA,125936.10,5153.7856,N,00428.4577,E,2,9,0.9,9.8,M,44.9,M,,*5D"
2020-11-27T13:59:36.375712,"$HCHDT,99.8,T*11"
2020-11-27T13:59:36.388591,"$GPGGA,125934,5153.7835,N,00428.4590,E,2,04,07,+0007,M,+047,M,00,0000*6D"
2020-11-27T13:59:36.436592,"$WIMWV,347.5,R,13.8,N,A*1C"
2020-11-27T13:59:36.506495,"$SDDPT,7.87,0.00,100.0*5C"
2020-11-27T13:59:36.517887,"$HEROT,269.63,A*13"
2020-11-27T13:59:36.532157,"$GPRMC,125934,A,5153.7835,N,00428.4590,E,007.2,109.,271120,01.,E*48"
2020-11-27T13:59:36.580076,"$WIMDA,30.0763,I,1.0185,B,6.7,C,,,,,,,81.9,T,81.4,M,6.9,N,3.5,M*13"
2020-11-27T13:59:36.585012,"$SDDBT,25.82,f,7.87,M,4.30,F*04"
2020-11-27T13:59:36.625756,"$YXMTW,36.9,C*1E"
2020-11-27T13:59:36.632365,"$GPGLL,5153.7835,N,00428.4590,E,125934.00,A*01"
2020-11-27T13:59:36.705386,"$GPVTG,109.2,T,,,007.2,N,013.3,K*23"
2020-11-27T13:59:36.711678,"$YXXDR,C,1.7,C,WCHR,C,3.3,C,WCHT,C,,C,HINX,P,1.0174,B,STNP*4E"
2020-11-27T13:59:36.724193,"$VDVBW,007.62,,A,00.00,00.00,V,,V,00.00,V*75"
2020-11-27T13:59:36.748032,"$GPROT,+0058.6,A*21"
2020-11-27T13:59:36.789592,"$YXXDR,A,-3.0,D,PTCH,A,-2.2,D,ROLL*5E"
2020-11-27T13:59:36.792862,"$VDVLW,9917.08,N,5847.09,N*56"
2020-11-27T13:59:36.803895,"$HEROT,271.80,A*17"
2020-11-27T13:59:36.814881,"$GPDTM,W84,,0,N,0,E,+0,W84*5A"
2020-11-27T13:59:36.833831,"$HCHDT,102.4,T*2E"
2020-11-27T13:59:36.894631,"$WIMWV,345.8,R,13.1,N,A*1A"
2020-11-27T13:59:36.899590,"$GPZDA,125934.00,27,11,2020,-02,00*44"
2020-11-27T13:59:36.981823,"$GPVTG,109.3,T,108.8,M,7.2,N,13.3,K,D*18"
2020-11-27T13:59:37.061486,"$GPZDA,125936.80,27,11,2020,00,00*61"
2020-11-27T13:59:37.089980,"$HEROT,268.97,A*19"
2020-11-27T13:59:37.229905,"$GPHDT,126.1,T*31"
2020-11-27T13:59:37.342187,"$GPGGA,125937.10,5153.7848,N,00428.4606,E,2,9,0.9,9.9,M,44.9,M,,*57"
2020-11-27T13:59:37.375960,"$HEROT,263.29,A*17"
2020-11-27T13:59:37.379846,"$HCHDT,104.9,T*25"
2020-11-27T13:59:37.388623,"$GPGGA,125935,5153.7827,N,00428.4619,E,2,04,07,+0007,M,+047,M,00,0000*6D"
2020-11-27T13:59:37.436657,"$WIMWV,345.9,R,12.7,N,A*1C"
2020-11-27T13:59:37.508590,"$SDDPT,7.78,0.00,100.0*5C"
2020-11-27T13:59:37.532209,"$GPRMC,125935,A,5153.7827,N,00428.4619,E,007.2,109.,271120,01.,E*48"
2020-11-27T13:59:37.582111,"$WIMDA,30.0792,I,1.0186,B,6.7,C,,,,,,,79.6,T,79.1,M,5.9,N,3.0,M*12"
2020-11-27T13:59:37.587084,"$SDDBT,25.52,f,7.78,M,4.25,F*0D"
2020-11-27T13:59:37.627763,"$YXMTW,36.9,C*1E"
2020-11-27T13:59:37.634399,"$GPGLL,5153.7827,N,00428.4619,E,125935.00,A*01"
2020-11-27T13:59:37.661958,"$HEROT,252.14,A*1B"
2020-11-27T13:59:37.705421,"$GPVTG,109.1,T,,,007.2,N,013.3,K*20"
2020-11-27T13:59:37.713758,"$YXXDR,C,1.8,C,WCHR,C,3.6,C,WCHT,C,,C,HINX,P,1.0175,B,STNP*45"
2020-11-27T13:59:37.730262,"$VDVBW,007.62,,A,00.00,00.00,V,,V,00.00,V*75"
