timestamp,payload
2020-09-11T10:45:37.182049,"$WIMWV,3.8,R,5.4,N,A*29"
2020-09-11T10:45:37.205534,"$GPHDT,083.0,T*3E"
2020-09-11T10:45:37.227904,"$GPRMC,084542,A,5153.7361,N,00428.6504,E,007.4,083.,110920,01.,E*43"
2020-09-11T10:45:37.248364,"$GPGGA,084542,5153.7361,N,00428.6504,E,2,05,09,+0006,M,+047,M,00,0000*61"
2020-09-11T10:45:37.258058,"$GPGLL,5153.7361,N,00428.6504,E,084542.00,A*03"
2020-09-11T10:45:37.267190,"$GPVTG,083.1,T,,,007.4,N,013.7,K*21"
2020-09-11T10:45:37.271828,"$GPROT,-0024.5,A*2F"
2020-09-11T10:45:37.280575,"$GPDTM,W84,,0,N,0,E,+0,W84*5A"
2020-09-11T10:45:37.291357,"$GPZDA,084535.00,11,09,2020,-02,00*4F"
2020-09-11T10:45:37.334059,"$WIMDA,30.0320,I,1.0170,B,17.0,C,,,,,,,253.4,T,252.5,M,2.0,N,1.0,M*2A"
2020-09-11T10:45:37.405552,"$GPHDT,083.0,T*3E"
2020-09-11T10:45:37.411248,"$GPZDA,084537.10,11,09,2020,00,00*63"
2020-09-11T10:45:37.427892,"$GPRMC,084542,A,5153.7361,N,00428.6511,E,007.4,083.,110920,01.,E*47"
2020-09-11T10:45:37.441603,"$HEROT,16.05,A*29"
2020-09-11T10:45:37.497906,"$VDVBW,007.14,,A,00.00,00.00,V,,V,00.00,V*74"
2020-09-11T10:45:37.528841,"$YXXDR,C,,C,WCHR,C,,C,WCHT,C,,C,HINX,P,1.0164,B,STNP*49"
2020-09-11T10:45:37.562650,"$VDVLW,9469.30,N,5399.33,N*58"
2020-09-11T10:45:37.565460,"$HCHDT,57.8,T*13"
2020-09-11T10:45:37.605541,"$GPHDT,083.0,T*3E"
2020-09-11T10:45:37.627926,"$GPRMC,084542,A,5153.7361,N,00428.6517,E,007.4,083.,110920,01.,E*41"
2020-09-11T10:45:37.645229,"$YXXDR,A,-5.3,D,PTCH,A,2.0,D,ROLL*74"
2020-09-11T10:45:37.650290,"$SDDPT,7.47,0.00,100.0*50"
2020-09-11T10:45:37.696115,"$WIMWV,4.5,R,5.2,N,A*25"
2020-09-11T10:45:37.726783,"$SDDBT,24.51,f,7.47,M,4.08,F*0C"
2020-09-11T10:45:37.729573,"$HEROT,16.12,A*2F"
2020-09-11T10:45:37.769475,"$YXMTW,37.1,C*17"
2020-09-11T10:45:37.805673,"$GPHDT,083.1,T*3F"
2020-09-11T10:45:37.827914,"$GPRMC,084543,A,5153.7361,N,00428.6524,E,007.4,083.,110920,01.,E*40"
2020-09-11T10:45:37.999927,"$GPGGA,084537.70,5153.7361,N,00428.6506,E,2,9,1.3,5.4,M,44.9,M,,*5C"
2020-09-11T10:45:38.005598,"$GPHDT,083.1,T*3F"
2020-09-11T10:45:38.011625,"$HEROT,15.51,A*2B"
2020-09-11T10:45:38.027926,"$GPRMC,084543,A,5153.7362,N,00428.6531,E,007.4,083.,110920,01.,E*47"
2020-09-11T10:45:38.045509,"$HCHDT,57.6,T*1D"
2020-09-11T10:45:38.129414,"$GPVTG,83.8,T,82.9,M,7.5,N,13.8,K,D*1E"
2020-09-11T10:45:38.180102,"$WIMWV,5.6,R,5.2,N,A*27"
2020-09-11T10:45:38.195582,"$GPHDT,083.1,T*3F"
2020-09-11T10:45:38.217939,"$GPRMC,084543,A,5153.7362,N,00428.6538,E,007.4,083.,110920,01.,E*4E"
2020-09-11T10:45:38.238374,"$GPGGA,084543,5153.7362,N,00428.6538,E,2,05,09,+0006,M,+047,M,00,0000*6C"
2020-09-11T10:45:38.248137,"$GPGLL,5153.7362,N,00428.6538,E,084543.00,A*0E"
2020-09-11T10:45:38.257140,"$GPVTG,083.3,T,,,007.4,N,013.7,K*23"
2020-09-11T10:45:38.261769,"$GPROT,-0021.8,A*27"
2020-09-11T10:45:38.270634,"$GPDTM,W84,,0,N,0,E,+0,W84*5A"
2020-09-11T10:45:38.281374,"$GPZDA,084536.00,11,09,2020,-02,00*4C"
2020-09-11T10:45:38.297590,"$HEROT,16.15,A*28"
2020-09-11T10:45:38.332104,"$WIMDA,30.0350,I,1.0171,B,17.0,C,,,,,,,252.4,T,251.5,M,2.3,N,1.2,M*2F"
2020-09-11T10:45:38.395591,"$GPHDT,083.1,T*3F"
2020-09-11T10:45:38.409268,"$GPZDA,084538.10,11,09,2020,00,00*6C"
2020-09-11T10:45:38.417994,"$GPRMC,084543,A,5153.7363,N,00428.6544,E,007.4,083.,110920,01.,E*44"
2020-09-11T10:45:38.477937,"$VDVBW,007.17,,A,00.00,00.00,V,,V,00.00,V*77"
2020-09-11T10:45:38.528905,"$YXXDR,C,,C,WCHR,C,,C,WCHT,C,,C,HINX,P,1.0165,B,STNP*48"
2020-09-11T10:45:38.540656,"$VDVLW,9469.30,N,5399.33,N*58"
2020-09-11T10:45:38.563550,"$HCHDT,57.5,T*1E"
2020-09-11T10:45:38.583715,"$HEROT,16.79,A*22"
2020-09-11T10:45:38.595635,"$GPHDT,083.1,T*3F"
2020-09-11T10:45:38.617994,"$GPRMC,084543,A,5153.7363,N,00428.6551,E,007.4,083.,110920,01.,E*40"
2020-09-11T10:45:38.643360,"$YXXDR,A,-5.1,D,PTCH,A,2.3,D,ROLL*75"
2020-09-11T10:45:38.646548,"$SDDPT,7.36,0.00,100.0*56"
2020-09-11T10:45:38.694153,"$WIMWV,5.3,R,5.2,N,A*22"
2020-09-11T10:45:38.722851,"$SDDBT,24.15,f,7.36,M,4.02,F*00"
2020-09-11T10:45:38.765553,"$YXMTW,37.0,C*16"
2020-09-11T10:45:38.795666,"$GPHDT,083.2,T*3C"
2020-09-11T10:45:38.817951,"$GPRMC,084544,A,5153.7364,N,00428.6558,E,007.4,083.,110920,01.,E*49"
2020-09-11T10:45:38.869646,"$HEROT,18.17,A*24"
2020-09-11T10:45:38.999962,"$GPGGA,084538.70,5153.7366,N,00428.6536,E,2,9,1.3,5.2,M,44.9,M,,*51"
2020-09-11T10:45:39.001606,"$GPHDT,083.2,T*3C"
2020-09-11T10:45:39.017969,"$GPRMC,084544,A,5153.7364,N,00428.6564,E,007.4,083.,110920,01.,E*46"
2020-09-11T10:45:39.045526,"$HCHDT,57.6,T*1D"
2020-09-11T10:45:39.131486,"$GPVTG,83.0,T,82.1,M,7.4,N,13.7,K,D*10"
2020-09-11T10:45:39.155715,"$HEROT,19.55,A*23"
2020-09-11T10:45:39.182192,"$WIMWV,5.4,R,5.1,N,A*26"
2020-09-11T10:45:39.191624,"$GPHDT,083.2,T*3C"
2020-09-11T10:45:39.213964,"$GPRMC,084544,A,5153.7365,N,00428.6571,E,007.4,083.,110920,01.,E*43"
2020-09-11T10:45:39.234422,"$GPGGA,084544,5153.7365,N,00428.6571,E,2,05,09,+0006,M,+047,M,00,0000*61"
2020-09-11T10:45:39.244179,"$GPGLL,5153.7365,N,00428.6571,E,084544.00,A*03"
2020-09-11T10:45:39.253197,"$GPVTG,083.6,T,,,007.4,N,013.7,K*26"
2020-09-11T10:45:39.255816,"$GPROT,-0018.9,A*2C"
2020-09-11T10:45:39.264714,"$GPDTM,W84,,0,N,0,E,+0,W84*5A"
2020-09-11T10:45:39.275428,"$GPZDA,084537.00,11,09,2020,-02,00*4D"
2020-09-11T10:45:39.332165,"$WIMDA,30.0350,I,1.0171,B,17.0,C,,,,,,,252.4,T,251.5,M,2.3,N,1.2,M*2F"
2020-09-11T10:45:39.391639,"$GPHDT,083.3,T*3D"
2020-09-11T10:45:39.409383,"$GPZDA,084539.10,11,09,2020,00,00*6D"
2020-09-11T10:45:39.415984,"$GPRMC,084544,A,5153.7365,N,00428.6577,E,007.4,083.,110920,01.,E*45"
2020-09-11T10:45:39.441654,"$HEROT,21.80,A*20"
2020-09-11T10:45:39.473983,"$VDVBW,007.17,,A,00.00,00.00,V,,V,00.00,V*77"
2020-09-11T10:45:39.528961,"$YXXDR,C,,C,WCHR,C,,C,WCHT,C,,C,HINX,P,1.0165,B,STNP*48"
2020-09-11T10:45:39.536711,"$VDVLW,9469.31,N,5399.34,N*5E"
2020-09-11T10:45:39.563628,"$HCHDT,57.9,T*12"
2020-09-11T10:45:39.591653,"$GPHDT,083.3,T*3D"
2020-09-11T10:45:39.614000,"$GPRMC,084544,A,5153.7366,N,00428.6584,E,007.4,083.,110920,01.,E*4A"
2020-09-11T10:45:39.643386,"$YXXDR,A,-5.0,D,PTCH,A,2.9,D,ROLL*7E"
2020-09-11T10:45:39.648385,"$SDDPT,7.44,0.00,100.0*53"
2020-09-11T10:45:39.694201,"$WIMWV,4.3,R,4.8,N,A*28"
2020-09-11T10:45:39.726967,"$SDDBT,24.41,f,7.44,M,4.06,F*00"
2020-09-11T10:45:39.729730,"$HEROT,24.32,A*2C"
2020-09-11T10:45:39.767626,"$YXMTW,37.0,C*16"
2020-09-11T10:45:39.791722,"$GPHDT,083.4,T*3A"
2020-09-11T10:45:39.814006,"$GPRMC,084545,A,5153.7367,N,00428.6590,E,007.4,083.,110920,01.,E*4F"
2020-09-11T10:45:39.991729,"$GPHDT,083.4,T*3A"
2020-09-11T10:45:40.000012,"$GPGGA,084539.70,5153.7369,N,00428.6566,E,2,9,1.3,4.6,M,44.9,M,,*5F"
2020-09-11T10:45:40.014044,"$GPRMC,084545,A,5153.7367,N,00428.6597,E,007.4,083.,110920,01.,E*48"
2020-09-11T10:45:40.015739,"$HEROT,26.29,A*24"
2020-09-11T10:45:40.045640,"$HCHDT,58.2,T*16"
2020-09-11T10:45:40.129498,"$GPVTG,82.8,T,81.9,M,7.4,N,13.7,K,D*12"
2020-09-11T10:45:40.180191,"$WIMWV,3.6,R,4.9,N,A*2B"
2020-09-11T10:45:40.191704,"$GPHDT,083.5,T*3B"
2020-09-11T10:45:40.214056,"$GPRMC,084545,A,5153.7368,N,00428.6603,E,007.4,083.,110920,01.,E*49"
2020-09-11T10:45:40.234456,"$GPGGA,084545,5153.7368,N,00428.6603,E,2,05,09,+0006,M,+047,M,00,0000*6B"
2020-09-11T10:45:40.244213,"$GPGLL,5153.7368,N,00428.6603,E,084545.00,A*09"
2020-09-11T10:45:40.253257,"$GPVTG,083.4,T,,,007.4,N,013.7,K*24"
2020-09-11T10:45:40.255905,"$GPROT,-0015.6,A*2E"
2020-09-11T10:45:40.264728,"$GPDTM,W84,,0,N,0,E,+0,W84*5A"
2020-09-11T10:45:40.275432,"$GPZDA,084538.00,11,09,2020,-02,00*42"
2020-09-11T10:45:40.297694,"$HEROT,28.25,A*26"
2020-09-11T10:45:40.332218,"$WIMDA,30.0290,I,1.0169,B,17.0,C,,,,,,,255.7,T,254.8,M,2.5,N,1.3,M*20"
2020-09-11T10:45:40.391699,"$GPHDT,083.5,T*3B"
2020-09-11T10:45:40.409423,"$GPZDA,084540.10,11,09,2020,00,00*63"
2020-09-11T10:45:40.416038,"$GPRMC,084545,A,5153.7368,N,00428.6610,E,007.4,083.,110920,01.,E*4B"
2020-09-11T10:45:40.476049,"$VDVBW,007.23,,A,00.00,00.00,V,,V,00.00,V*70"
2020-09-11T10:45:40.529003,"$YXXDR,C,,C,WCHR,C,,C,WCHT,C,,C,HINX,P,1.0164,B,STNP*49"
2020-09-11T10:45:40.538765,"$VDVLW,9469.31,N,5399.34,N*5E"
2020-09-11T10:45:40.563608,"$HCHDT,58.6,T*12"
2020-09-11T10:45:40.583758,"$HEROT,29.39,A*2A"
2020-09-11T10:45:40.591862,"$GPHDT,083.6,T*38"
2020-09-11T10:45:40.614044,"$GPRMC,084545,A,5153.7370,N,00428.6617,E,007.4,083.,110920,01.,E*45"
2020-09-11T10:45:40.643392,"$YXXDR,A,-5.1,D,PTCH,A,1.0,D,ROLL*75"
2020-09-11T10:45:40.646416,"$SDDPT,7.44,0.00,100.0*53"
2020-09-11T10:45:40.694261,"$WIMWV,1.8,R,5.1,N,A*2E"
2020-09-11T10:45:40.723049,"$SDDBT,24.41,f,7.44,M,4.06,F*00"
2020-09-11T10:45:40.763660,"$YXMTW,37.0,C*16"
2020-09-11T10:45:40.791704,"$GPHDT,083.7,T*39"
2020-09-11T10:45:40.814053,"$GPRMC,084546,A,5153.7370,N,00428.6623,E,007.4,083.,110920,01.,E*41"
2020-09-11T10:45:40.869739,"$HEROT,33.00,A*2B"
2020-09-11T10:45:40.991716,"$GPHDT,083.8,T*36"
2020-09-11T10:45:41.000065,"$GPGGA,084540.70,5153.7370,N,00428.6600,E,2,9,1.3,4.2,M,44.9,M,,*5E"
2020-09-11T10:45:41.014057,"$GPRMC,084546,A,5153.7371,N,00428.6630,E,007.4,083.,110920,01.,E*42"
2020-09-11T10:45:41.045635,"$HCHDT,59.0,T*15"
2020-09-11T10:45:41.129538,"$GPVTG,82.9,T,82.0,M,7.4,N,13.7,K,D*19"
2020-09-11T10:45:41.155767,"$HEROT,36.16,A*29"
2020-09-11T10:45:41.180244,"$WIMWV,1.9,R,5.3,N,A*2D"
2020-09-11T10:45:41.191759,"$GPHDT,083.9,T*37"
2020-09-11T10:45:41.214075,"$GPRMC,084546,A,5153.7371,N,00428.6636,E,007.4,083.,110920,01.,E*44"
2020-09-11T10:45:41.234529,"$GPGGA,084546,5153.7371,N,00428.6636,E,2,05,09,+0006,M,+047,M,00,0000*66"
2020-09-11T10:45:41.244254,"$GPGLL,5153.7371,N,00428.6636,E,084546.00,A*04"
2020-09-11T10:45:41.253285,"$GPVTG,083.0,T,,,007.4,N,013.7,K*20"
2020-09-11T10:45:41.255971,"$GPROT,-0011.8,A*24"
2020-09-11T10:45:41.264862,"$GPDTM,W84,,0,N,0,E,+0,W84*5A"
2020-09-11T10:45:41.275532,"$GPZDA,084539.00,11,09,2020,-02,00*43"
2020-09-11T10:45:41.332263,"$WIMDA,30.0320,I,1.0170,B,17.0,C,,,,,,,256.9,T,256.0,M,2.1,N,1.1,M*23"
2020-09-11T10:45:41.391747,"$GPHDT,084.0,T*39"
2020-09-11T10:45:41.409438,"$GPZDA,084541.10,11,09,2020,00,00*62"
2020-09-11T10:45:41.416098,"$GPRMC,084546,A,5153.7372,N,00428.6643,E,007.4,083.,110920,01.,E*45"
2020-09-11T10:45:41.441766,"$HEROT,39.43,A*26"
2020-09-11T10:45:41.529056,"$YXXDR,C,,C,WCHR,C,,C,WCHT,C,,C,HINX,P,1.0165,B,STNP*48"
2020-09-11T10:45:41.563654,"$HCHDT,59.4,T*11"
2020-09-11T10:45:41.588103,"$VDVBW,007.23,,A,00.00,00.00,V,,V,00.00,V*70"
2020-09-11T10:45:41.591735,"$GPHDT,084.1,T*38"
2020-09-11T10:45:41.614111,"$GPRMC,084546,A,5153.7372,N,00428.6650,E,007.4,082.,110920,01.,E*46"
2020-09-11T10:45:41.643436,"$YXXDR,A,-4.8,D,PTCH,A,1.5,D,ROLL*78"
2020-09-11T10:45:41.646463,"$SDDPT,7.42,0.00,100.0*55"
2020-09-11T10:45:41.652797,"$VDVLW,9469.31,N,5399.34,N*5E"
2020-09-11T10:45:41.694312,"$WIMWV,3.8,R,5.0,N,A*2D"
2020-09-11T10:45:41.724988,"$SDDBT,24.34,f,7.42,M,4.05,F*07"
2020-09-11T10:45:41.727800,"$HEROT,41.45,A*2F"
2020-09-11T10:45:41.765745,"$YXMTW,37.0,C*16"
2020-09-11T10:45:41.791757,"$GPHDT,084.2,T*3B"
2020-09-11T10:45:41.814107,"$GPRMC,084547,A,5153.7372,N,00428.6656,E,007.4,082.,110920,01.,E*41"
2020-09-11T10:45:41.991767,"$GPHDT,084.3,T*3A"
2020-09-11T10:45:42.000103,"$GPGGA,084541.70,5153.7373,N,00428.6633,E,2,9,1.3,4.1,M,44.9,M,,*5F"
2020-09-11T10:45:42.014125,"$GPRMC,084547,A,5153.7373,N,00428.6663,E,007.4,082.,110920,01.,E*46"
2020-09-11T10:45:42.015789,"$HEROT,44.08,A*23"
2020-09-11T10:45:42.045675,"$HCHDT,59.7,T*12"
2020-09-11T10:45:42.131609,"$GPVTG,83.2,T,82.3,M,7.4,N,13.7,K,D*10"
2020-09-11T10:45:42.182300,"$WIMWV,3.7,R,4.9,N,A*2A"
2020-09-11T10:45:42.191784,"$GPHDT,084.4,T*3D"
2020-09-11T10:45:42.214125,"$GPRMC,084547,A,5153.7373,N,00428.6669,E,007.4,082.,110920,01.,E*4C"
2020-09-11T10:45:42.234564,"$GPGGA,084547,5153.7373,N,00428.6669,E,2,05,09,+0006,M,+047,M,00,0000*6F"
2020-09-11T10:45:42.244298,"$GPGLL,5153.7373,N,00428.6669,E,084547.00,A*0D"
2020-09-11T10:45:42.253401,"$GPVTG,082.9,T,,,007.4,N,013.7,K*28"
2020-09-11T10:45:42.256026,"$GPROT,-0007.4,A*2F"
2020-09-11T10:45:42.264854,"$GPDTM,W84,,0,N,0,E,+0,W84*5A"
2020-09-11T10:45:42.275558,"$GPZDA,084540.00,11,09,2020,-02,00*4D"
2020-09-11T10:45:42.297823,"$HEROT,47.95,A*24"
2020-09-11T10:45:42.332400,"$WIMDA,30.0261,I,1.0168,B,17.0,C,,,,,,,256.1,T,255.2,M,2.5,N,1.3,M*21"
2020-09-11T10:45:42.391896,"$GPHDT,084.5,T*3C"
2020-09-11T10:45:42.409513,"$GPZDA,084542.10,11,09,2020,00,00*61"
2020-09-11T10:45:42.416133,"$GPRMC,084547,A,5153.7373,N,00428.6676,E,007.4,082.,110920,01.,E*42"
2020-09-11T10:45:42.484145,"$VDVBW,007.28,,A,00.00,00.00,V,,V,00.00,V*7B"
2020-09-11T10:45:42.529113,"$YXXDR,C,,C,WCHR,C,,C,WCHT,C,,C,HINX,P,1.0164,B,STNP*49"
2020-09-11T10:45:42.546874,"$VDVLW,9469.31,N,5399.34,N*5E"
2020-09-11T10:45:42.563739,"$HCHDT,59.9,T*1C"
2020-09-11T10:45:42.583865,"$HEROT,50.36,A*2B"
2020-09-11T10:45:42.591806,"$GPHDT,084.7,T*3E"
2020-09-11T10:45:42.614160,"$GPRMC,084547,A,5153.7374,N,00428.6682,E,007.4,082.,110920,01.,E*4E"
2020-09-11T10:45:42.643480,"$YXXDR,A,-5.0,D,PTCH,A,1.3,D,ROLL*77"
2020-09-11T10:45:42.648561,"$SDDPT,7.33,0.00,100.0*53"
2020-09-11T10:45:42.694345,"$WIMWV,2.1,R,4.9,N,A*2D"
2020-09-11T10:45:42.727045,"$SDDBT,24.05,f,7.33,M,4.00,F*06"
2020-09-11T10:45:42.767745,"$YXMTW,37.0,C*16"
2020-09-11T10:45:42.791869,"$GPHDT,084.8,T*31"
2020-09-11T10:45:42.814147,"$GPRMC,084548,A,5153.7374,N,00428.6689,E,007.4,083.,110920,01.,E*4B"
2020-09-11T10:45:42.869852,"$HEROT,52.45,A*2D"
2020-09-11T10:45:42.991809,"$GPHDT,085.0,T*38"
2020-09-11T10:45:43.000162,"$GPGGA,084542.70,5153.7376,N,00428.6665,E,2,9,1.3,4.5,M,44.9,M,,*5E"
2020-09-11T10:45:43.014156,"$GPRMC,084548,A,5153.7374,N,00428.6696,E,007.4,083.,110920,01.,E*45"
2020-09-11T10:45:43.045720,"$HCHDT,60.2,T*1D"
2020-09-11T10:45:43.131646,"$GPVTG,83.9,T,83.0,M,7.4,N,13.7,K,D*19"
2020-09-11T10:45:43.155846,"$HEROT,54.90,A*23"
2020-09-11T10:45:43.182405,"$WIMWV,2.1,R,4.7,N,A*23"
2020-09-11T10:45:43.191878,"$GPHDT,085.1,T*39"
2020-09-11T10:45:43.214181,"$GPRMC,084548,A,5153.7375,N,00428.6702,E,007.4,083.,110920,01.,E*48"
2020-09-11T10:45:43.234615,"$GPGGA,084548,5153.7375,N,00428.6702,E,2,05,09,+0006,M,+047,M,00,0000*6A"
2020-09-11T10:45:43.244405,"$GPGLL,5153.7375,N,00428.6702,E,084548.00,A*08"
2020-09-11T10:45:43.253429,"$GPVTG,083.0,T,,,007.4,N,013.7,K*20"
2020-09-11T10:45:43.256018,"$GPROT,-0002.4,A*2A"
2020-09-11T10:45:43.264871,"$GPDTM,W84,,0,N,0,E,+0,W84*5A"
2020-09-11T10:45:43.275570,"$GPZDA,084541.00,11,09,2020,-02,00*4C"
2020-09-11T10:45:43.334400,"$WIMDA,30.0290,I,1.0169,B,17.0,C,,,,,,,258.9,T,258.0,M,2.7,N,1.4,M*22"
2020-09-11T10:45:43.391886,"$GPHDT,085.3,T*3B"
2020-09-11T10:45:43.409569,"$GPZDA,084543.10,11,09,2020,00,00*60"
2020-09-11T10:45:43.416180,"$GPRMC,084548,A,5153.7375,N,00428.6709,E,007.4,083.,110920,01.,E*43"
2020-09-11T10:45:43.441864,"$HEROT,56.00,A*28"
2020-09-11T10:45:43.468220,"$VDVBW,007.33,,A,00.00,00.00,V,,V,00.00,V*71"
2020-09-11T10:45:43.529156,"$YXXDR,C,,C,WCHR,C,,C,WCHT,C,,C,HINX,P,1.0164,B,STNP*49"
2020-09-11T10:45:43.532904,"$VDVLW,9469.31,N,5399.34,N*5E"
2020-09-11T10:45:43.563774,"$HCHDT,60.5,T*1A"
2020-09-11T10:45:43.591884,"$GPHDT,085.5,T*3D"
2020-09-11T10:45:43.614193,"$GPRMC,084548,A,5153.7375,N,00428.6716,E,007.4,083.,110920,01.,E*4D"
2020-09-11T10:45:43.645542,"$YXXDR,A,-5.1,D,PTCH,A,1.0,D,ROLL*75"
2020-09-11T10:45:43.648542,"$SDDPT,7.44,0.00,100.0*53"
2020-09-11T10:45:43.696403,"$WIMWV,3.0,R,4.5,N,A*21"
2020-09-11T10:45:43.723079,"$SDDBT,24.41,f,7.44,M,4.06,F*00"
2020-09-11T10:45:43.725959,"$HEROT,57.97,A*27"
2020-09-11T10:45:43.763849,"$YXMTW,37.0,C*16"
2020-09-11T10:45:43.791853,"$GPHDT,085.6,T*3E"
2020-09-11T10:45:43.814202,"$GPRMC,084549,A,5153.7375,N,00428.6722,E,007.4,083.,110920,01.,E*4B"
2020-09-11T10:45:43.991917,"$GPHDT,085.8,T*30"
2020-09-11T10:45:44.000220,"$GPGGA,084543.70,5153.7376,N,00428.6701,E,2,9,1.3,5.1,M,44.9,M,,*59"
2020-09-11T10:45:44.014234,"$GPRMC,084549,A,5153.7376,N,00428.6728,E,007.4,083.,110920,01.,E*42"
2020-09-11T10:45:44.015897,"$HEROT,58.04,A*22"
2020-09-11T10:45:44.045772,"$HCHDT,60.8,T*17"
2020-09-11T10:45:44.131686,"$GPVTG,84.7,T,83.8,M,7.4,N,13.7,K,D*18"
2020-09-11T10:45:44.182405,"$WIMWV,2.6,R,4.5,N,A*26"
2020-09-11T10:45:44.191870,"$GPHDT,086.0,T*3B"
2020-09-11T10:45:44.214228,"$GPRMC,084549,A,5153.7376,N,00428.6735,E,007.4,083.,110920,01.,E*4E"
2020-09-11T10:45:44.234669,"$GPGGA,084549,5153.7376,N,00428.6735,E,2,05,09,+0006,M,+047,M,00,0000*6C"
2020-09-11T10:45:44.244429,"$GPGLL,5153.7376,N,00428.6735,E,084549.00,A*0E"
2020-09-11T10:45:44.253446,"$GPVTG,083.5,T,,,007.4,N,013.7,K*25"
2020-09-11T10:45:44.256046,"$GPROT,+0002.6,A*2E"
2020-09-11T10:45:44.264927,"$GPDTM,W84,,0,N,0,E,+0,W84*5A"
2020-09-11T10:45:44.275640,"$GPZDA,084542.00,11,09,2020,-02,00*4F"
2020-09-11T10:45:44.297927,"$HEROT,57.40,A*2D"
2020-09-11T10:45:44.334445,"$WIMDA,30.0320,I,1.0170,B,17.0,C,,,,,,,259.9,T,259.0,M,2.9,N,1.5,M*2F"
2020-09-11T10:45:44.391975,"$GPHDT,086.1,T*3A"
2020-09-11T10:45:44.409564,"$GPZDA,084544.10,11,09,2020,00,00*67"
2020-09-11T10:45:44.416218,"$GPRMC,084549,A,5153.7377,N,00428.6742,E,007.4,083.,110920,01.,E*4F"
2020-09-11T10:45:44.482243,"$VDVBW,007.35,,A,00.00,00.00,V,,V,00.00,V*77"
2020-09-11T10:45:44.529185,"$YXXDR,C,,C,WCHR,C,,C,WCHT,C,,C,HINX,P,1.0164,B,STNP*49"
2020-09-11T10:45:44.544939,"$VDVLW,9469.32,N,5399.35,N*5C"
2020-09-11T10:45:44.563807,"$HCHDT,61.0,T*1E"
2020-09-11T10:45:44.583946,"$HEROT,55.18,A*22"
2020-09-11T10:45:44.591944,"$GPHDT,086.2,T*39"
2020-09-11T10:45:44.614226,"$GPRMC,084549,A,5153.7377,N,00428.6749,E,007.4,083.,110920,01.,E*44"
2020-09-11T10:45:44.645539,"$YXXDR,A,-5.4,D,PTCH,A,1.5,D,ROLL*75"
2020-09-11T10:45:44.648624,"$SDDPT,7.53,0.00,100.0*55"
2020-09-11T10:45:44.696442,"$WIMWV,4.4,R,4.4,N,A*23"
2020-09-11T10:45:44.725127,"$SDDBT,24.70,f,7.53,M,4.11,F*02"
2020-09-11T10:45:44.767916,"$YXMTW,37.0,C*16"
2020-09-11T10:45:44.791937,"$GPHDT,086.4,T*3F"
2020-09-11T10:45:44.814244,"$GPRMC,084550,A,5153.7377,N,00428.6755,E,007.4,084.,110920,01.,E*46"
2020-09-11T10:45:44.870065,"$HEROT,54.08,A*22"
2020-09-11T10:45:44.991941,"$GPHDT,086.6,T*3D"
2020-09-11T10:45:45.000252,"$GPGGA,084544.70,5153.7375,N,00428.6739,E,2,9,1.3,5.3,M,44.9,M,,*54"
2020-09-11T10:45:45.014255,"$GPRMC,084550,A,5153.7377,N,00428.6762,E,007.4,084.,110920,01.,E*42"
2020-09-11T10:45:45.045826,"$HCHDT,61.2,T*1C"
2020-09-11T10:45:45.131719,"$GPVTG,85.2,T,84.3,M,7.5,N,13.8,K,D*1E"
2020-09-11T10:45:45.153948,"$HEROT,55.70,A*2C"
2020-09-11T10:45:45.182451,"$WIMWV,5.9,R,4.5,N,A*2E"
2020-09-11T10:45:45.191911,"$GPHDT,086.7,T*3C"
2020-09-11T10:45:45.214256,"$GPRMC,084550,A,5153.7378,N,00428.6768,E,007.4,084.,110920,01.,E*47"
2020-09-11T10:45:45.234709,"$GPGGA,084550,5153.7378,N,00428.6768,E,2,05,09,+0006,M,+047,M,00,0000*62"
2020-09-11T10:45:45.244447,"$GPGLL,5153.7378,N,00428.6768,E,084550.00,A*00"
2020-09-11T10:45:45.253508,"$GPVTG,084.1,T,,,007.4,N,013.7,K*26"
2020-09-11T10:45:45.256103,"$GPROT,+0006.8,A*24"
2020-09-11T10:45:45.264976,"$GPDTM,W84,,0,N,0,E,+0,W84*5A"
2020-09-11T10:45:45.275673,"$GPZDA,084543.00,11,09,2020,-02,00*4E"
2020-09-11T10:45:45.334454,"$WIMDA,30.0350,I,1.0171,B,17.0,C,,,,,,,255.8,T,254.9,M,3.0,N,1.5,M*28"
2020-09-11T10:45:45.391951,"$GPHDT,086.9,T*32"
2020-09-11T10:45:45.409605,"$GPZDA,084545.10,11,09,2020,00,00*66"
2020-09-11T10:45:45.416292,"$GPRMC,084550,A,5153.7378,N,00428.6775,E,007.4,084.,110920,01.,E*4B"
2020-09-11T10:45:45.440008,"$HEROT,57.66,A*29"
2020-09-11T10:45:45.482270,"$VDVBW,007.37,,A,00.00,00.00,V,,V,00.00,V*75"
2020-09-11T10:45:45.529305,"$YXXDR,C,,C,WCHR,C,,C,WCHT,C,,C,HINX,P,1.0165,B,STNP*48"
2020-09-11T10:45:45.547002,"$VDVLW,9469.32,N,5399.35,N*5C"
2020-09-11T10:45:45.563868,"$HCHDT,61.5,T*1B"
2020-09-11T10:45:45.591933,"$GPHDT,087.1,T*3B"
2020-09-11T10:45:45.614273,"$GPRMC,084550,A,5153.7378,N,00428.6782,E,007.4,084.,110920,01.,E*43"
2020-09-11T10:45:45.642668,"$SDDPT,7.38,0.00,100.0*58"
2020-09-11T10:45:45.647584,"$YXXDR,A,-5.3,D,PTCH,A,1.8,D,ROLL*7F"
2020-09-11T10:45:45.696452,"$WIMWV,6.5,R,4.6,N,A*22"
2020-09-11T10:45:45.721152,"$SDDBT,24.21,f,7.38,M,4.03,F*08"
2020-09-11T10:45:45.725965,"$HEROT,57.59,A*25"
2020-09-11T10:45:45.763874,"$YXMTW,37.0,C*16"
2020-09-11T10:45:45.791931,"$GPHDT,087.2,T*38"
2020-09-11T10:45:45.814317,"$GPRMC,084551,A,5153.7378,N,00428.6788,E,007.4,084.,110920,01.,E*48"
2020-09-11T10:45:45.991949,"$GPHDT,087.4,T*3E"
2020-09-11T10:45:46.000282,"$GPGGA,084545.70,5153.7376,N,00428.6778,E,2,8,1.3,5.5,M,44.9,M,,*54"
2020-09-11T10:45:46.014299,"$GPRMC,084551,A,5153.7378,N,00428.6795,E,007.4,084.,110920,01.,E*44"
2020-09-11T10:45:46.015956,"$HEROT,58.47,A*25"
2020-09-11T10:45:46.045860,"$HCHDT,62.0,T*1D"
2020-09-11T10:45:46.131781,"$GPVTG,85.5,T,84.6,M,7.5,N,13.8,K,D*1C"
2020-09-11T10:45:46.182474,"$WIMWV,5.9,R,4.7,N,A*2C"
2020-09-11T10:45:46.191975,"$GPHDT,087.6,T*3C"
2020-09-11T10:45:46.214305,"$GPRMC,084551,A,5153.7379,N,00428.6801,E,007.4,084.,110920,01.,E*47"
2020-09-11T10:45:46.234730,"$GPGGA,084551,5153.7379,N,00428.6801,E,2,05,09,+0006,M,+047,M,00,0000*62"
2020-09-11T10:45:46.244512,"$GPGLL,5153.7379,N,00428.6801,E,084551.00,A*00"
2020-09-11T10:45:46.253570,"$GPVTG,084.7,T,,,007.4,N,013.7,K*20"
2020-09-11T10:45:46.256159,"$GPROT,+0011.0,A*2A"
2020-09-11T10:45:46.265038,"$GPDTM,W84,,0,N,0,E,+0,W84*5A"
2020-09-11T10:45:46.275731,"$GPZDA,084544.00,11,09,2020,-02,00*49"
2020-09-11T10:45:46.298022,"$HEROT,58.47,A*25"
2020-09-11T10:45:46.332531,"$WIMDA,30.0350,I,1.0171,B,17.0,C,,,,,,,255.1,T,254.2,M,2.8,N,1.4,M*22"
2020-09-11T10:45:46.391970,"$GPHDT,087.7,T*3D"
2020-09-11T10:45:46.409662,"$GPZDA,084546.10,11,09,2020,00,00*65"
2020-09-11T10:45:46.416310,"$GPRMC,084551,A,5153.7379,N,00428.6808,E,007.4,084.,110920,01.,E*4E"
2020-09-11T10:45:46.480315,"$VDVBW,007.38,,A,00.00,00.00,V,,V,00.00,V*7A"
2020-09-11T10:45:46.529292,"$YXXDR,C,,C,WCHR,C,,C,WCHT,C,,C,HINX,P,1.0165,B,STNP*48"
2020-09-11T10:45:46.545024,"$VDVLW,9469.32,N,5399.35,N*5C"
2020-09-11T10:45:46.563889,"$HCHDT,62.6,T*1B"
2020-09-11T10:45:46.583999,"$HEROT,59.02,A*25"
2020-09-11T10:45:46.591996,"$GPHDT,087.9,T*33"
2020-09-11T10:45:46.614309,"$GPRMC,084551,A,5153.7379,N,00428.6814,E,007.4,084.,110920,01.,E*43"
2020-09-11T10:45:46.643716,"$YXXDR,A,-5.1,D,PTCH,A,1.6,D,ROLL*73"
2020-09-11T10:45:46.646683,"$SDDPT,7.39,0.00,100.0*59"
2020-09-11T10:45:46.694541,"$WIMWV,4.6,R,4.8,N,A*2D"
2020-09-11T10:45:46.725217,"$SDDBT,24.24,f,7.39,M,4.04,F*0B"
2020-09-11T10:45:46.766003,"$YXMTW,37.0,C*16"
2020-09-11T10:45:46.791974,"$GPHDT,088.1,T*34"
2020-09-11T10:45:46.814402,"$GPRMC,084552,A,5153.7379,N,00428.6820,E,007.4,085.,110920,01.,E*46"
2020-09-11T10:45:46.870034,"$HEROT,61.63,A*29"
2020-09-11T10:45:46.992004,"$GPHDT,088.3,T*36"
2020-09-11T10:45:47.000401,"$GPGGA,084546.70,5153.7380,N,00428.6812,E,2,8,1.3,5.7,M,44.9,M,,*5F"
2020-09-11T10:45:47.014401,"$GPRMC,084552,A,5153.7380,N,00428.6827,E,007.4,085.,110920,01.,E*47"
2020-09-11T10:45:47.045898,"$HCHDT,63.3,T*1F"
2020-09-11T10:45:47.131821,"$GPVTG,85.3,T,84.4,M,7.4,N,13.7,K,D*16"
2020-09-11T10:45:47.156005,"$HEROT,63.45,A*2F"
2020-09-11T10:45:47.182536,"$WIMWV,3.8,R,4.8,N,A*24"
2020-09-11T10:45:47.192013,"$GPHDT,088.5,T*30"
2020-09-11T10:45:47.214397,"$GPRMC,084552,A,5153.7380,N,00428.6833,E,007.4,085.,110920,01.,E*42"
2020-09-11T10:45:47.234834,"$GPGGA,084552,5153.7380,N,00428.6833,E,2,05,09,+0006,M,+047,M,00,0000*66"
2020-09-11T10:45:47.244564,"$GPGLL,5153.7380,N,00428.6833,E,084552.00,A*04"
2020-09-11T10:45:47.253564,"$GPVTG,085.0,T,,,007.4,N,013.6,K*27"
2020-09-11T10:45:47.256198,"$GPROT,+0015.2,A*2C"
2020-09-11T10:45:47.265064,"$GPDTM,W84,,0,N,0,E,+0,W84*5A"
2020-09-11T10:45:47.275746,"$GPZDA,084545.00,11,09,2020,-02,00*48"
2020-09-11T10:45:47.334542,"$WIMDA,30.0320,I,1.0170,B,17.0,C,,,,,,,257.9,T,257.0,M,2.6,N,1.3,M*26"
2020-09-11T10:45:47.392026,"$GPHDT,088.6,T*33"
2020-09-11T10:45:47.409707,"$GPZDA,084547.10,11,09,2020,00,00*64"
2020-09-11T10:45:47.416399,"$GPRMC,084552,A,5153.7380,N,00428.6840,E,007.3,085.,110920,01.,E*41"
2020-09-11T10:45:47.442029,"$HEROT,64.02,A*2B"
2020-09-11T10:45:47.529401,"$YXXDR,C,,C,WCHR,C,,C,WCHT,C,,C,HINX,P,1.0164,B,STNP*49"
2020-09-11T10:45:47.564020,"$HCHDT,64.1,T*1A"
2020-09-11T10:45:47.592044,"$GPHDT,088.8,T*3D"
2020-09-11T10:45:47.614395,"$GPRMC,084552,A,5153.7381,N,00428.6846,E,007.3,085.,110920,01.,E*46"
2020-09-11T10:45:47.618395,"$VDVBW,007.39,,A,00.00,00.00,V,,V,00.00,V*7B"
2020-09-11T10:45:47.645672,"$YXXDR,A,-4.8,D,PTCH,A,1.1,D,ROLL*7C"
2020-09-11T10:45:47.648731,"$SDDPT,7.59,0.00,100.0*5F"
2020-09-11T10:45:47.679056,"$VDVLW,9469.32,N,5399.35,N*5C"
2020-09-11T10:45:47.696544,"$WIMWV,2.5,R,5.0,N,A*21"
2020-09-11T10:45:47.727275,"$SDDBT,24.90,f,7.59,M,4.15,F*02"
2020-09-11T10:45:47.730046,"$HEROT,65.69,A*27"
2020-09-11T10:45:47.767977,"$YXMTW,37.0,C*16"
2020-09-11T10:45:47.792026,"$GPHDT,089.0,T*34"
2020-09-11T10:45:47.814397,"$GPRMC,084553,A,5153.7381,N,00428.6853,E,007.3,085.,110920,01.,E*43"
2020-09-11T10:45:47.992081,"$GPHDT,089.2,T*36"
2020-09-11T10:45:48.000396,"$GPGGA,084547.70,5153.7384,N,00428.6844,E,2,8,1.3,5.8,M,44.9,M,,*56"
2020-09-11T10:45:48.014397,"$GPRMC,084553,A,5153.7381,N,00428.6859,E,007.3,085.,110920,01.,E*49"
2020-09-11T10:45:48.016038,"$HEROT,67.26,A*2E"
2020-09-11T10:45:48.045949,"$HCHDT,64.7,T*1C"
2020-09-11T10:45:48.131861,"$GPVTG,85.5,T,84.6,M,7.3,N,13.5,K,D*17"
2020-09-11T10:45:48.182561,"$WIMWV,2.9,R,5.3,N,A*2E"
2020-09-11T10:45:48.206093,"$GPHDT,089.5,T*31"
2020-09-11T10:45:48.228391,"$GPRMC,084553,A,5153.7381,N,00428.6866,E,007.3,085.,110920,01.,E*45"
2020-09-11T10:45:48.248820,"$GPGGA,084553,5153.7381,N,00428.6866,E,2,05,09,+0006,M,+047,M,00,0000*66"
2020-09-11T10:45:48.258561,"$GPGLL,5153.7381,N,00428.6866,E,084553.00,A*04"
2020-09-11T10:45:48.267644,"$GPVTG,085.3,T,,,007.3,N,013.6,K*23"
2020-09-11T10:45:48.272209,"$GPROT,+0019.5,A*27"
2020-09-11T10:45:48.281074,"$GPDTM,W84,,0,N,0,E,+0,W84*5A"
2020-09-11T10:45:48.291793,"$GPZDA,084546.00,11,09,2020,-02,00*4B"
2020-09-11T10:45:48.300060,"$HEROT,65.69,A*27"
2020-09-11T10:45:48.334578,"$WIMDA,30.0379,I,1.0172,B,16.9,C,,,,,,,258.2,T,257.3,M,2.0,N,1.0,M*22"
2020-09-11T10:45:48.406077,"$GPHDT,089.7,T*33"
2020-09-11T10:45:48.411707,"$GPZDA,084548.10,11,09,2020,00,00*6B"
2020-09-11T10:45:48.428398,"$GPRMC,084553,A,5153.7381,N,00428.6872,E,007.3,085.,110920,01.,E*40"
2020-09-11T10:45:48.480451,"$VDVBW,007.39,,A,00.00,00.00,V,,V,00.00,V*7B"
2020-09-11T10:45:48.529401,"$YXXDR,C,,C,WCHR,C,,C,WCHT,C,,C,HINX,P,1.0166,B,STNP*4B"
2020-09-11T10:45:48.543106,"$VDVLW,9469.32,N,5399.35,N*5C"
2020-09-11T10:45:48.563971,"$HCHDT,65.0,T*1A"
2020-09-11T10:45:48.584074,"$HEROT,61.70,A*2B"
2020-09-11T10:45:48.606063,"$GPHDT,089.8,T*3C"
2020-09-11T10:45:48.628394,"$GPRMC,084553,A,5153.7381,N,00428.6879,E,007.3,085.,110920,01.,E*4B"
2020-09-11T10:45:48.645730,"$YXXDR,A,-4.8,D,PTCH,A,0.6,D,ROLL*7A"
2020-09-11T10:45:48.648765,"$SDDPT,7.59,0.00,100.0*5F"
2020-09-11T10:45:48.696620,"$WIMWV,5.6,R,4.7,N,A*23"
2020-09-11T10:45:48.723289,"$SDDBT,24.90,f,7.59,M,4.15,F*02"
2020-09-11T10:45:48.763991,"$YXMTW,37.0,C*16"
2020-09-11T10:45:48.806055,"$GPHDT,090.0,T*3C"
2020-09-11T10:45:48.828394,"$GPRMC,084554,A,5153.7381,N,00428.6885,E,007.3,085.,110920,01.,E*4F"
2020-09-11T10:45:48.870078,"$HEROT,54.86,A*24"
2020-09-11T10:45:49.000486,"$GPGGA,084548.70,5153.7387,N,00428.6875,E,2,8,1.3,5.5,M,44.9,M,,*55"
2020-09-11T10:45:49.006068,"$GPHDT,090.1,T*3D"
2020-09-11T10:45:49.028467,"$GPRMC,084554,A,5153.7381,N,00428.6892,E,007.3,085.,110920,01.,E*49"
2020-09-11T10:45:49.046001,"$HCHDT,65.4,T*1E"
2020-09-11T10:45:49.131889,"$GPVTG,86.2,T,85.3,M,7.3,N,13.5,K,D*17"
2020-09-11T10:45:49.156089,"$HEROT,42.88,A*2D"
2020-09-11T10:45:49.182607,"$WIMWV,4.7,R,4.6,N,A*22"
2020-09-11T10:45:49.196066,"$GPHDT,090.2,T*3E"
2020-09-11T10:45:49.218429,"$GPRMC,084554,A,5153.7381,N,00428.6898,E,007.3,086.,110920,01.,E*40"
2020-09-11T10:45:49.238863,"$GPGGA,084554,5153.7381,N,00428.6898,E,2,05,09,+0006,M,+047,M,00,0000*60"
2020-09-11T10:45:49.248602,"$GPGLL,5153.7381,N,00428.6898,E,084554.00,A*02"
2020-09-11T10:45:49.257757,"$GPVTG,086.0,T,,,007.3,N,013.6,K*23"
2020-09-11T10:45:49.262263,"$GPROT,+0021.9,A*20"
2020-09-11T10:45:49.271131,"$GPDTM,W84,,0,N,0,E,+0,W84*5A"
2020-09-11T10:45:49.281815,"$GPZDA,084547.00,11,09,2020,-02,00*4A"
2020-09-11T10:45:49.332617,"$WIMDA,30.0320,I,1.0170,B,16.9,C,,,,,,,257.6,T,256.7,M,2.7,N,1.4,M*21"
2020-09-11T10:45:49.396105,"$GPHDT,090.3,T*3F"
2020-09-11T10:45:49.409745,"$GPZDA,084549.10,11,09,2020,00,00*6A"
2020-09-11T10:45:49.418428,"$GPRMC,084554,A,5153.7381,N,00428.6905,E,007.3,086.,110920,01.,E*45"
2020-09-11T10:45:49.442108,"$HEROT,31.87,A*26"
2020-09-11T10:45:49.474434,"$VDVBW,007.39,,A,00.00,00.00,V,,V,00.00,V*7B"
2020-09-11T10:45:49.529426,"$YXXDR,C,,C,WCHR,C,,C,WCHT,C,,C,HINX,P,1.0164,B,STNP*49"
2020-09-11T10:45:49.537144,"$VDVLW,9469.33,N,5399.36,N*5E"
2020-09-11T10:45:49.564008,"$HCHDT,65.6,T*1C"
2020-09-11T10:45:49.596125,"$GPHDT,090.3,T*3F"
2020-09-11T10:45:49.618429,"$GPRMC,084554,A,5153.7381,N,00428.6911,E,007.3,086.,110920,01.,E*40"
2020-09-11T10:45:49.643755,"$YXXDR,A,-5.0,D,PTCH,A,0.3,D,ROLL*76"
2020-09-11T10:45:49.646850,"$SDDPT,7.56,0.00,100.0*50"
2020-09-11T10:45:49.694626,"$WIMWV,7.9,R,4.6,N,A*2F"
2020-09-11T10:45:49.725384,"$SDDBT,24.80,f,7.56,M,4.13,F*0A"
2020-09-11T10:45:49.728113,"$HEROT,16.79,A*22"
2020-09-11T10:45:49.766027,"$YXMTW,37.0,C*16"
2020-09-11T10:45:49.796141,"$GPHDT,090.3,T*3F"
2020-09-11T10:45:49.818490,"$GPRMC,084555,A,5153.7381,N,00428.6918,E,007.3,086.,110920,01.,E*48"
2020-09-11T10:45:50.000516,"$GPGGA,084549.70,5153.7391,N,00428.6904,E,2,8,1.3,5.1,M,44.9,M,,*50"
2020-09-11T10:45:50.002136,"$GPHDT,090.3,T*3F"
2020-09-11T10:45:50.018455,"$GPRMC,084555,A,5153.7381,N,00428.6925,E,007.3,086.,110920,01.,E*46"
2020-09-11T10:45:50.020102,"$HEROT,-0.26,A*32"
2020-09-11T10:45:50.046096,"$HCHDT,65.7,T*1D"
2020-09-11T10:45:50.131945,"$GPVTG,86.7,T,85.8,M,7.1,N,13.1,K,D*1F"
2020-09-11T10:45:50.182650,"$WIMWV,7.9,R,4.9,N,A*20"
2020-09-11T10:45:50.192097,"$GPHDT,090.2,T*3E"
2020-09-11T10:45:50.214447,"$GPRMC,084555,A,5153.7381,N,00428.6931,E,007.3,087.,110920,01.,E*42"
2020-09-11T10:45:50.234909,"$GPGGA,084555,5153.7381,N,00428.6931,E,2,05,09,+0006,M,+047,M,00,0000*63"
2020-09-11T10:45:50.244627,"$GPGLL,5153.7381,N,00428.6931,E,084555.00,A*01"
2020-09-11T10:45:50.253664,"$GPVTG,087.0,T,,,007.3,N,013.5,K*21"
2020-09-11T10:45:50.256292,"$GPROT,+0019.3,A*21"
2020-09-11T10:45:50.265169,"$GPDTM,W84,,0,N,0,E,+0,W84*5A"
2020-09-11T10:45:50.275875,"$GPZDA,084548.00,11,09,2020,-02,00*45"
2020-09-11T10:45:50.300224,"$HEROT,-19.02,A*0C"
2020-09-11T10:45:50.332646,"$WIMDA,30.0379,I,1.0172,B,17.0,C,,,,,,,249.4,T,248.5,M,2.3,N,1.2,M*25"
2020-09-11T10:45:50.392154,"$GPHDT,090.0,T*3C"
2020-09-11T10:45:50.409813,"$GPZDA,084550.10,11,09,2020,00,00*62"
2020-09-11T10:45:50.416451,"$GPRMC,084555,A,5153.7381,N,00428.6937,E,007.3,087.,110920,01.,E*44"
2020-09-11T10:45:50.486472,"$VDVBW,007.40,,A,00.00,00.00,V,,V,00.00,V*75"
2020-09-11T10:45:50.529427,"$YXXDR,C,,C,WCHR,C,,C,WCHT,C,,C,HINX,P,1.0166,B,STNP*4B"
2020-09-11T10:45:50.549168,"$VDVLW,9469.33,N,5399.36,N*5E"
2020-09-11T10:45:50.564047,"$HCHDT,65.5,T*1F"
2020-09-11T10:45:50.586237,"$HEROT,-39.36,A*09"
2020-09-11T10:45:50.592163,"$GPHDT,089.8,T*3C"
2020-09-11T10:45:50.614470,"$GPRMC,084555,A,5153.7380,N,00428.6943,E,007.3,087.,110920,01.,E*46"
2020-09-11T10:45:50.644011,"$YXXDR,A,-5.4,D,PTCH,A,0.7,D,ROLL*76"
2020-09-11T10:45:50.646865,"$SDDPT,7.51,0.00,100.0*57"
2020-09-11T10:45:50.694657,"$WIMWV,9.3,R,4.9,N,A*24"
2020-09-11T10:45:50.721379,"$SDDBT,24.64,f,7.51,M,4.10,F*04"
2020-09-11T10:45:50.762076,"$YXMTW,37.0,C*16"
2020-09-11T10:45:50.792167,"$GPHDT,089.6,T*32"
2020-09-11T10:45:50.814469,"$GPRMC,084556,A,5153.7379,N,00428.6949,E,007.3,087.,110920,01.,E*49"
2020-09-11T10:45:50.872273,"$HEROT,-61.86,A*0F"
2020-09-11T10:45:50.992151,"$GPHDT,089.3,T*37"
2020-09-11T10:45:51.000478,"$GPGGA,084550.70,5153.7392,N,00428.6932,E,2,8,1.3,5.2,M,44.9,M,,*5D"
2020-09-11T10:45:51.014483,"$GPRMC,084556,A,5153.7379,N,00428.6955,E,007.3,087.,110920,01.,E*44"
2020-09-11T10:45:51.046042,"$HCHDT,64.8,T*13"
2020-09-11T10:45:51.130065,"$GPVTG,88.3,T,87.4,M,7.1,N,13.1,K,D*1B"
2020-09-11T10:45:51.158282,"$HEROT,-82.84,A*00"
2020-09-11T10:45:51.182761,"$WIMWV,12.0,R,4.8,N,A*1C"
2020-09-11T10:45:51.192146,"$GPHDT,088.9,T*3C"
2020-09-11T10:45:51.214489,"$GPRMC,084556,A,5153.7379,N,00428.6962,E,007.3,088.,110920,01.,E*4F"
2020-09-11T10:45:51.234932,"$GPGGA,084556,5153.7379,N,00428.6962,E,2,05,09,+0006,M,+047,M,00,0000*61"
2020-09-11T10:45:51.244683,"$GPGLL,5153.7379,N,00428.6962,E,084556.00,A*03"
2020-09-11T10:45:51.253693,"$GPVTG,088.0,T,,,007.3,N,013.5,K*2E"
2020-09-11T10:45:51.256372,"$GPROT,+0010.3,A*28"
2020-09-11T10:45:51.265194,"$GPDTM,W84,,0,N,0,E,+0,W84*5A"
2020-09-11T10:45:51.275899,"$GPZDA,084549.00,11,09,2020,-02,00*44"
2020-09-11T10:45:51.334688,"$WIMDA,30.0320,I,1.0170,B,17.0,C,,,,,,,246.3,T,245.4,M,2.5,N,1.3,M*28"
2020-09-11T10:45:51.392172,"$GPHDT,088.5,T*30"
2020-09-11T10:45:51.411806,"$GPZDA,084551.10,11,09,2020,00,00*63"
2020-09-11T10:45:51.418494,"$GPRMC,084556,A,5153.7379,N,00428.6968,E,007.3,088.,110920,01.,E*45"
2020-09-11T10:45:51.446370,"$HEROT,-101.77,A*36"
2020-09-11T10:45:51.480513,"$VDVBW,007.40,,A,00.00,00.00,V,,V,00.00,V*75"
2020-09-11T10:45:51.531481,"$YXXDR,C,,C,WCHR,C,,C,WCHT,C,,C,HINX,P,1.0164,B,STNP*49"
2020-09-11T10:45:51.543211,"$VDVLW,9469.33,N,5399.36,N*5E"
2020-09-11T10:45:51.566118,"$HCHDT,63.8,T*14"
2020-09-11T10:45:51.592200,"$GPHDT,088.1,T*34"
2020-09-11T10:45:51.614509,"$GPRMC,084556,A,5153.7379,N,00428.6975,E,007.3,088.,110920,01.,E*49"
2020-09-11T10:45:51.646028,"$YXXDR,A,-6.3,D,PTCH,A,0.5,D,ROLL*70"
2020-09-11T10:45:51.648865,"$SDDPT,7.59,0.00,100.0*5F"
2020-09-11T10:45:51.698848,"$WIMWV,15.2,R,4.4,N,A*15"
2020-09-11T10:45:51.723412,"$SDDBT,24.90,f,7.59,M,4.15,F*02"
2020-09-11T10:45:51.732369,"$HEROT,-118.87,A*31"
2020-09-11T10:45:51.766155,"$YXMTW,37.0,C*16"
2020-09-11T10:45:51.792170,"$GPHDT,087.6,T*3C"
2020-09-11T10:45:51.814527,"$GPRMC,084557,A,5153.7379,N,00428.6980,E,007.3,088.,110920,01.,E*42"
2020-09-11T10:45:51.992164,"$GPHDT,087.1,T*3B"
2020-09-11T10:45:52.000569,"$GPGGA,084551.70,5153.7392,N,00428.6965,E,2,8,1.3,6.3,M,44.9,M,,*5C"
2020-09-11T10:45:52.014527,"$GPRMC,084557,A,5153.7378,N,00428.6987,E,007.2,089.,110920,01.,E*44"
2020-09-11T10:45:52.018364,"$HEROT,-132.49,A*3B"
2020-09-11T10:45:52.046074,"$HCHDT,62.2,T*1F"
2020-09-11T10:45:52.132024,"$GPVTG,90.2,T,89.3,M,7.0,N,12.9,K,D*12"
2020-09-11T10:45:52.184797,"$WIMWV,17.6,R,4.2,N,A*15"
2020-09-11T10:45:52.192188,"$GPHDT,086.5,T*3E"
2020-09-11T10:45:52.214520,"$GPRMC,084557,A,5153.7378,N,00428.6993,E,007.2,089.,110920,01.,E*41"
2020-09-11T10:45:52.234992,"$GPGGA,084557,5153.7378,N,00428.6993,E,2,05,09,+0006,M,+047,M,00,0000*6F"
2020-09-11T10:45:52.244722,"$GPGLL,5153.7378,N,00428.6993,E,084557.00,A*0D"
2020-09-11T10:45:52.253747,"$GPVTG,089.1,T,,,007.2,N,013.4,K*2E"
2020-09-11T10:45:52.256366,"$GPROT,-0004.6,A*2E"
2020-09-11T10:45:52.265247,"$GPDTM,W84,,0,N,0,E,+0,W84*5A"
2020-09-11T10:45:52.275946,"$GPZDA,084550.00,11,09,2020,-02,00*4C"
2020-09-11T10:45:52.304404,"$HEROT,-141.05,A*37"
2020-09-11T10:45:52.334701,"$WIMDA,30.0379,I,1.0172,B,17.1,C,,,,,,,249.0,T,248.1,M,3.3,N,1.7,M*20"
2020-09-11T10:45:52.392180,"$GPHDT,086.0,T*3B"
2020-09-11T10:45:52.411836,"$GPZDA,084552.10,11,09,2020,00,00*60"
2020-09-11T10:45:52.418525,"$GPRMC,084557,A,5153.7377,N,00428.7000,E,007.2,089.,110920,01.,E*4C"
2020-09-11T10:45:52.480534,"$VDVBW,007.40,,A,00.00,00.00,V,,V,00.00,V*75"
2020-09-11T10:45:52.531557,"$YXXDR,C,,C,WCHR,C,,C,WCHT,C,,C,HINX,P,1.0165,B,STNP*48"
2020-09-11T10:45:52.545240,"$VDVLW,9469.33,N,5399.36,N*5E"
2020-09-11T10:45:52.566178,"$HCHDT,60.5,T*1A"
2020-09-11T10:45:52.588398,"$HEROT,-148.11,A*3B"
2020-09-11T10:45:52.592183,"$GPHDT,085.4,T*3C"
2020-09-11T10:45:52.614530,"$GPRMC,084557,A,5153.7377,N,00428.7006,E,007.2,089.,110920,01.,E*4A"
2020-09-11T10:45:52.645854,"$YXXDR,A,-5.2,D,PTCH,A,1.5,D,ROLL*73"
2020-09-11T10:45:52.648933,"$SDDPT,7.50,0.00,100.0*56"
2020-09-11T10:45:52.700804,"$WIMWV,24.9,R,4.3,N,A*1B"
2020-09-11T10:45:52.727466,"$SDDBT,24.60,f,7.50,M,4.10,F*01"
2020-09-11T10:45:52.768169,"$YXMTW,37.1,C*17"
2020-09-11T10:45:52.792215,"$GPHDT,084.8,T*31"
2020-09-11T10:45:52.814558,"$GPRMC,084558,A,5153.7376,N,00428.7012,E,007.2,090.,110920,01.,E*49"
2020-09-11T10:45:52.874398,"$HEROT,-153.07,A*36"
2020-09-11T10:45:52.992208,"$GPHDT,084.2,T*3B"
2020-09-11T10:45:53.000556,"$GPGGA,084552.70,5153.7391,N,00428.6998,E,2,8,1.3,7.5,M,44.9,M,,*59"
2020-09-11T10:45:53.014538,"$GPRMC,084558,A,5153.7376,N,00428.7018,E,007.2,090.,110920,01.,E*43"
2020-09-11T10:45:53.046114,"$HCHDT,58.4,T*10"
2020-09-11T10:45:53.132028,"$GPVTG,92.1,T,91.2,M,7.0,N,12.9,K,D*1B"
2020-09-11T10:45:53.160401,"$HEROT,-157.55,A*35"
2020-09-11T10:45:53.184827,"$WIMWV,24.4,R,3.3,N,A*11"
2020-09-11T10:45:53.192248,"$GPHDT,083.6,T*38"
2020-09-11T10:45:53.214568,"$GPRMC,084558,A,5153.7376,N,00428.7024,E,007.2,090.,110920,01.,E*4C"
2020-09-11T10:45:53.235049,"$GPGGA,084558,5153.7376,N,00428.7024,E,2,05,09,+0006,M,+047,M,00,0000*6A"
2020-09-11T10:45:53.244787,"$GPGLL,5153.7376,N,00428.7024,E,084558.00,A*08"
2020-09-11T10:45:53.253784,"$GPVTG,090.5,T,,,007.2,N,013.3,K*25"
2020-09-11T10:45:53.256399,"$GPROT,-0020.7,A*29"
2020-09-11T10:45:53.265266,"$GPDTM,W84,,0,N,0,E,+0,W84*5A"
2020-09-11T10:45:53.275974,"$GPZDA,084551.00,11,09,2020,-02,00*4D"
2020-09-11T10:45:53.336791,"$WIMDA,30.0438,I,1.0174,B,17.1,C,,,,,,,252.9,T,252.0,M,4.2,N,2.2,M*2D"
2020-09-11T10:45:53.392239,"$GPHDT,083.1,T*3F"
2020-09-11T10:45:53.411910,"$GPZDA,084553.10,11,09,2020,00,00*61"
2020-09-11T10:45:53.418575,"$GPRMC,084558,A,5153.7375,N,00428.7030,E,007.2,090.,110920,01.,E*4A"
2020-09-11T10:45:53.446420,"$HEROT,-161.94,A*3D"
2020-09-11T10:45:53.531528,"$YXXDR,C,,C,WCHR,C,,C,WCHT,C,,C,HINX,P,1.0165,B,STNP*48"
2020-09-11T10:45:53.566161,"$HCHDT,56.1,T*1B"
2020-09-11T10:45:53.594577,"$VDVBW,007.41,,A,00.00,00.00,V,,V,00.00,V*74"
2020-09-11T10:45:53.596231,"$GPHDT,082.4,T*3B"
2020-09-11T10:45:53.614573,"$GPRMC,084558,A,5153.7375,N,00428.7037,E,007.2,091.,110920,01.,E*4C"
2020-09-11T10:45:53.644973,"$SDDPT,7.57,0.00,100.0*51"
2020-09-11T10:45:53.649926,"$YXXDR,A,-4.8,D,PTCH,A,5.0,D,ROLL*79"
2020-09-11T10:45:53.657345,"$VDVLW,9469.33,N,5399.36,N*5E"
2020-09-11T10:45:53.700836,"$WIMWV,33.3,R,3.4,N,A*17"
2020-09-11T10:45:53.723493,"$SDDBT,24.83,f,7.57,M,4.13,F*08"
2020-09-11T10:45:53.732475,"$HEROT,-163.71,A*34"
2020-09-11T10:45:53.764171,"$YXMTW,37.0,C*16"
2020-09-11T10:45:53.792228,"$GPHDT,081.8,T*34"
2020-09-11T10:45:53.814579,"$GPRMC,084559,A,5153.7375,N,00428.7043,E,007.2,091.,110920,01.,E*4E"
2020-09-11T10:45:53.992297,"$GPHDT,081.2,T*3E"
2020-09-11T10:45:54.000594,"$GPGGA,084553.70,5153.7385,N,00428.7032,E,2,8,1.3,8.4,M,44.9,M,,*5B"
2020-09-11T10:45:54.014570,"$GPRMC,084559,A,5153.7375,N,00428.7049,E,007.2,091.,110920,01.,E*44"
2020-09-11T10:45:54.016438,"$HEROT,-158.96,A*35"
2020-09-11T10:45:54.046181,"$HCHDT,53.9,T*16"
2020-09-11T10:45:54.132063,"$GPVTG,92.2,T,91.3,M,7.1,N,13.1,K,D*11"
2020-09-11T10:45:54.184944,"$WIMWV,28.2,R,3.6,N,A*1E"
2020-09-11T10:45:54.192259,"$GPHDT,080.6,T*3B"
2020-09-11T10:45:54.214615,"$GPRMC,084559,A,5153.7375,N,00428.7056,E,007.1,091.,110920,01.,E*49"
2020-09-11T10:45:54.235051,"$GPGGA,084559,5153.7375,N,00428.7056,E,2,05,09,+0006,M,+047,M,00,0000*6D"
2020-09-11T10:45:54.244776,"$GPGLL,5153.7375,N,00428.7056,E,084559.00,A*0F"
2020-09-11T10:45:54.253819,"$GPVTG,091.9,T,,,007.1,N,013.2,K*2A"
2020-09-11T10:45:54.256450,"$GPROT,-0035.8,A*22"
2020-09-11T10:45:54.265341,"$GPDTM,W84,,0,N,0,E,+0,W84*5A"
2020-09-11T10:45:54.276042,"$GPZDA,084552.00,11,09,2020,-02,00*4E"
2020-09-11T10:45:54.302554,"$HEROT,-151.25,A*34"
2020-09-11T10:45:54.336777,"$WIMDA,30.0468,I,1.0175,B,17.1,C,,,,,,,247.6,T,246.7,M,4.2,N,2.2,M*20"
2020-09-11T10:45:54.392258,"$GPHDT,080.1,T*3C"
2020-09-11T10:45:54.411910,"$GPZDA,084554.10,11,09,2020,00,00*66"
2020-09-11T10:45:54.418599,"$GPRMC,084559,A,5153.7375,N,00428.7061,E,007.1,092.,110920,01.,E*4E"
2020-09-11T10:45:54.454602,"$VDVBW,007.41,,A,00.00,00.00,V,,V,00.00,V*74"
2020-09-11T10:45:54.517340,"$VDVLW,9469.34,N,5399.37,N*58"
2020-09-11T10:45:54.531563,"$YXXDR,C,,C,WCHR,C,,C,WCHT,C,,C,HINX,P,1.0165,B,STNP*48"
2020-09-11T10:45:54.566166,"$HCHDT,52.1,T*1F"
2020-09-11T10:45:54.588470,"$HEROT,-141.60,A*34"
2020-09-11T10:45:54.592338,"$GPHDT,079.5,T*3E"
2020-09-11T10:45:54.614606,"$GPRMC,084559,A,5153.7376,N,00428.7068,E,007.1,091.,110920,01.,E*47"
2020-09-11T10:45:54.647927,"$YXXDR,A,-4.8,D,PTCH,A,5.4,D,ROLL*7D"
2020-09-11T10:45:54.650981,"$SDDPT,7.62,0.00,100.0*57"
2020-09-11T10:45:54.700921,"$WIMWV,22.4,R,3.8,N,A*1C"
2020-09-11T10:45:54.725523,"$SDDBT,25.00,f,7.62,M,4.16,F*01"
2020-09-11T10:45:54.766263,"$YXMTW,37.0,C*16"
2020-09-11T10:45:54.792359,"$GPHDT,079.0,T*3B"
2020-09-11T10:45:54.814607,"$GPRMC,084600,A,5153.7378,N,00428.7075,E,007.1,091.,110920,01.,E*4A"
2020-09-11T10:45:54.874494,"$HEROT,-128.83,A*36"
2020-09-11T10:45:54.992370,"$GPHDT,078.6,T*3C"
2020-09-11T10:45:55.000607,"$GPGGA,084554.70,5153.7384,N,00428.7065,E,2,8,1.3,8.8,M,44.9,M,,*53"
2020-09-11T10:45:55.014633,"$GPRMC,084600,A,5153.7378,N,00428.7082,E,007.1,091.,110920,01.,E*42"
2020-09-11T10:45:55.046196,"$HCHDT,51.0,T*1D"
2020-09-11T10:45:55.132098,"$GPVTG,89.9,T,89.0,M,7.1,N,13.1,K,D*1A"
2020-09-11T10:45:55.160473,"$HEROT,-117.08,A*39"
2020-09-11T10:45:55.184889,"$WIMWV,14.6,R,3.5,N,A*16"
2020-09-11T10:45:55.192360,"$GPHDT,078.1,T*3B"
2020-09-11T10:45:55.214632,"$GPRMC,084600,A,5153.7378,N,00428.7088,E,007.1,091.,110920,01.,E*48"
2020-09-11T10:45:55.235051,"$GPGGA,084600,5153.7378,N,00428.7088,E,2,05,10,+0006,M,+047,M,00,0000*64"
2020-09-11T10:45:55.244795,"$GPGLL,5153.7378,N,00428.7088,E,084600.00,A*0E"
2020-09-11T10:45:55.253853,"$GPVTG,091.6,T,,,007.1,N,013.2,K*25"
2020-09-11T10:45:55.256530,"$GPROT,-0046.3,A*2D"
2020-09-11T10:45:55.265328,"$GPDTM,W84,,0,N,0,E,+0,W84*5A"
2020-09-11T10:45:55.276028,"$GPZDA,084553.00,11,09,2020,-02,00*4F"
2020-09-11T10:45:55.336820,"$WIMDA,30.0468,I,1.0175,B,17.1,C,,,,,,,256.1,T,255.2,M,3.8,N,2.0,M*2F"
2020-09-11T10:45:55.392364,"$GPHDT,077.8,T*3D"
2020-09-11T10:45:55.411953,"$GPZDA,084555.10,11,09,2020,00,00*67"
2020-09-11T10:45:55.418620,"$GPRMC,084600,A,5153.7379,N,00428.7094,E,007.1,091.,110920,01.,E*44"
2020-09-11T10:45:55.446495,"$HEROT,-100.50,A*32"
2020-09-11T10:45:55.476650,"$VDVBW,007.41,,A,00.00,00.00,V,,V,00.00,V*74"
2020-09-11T10:45:55.531599,"$YXXDR,C,,C,WCHR,C,,C,WCHT,C,,C,HINX,P,1.0165,B,STNP*48"
2020-09-11T10:45:55.539371,"$VDVLW,9469.34,N,5399.37,N*58"
2020-09-11T10:45:55.566193,"$HCHDT,50.3,T*1F"
2020-09-11T10:45:55.592320,"$GPHDT,077.5,T*30"
2020-09-11T10:45:55.614635,"$GPRMC,084600,A,5153.7380,N,00428.7100,E,007.1,090.,110920,01.,E*4F"
2020-09-11T10:45:55.643013,"$SDDPT,7.63,0.00,100.0*56"
2020-09-11T10:45:55.648004,"$YXXDR,A,-6.0,D,PTCH,A,5.9,D,ROLL*7A"
2020-09-11T10:45:55.700915,"$WIMWV,10.6,R,3.8,N,A*1F"
2020-09-11T10:45:55.721539,"$SDDBT,25.03,f,7.63,M,4.17,F*02"
2020-09-11T10:45:55.730396,"$HEROT,-82.09,A*05"
2020-09-11T10:45:55.762352,"$YXMTW,37.0,C*16"
2020-09-11T10:45:55.792355,"$GPHDT,077.1,T*34"
2020-09-11T10:45:55.814646,"$GPRMC,084601,A,5153.7381,N,00428.7106,E,007.1,089.,110920,01.,E*41"
2020-09-11T10:45:55.992317,"$GPHDT,076.9,T*3D"
2020-09-11T10:45:56.000649,"$GPGGA,084555.70,5153.7387,N,00428.7091,E,2,9,1.3,8.9,M,44.9,M,,*5A"
2020-09-11T10:45:56.014637,"$GPRMC,084601,A,5153.7382,N,00428.7112,E,007.1,089.,110920,01.,E*47"
2020-09-11T10:45:56.016413,"$HEROT,-64.47,A*07"
2020-09-11T10:45:56.046261,"$HCHDT,50.0,T*1C"
2020-09-11T10:45:56.132128,"$GPVTG,86.6,T,85.7,M,7.0,N,12.9,K,D*19"
2020-09-11T10:45:56.182906,"$WIMWV,8.4,R,4.3,N,A*28"
2020-09-11T10:45:56.192309,"$GPHDT,076.7,T*33"
2020-09-11T10:45:56.214670,"$GPRMC,084601,A,5153.7383,N,00428.7118,E,007.1,089.,110920,01.,E*4C"
2020-09-11T10:45:56.235123,"$GPGGA,084601,5153.7383,N,00428.7118,E,2,05,10,+0006,M,+047,M,00,0000*69"
2020-09-11T10:45:56.244836,"$GPGLL,5153.7383,N,00428.7118,E,084601.00,A*03"
2020-09-11T10:45:56.253865,"$GPVTG,089.5,T,,,007.1,N,013.1,K*2C"
2020-09-11T10:45:56.256481,"$GPROT,-0050.1,A*28"
2020-09-11T10:45:56.265357,"$GPDTM,W84,,0,N,0,E,+0,W84*5A"
2020-09-11T10:45:56.276044,"$GPZDA,084554.00,11,09,2020,-02,00*48"
2020-09-11T10:45:56.300419,"$HEROT,-46.08,A*0C"
2020-09-11T10:45:56.334874,"$WIMDA,30.0468,I,1.0175,B,17.1,C,,,,,,,253.9,T,253.0,M,2.8,N,1.4,M*20"
2020-09-11T10:45:56.392467,"$GPHDT,076.5,T*31"
2020-09-11T10:45:56.410065,"$GPZDA,084556.10,11,09,2020,00,00*64"
2020-09-11T10:45:56.416643,"$GPRMC,084601,A,5153.7383,N,00428.7124,E,007.0,089.,110920,01.,E*42"
2020-09-11T10:45:56.478670,"$VDVBW,007.41,,A,00.00,00.00,V,,V,00.00,V*74"
2020-09-11T10:45:56.529636,"$YXXDR,C,,C,WCHR,C,,C,WCHT,C,,C,HINX,P,1.0165,B,STNP*48"
2020-09-11T10:45:56.541387,"$VDVLW,9469.34,N,5399.37,N*58"
2020-09-11T10:45:56.564306,"$HCHDT,50.1,T*1D"
2020-09-11T10:45:56.586423,"$HEROT,-27.80,A*0B"
2020-09-11T10:45:56.592305,"$GPHDT,076.4,T*30"
2020-09-11T10:45:56.614677,"$GPRMC,084601,A,5153.7384,N,00428.7130,E,007.0,087.,110920,01.,E*4E"
2020-09-11T10:45:56.645996,"$YXXDR,A,-5.2,D,PTCH,A,3.9,D,ROLL*7D"
2020-09-11T10:45:56.649041,"$SDDPT,7.71,0.00,100.0*55"
2020-09-11T10:45:56.696844,"$WIMWV,5.9,R,4.3,N,A*28"
2020-09-11T10:45:56.723568,"$SDDBT,25.29,f,7.71,M,4.21,F*0C"
2020-09-11T10:45:56.764302,"$YXMTW,37.0,C*16"
2020-09-11T10:45:56.792341,"$GPHDT,076.3,T*37"
2020-09-11T10:45:56.814652,"$GPRMC,084602,A,5153.7386,N,00428.7135,E,007.0,087.,110920,01.,E*4A"
2020-09-11T10:45:56.872424,"$HEROT,-12.46,A*07"
2020-09-11T10:45:56.992352,"$GPHDT,076.3,T*37"
2020-09-11T10:45:57.000667,"$GPGGA,084556.70,5153.7389,N,00428.7120,E,2,9,1.3,8.8,M,44.9,M,,*5D"
2020-09-11T10:45:57.014663,"$GPRMC,084602,A,5153.7387,N,00428.7141,E,007.0,086.,110920,01.,E*49"
2020-09-11T10:45:57.046324,"$HCHDT,50.4,T*18"
2020-09-11T10:45:57.132178,"$GPVTG,84.3,T,83.4,M,6.9,N,12.7,K,D*1D"
2020-09-11T10:45:57.154296,"$HEROT,2.26,A*1D"
2020-09-11T10:45:57.182860,"$WIMWV,8.1,R,4.4,N,A*2A"
2020-09-11T10:45:57.192366,"$GPHDT,076.3,T*37"
2020-09-11T10:45:57.214737,"$GPRMC,084602,A,5153.7388,N,00428.7147,E,007.0,086.,110920,01.,E*40"
2020-09-11T10:45:57.235118,"$GPGGA,084602,5153.7388,N,00428.7147,E,2,05,10,+0006,M,+047,M,00,0000*6B"
2020-09-11T10:45:57.244857,"$GPGLL,5153.7388,N,00428.7147,E,084602.00,A*01"
2020-09-11T10:45:57.253900,"$GPVTG,086.5,T,,,007.0,N,012.9,K*2B"
2020-09-11T10:45:57.256529,"$GPROT,-0047.6,A*29"
2020-09-11T10:45:57.265386,"$GPDTM,W84,,0,N,0,E,+0,W84*5A"
2020-09-11T10:45:57.276073,"$GPZDA,084555.00,11,09,2020,-02,00*49"
2020-09-11T10:45:57.332881,"$WIMDA,30.0468,I,1.0175,B,17.1,C,,,,,,,250.7,T,249.8,M,2.6,N,1.3,M*27"
2020-09-11T10:45:57.392343,"$GPHDT,076.3,T*37"
2020-09-11T10:45:57.410053,"$GPZDA,084557.10,11,09,2020,00,00*65"
2020-09-11T10:45:57.416682,"$GPRMC,084602,A,5153.7388,N,00428.7153,E,007.0,086.,110920,01.,E*45"
2020-09-11T10:45:57.442365,"$HEROT,15.10,A*2E"
2020-09-11T10:45:57.484700,"$VDVBW,007.41,,A,00.00,00.00,V,,V,00.00,V*74"
2020-09-11T10:45:57.529661,"$YXXDR,C,,C,WCHR,C,,C,WCHT,C,,C,HINX,P,1.0165,B,STNP*48"
2020-09-11T10:45:57.547485,"$VDVLW,9469.34,N,5399.37,N*58"
2020-09-11T10:45:57.564290,"$HCHDT,51.0,T*1D"
2020-09-11T10:45:57.592356,"$GPHDT,076.4,T*30"
2020-09-11T10:45:57.614697,"$GPRMC,084602,A,5153.7389,N,00428.7158,E,006.9,084.,110920,01.,E*45"
2020-09-11T10:45:57.644017,"$YXXDR,A,-5.2,D,PTCH,A,3.9,D,ROLL*7D"
2020-09-11T10:45:57.647045,"$SDDPT,7.57,0.00,100.0*51"
2020-09-11T10:45:57.694873,"$WIMWV,4.9,R,4.7,N,A*2D"
2020-09-11T10:45:57.725581,"$SDDBT,24.83,f,7.57,M,4.13,F*08"
2020-09-11T10:45:57.728361,"$HEROT,24.80,A*25"
2020-09-11T10:45:57.768285,"$YXMTW,37.0,C*16"
2020-09-11T10:45:57.792357,"$GPHDT,076.4,T*30"
2020-09-11T10:45:57.814697,"$GPRMC,084603,A,5153.7391,N,00428.7164,E,006.9,084.,110920,01.,E*42"
2020-09-11T10:45:57.992405,"$GPHDT,076.5,T*31"
2020-09-11T10:45:58.000709,"$GPGGA,084557.70,5153.7392,N,00428.7146,E,2,9,1.3,8.4,M,44.9,M,,*5A"
2020-09-11T10:45:58.014719,"$GPRMC,084603,A,5153.7391,N,00428.7170,E,006.9,083.,110920,01.,E*40"
2020-09-11T10:45:58.016355,"$HEROT,28.76,A*20"
2020-09-11T10:45:58.046325,"$HCHDT,51.7,T*1A"
2020-09-11T10:45:58.132187,"$GPVTG,82.0,T,81.1,M,6.7,N,12.5,K,D*13"
2020-09-11T10:45:58.182958,"$WIMWV,3.4,R,4.8,N,A*28"
2020-09-11T10:45:58.192386,"$GPHDT,076.6,T*32"
2020-09-11T10:45:58.214707,"$GPRMC,084603,A,5153.7392,N,00428.7176,E,006.9,083.,110920,01.,E*45"
2020-09-11T10:45:58.235196,"$GPGGA,084603,5153.7392,N,00428.7176,E,2,05,10,+0006,M,+047,M,00,0000*63"
2020-09-11T10:45:58.244900,"$GPGLL,5153.7392,N,00428.7176,E,084603.00,A*09"
2020-09-11T10:45:58.253933,"$GPVTG,083.7,T,,,006.9,N,012.8,K*25"
2020-09-11T10:45:58.256551,"$GPROT,-0041.4,A*2D"
2020-09-11T10:45:58.265422,"$GPDTM,W84,,0,N,0,E,+0,W84*5A"
2020-09-11T10:45:58.276107,"$GPZDA,084556.00,11,09,2020,-02,00*4A"
2020-09-11T10:45:58.300381,"$HEROT,30.02,A*2A"
2020-09-11T10:45:58.332884,"$WIMDA,30.0438,I,1.0174,B,17.0,C,,,,,,,253.9,T,253.0,M,1.8,N,0.9,M*2A"
2020-09-11T10:45:58.392418,"$GPHDT,076.7,T*33"
2020-09-11T10:45:58.410064,"$GPZDA,084558.10,11,09,2020,00,00*6A"
2020-09-11T10:45:58.416769,"$GPRMC,084603,A,5153.7393,N,00428.7182,E,006.9,083.,110920,01.,E*4F"
2020-09-11T10:45:58.484737,"$VDVBW,007.41,,A,00.00,00.00,V,,V,00.00,V*74"
2020-09-11T10:45:58.529676,"$YXXDR,C,,C,WCHR,C,,C,WCHT,C,,C,HINX,P,1.0165,B,STNP*48"
2020-09-11T10:45:58.547420,"$VDVLW,9469.34,N,5399.37,N*58"
2020-09-11T10:45:58.564286,"$HCHDT,52.5,T*1B"
2020-09-11T10:45:58.586438,"$HEROT,28.45,A*20"
2020-09-11T10:45:58.592420,"$GPHDT,076.8,T*3C"
2020-09-11T10:45:58.614704,"$GPRMC,084603,A,5153.7394,N,00428.7187,E,006.9,082.,110920,01.,E*4C"
2020-09-11T10:45:58.644052,"$YXXDR,A,-4.1,D,PTCH,A,2.2,D,ROLL*75"
2020-09-11T10:45:58.647074,"$SDDPT,7.71,0.00,100.0*55"
2020-09-11T10:45:58.699112,"$WIMWV,359.4,R,4.8,N,A*24"
2020-09-11T10:45:58.721601,"$SDDBT,25.29,f,7.71,M,4.21,F*0C"
2020-09-11T10:45:58.762311,"$YXMTW,37.0,C*16"
2020-09-11T10:45:58.792408,"$GPHDT,076.8,T*3C"
2020-09-11T10:45:58.814711,"$GPRMC,084604,A,5153.7395,N,00428.7193,E,006.9,081.,110920,01.,E*4C"
2020-09-11T10:45:58.870383,"$HEROT,24.21,A*2E"
2020-09-11T10:45:58.992401,"$GPHDT,076.9,T*3D"
2020-09-11T10:45:59.000723,"$GPGGA,084558.70,5153.7398,N,00428.7174,E,2,9,1.3,7.8,M,44.9,M,,*5D"
2020-09-11T10:45:59.014719,"$GPRMC,084604,A,5153.7396,N,00428.7199,E,006.9,081.,110920,01.,E*45"
2020-09-11T10:45:59.046304,"$HCHDT,53.5,T*1A"
2020-09-11T10:45:59.130287,"$GPVTG,79.3,T,78.4,M,6.7,N,12.5,K,D*17"
2020-09-11T10:45:59.156407,"$HEROT,18.92,A*29"
2020-09-11T10:45:59.180903,"$WIMWV,2.4,R,4.8,N,A*29"
2020-09-11T10:45:59.206374,"$GPHDT,076.9,T*3D"
2020-09-11T10:45:59.228740,"$GPRMC,084604,A,5153.7397,N,00428.7205,E,006.9,081.,110920,01.,E*42"
2020-09-11T10:45:59.249157,"$GPGGA,084604,5153.7397,N,00428.7205,E,2,05,10,+0006,M,+047,M,00,0000*66"
2020-09-11T10:45:59.258905,"$GPGLL,5153.7397,N,00428.7205,E,084604.00,A*0C"
2020-09-11T10:45:59.267953,"$GPVTG,081.3,T,,,006.9,N,012.7,K*2C"
2020-09-11T10:45:59.272574,"$GPROT,-0035.8,A*22"
2020-09-11T10:45:59.281472,"$GPDTM,W84,,0,N,0,E,+0,W84*5A"
2020-09-11T10:45:59.292141,"$GPZDA,084557.00,11,09,2020,-02,00*4B"
2020-09-11T10:45:59.332905,"$WIMDA,30.0468,I,1.0175,B,17.0,C,,,,,,,253.7,T,252.8,M,2.0,N,1.0,M*2A"
2020-09-11T10:45:59.406402,"$GPHDT,077.0,T*35"
2020-09-11T10:45:59.412052,"$GPZDA,084559.10,11,09,2020,00,00*6B"
2020-09-11T10:45:59.428773,"$GPRMC,084604,A,5153.7398,N,00428.7211,E,006.9,081.,110920,01.,E*48"
2020-09-11T10:45:59.442421,"$HEROT,12.10,A*29"
2020-09-11T10:45:59.529708,"$YXXDR,C,,C,WCHR,C,,C,WCHT,C,,C,HINX,P,1.0166,B,STNP*4B"
2020-09-11T10:45:59.564302,"$HCHDT,54.2,T*1A"
2020-09-11T10:45:59.606394,"$GPHDT,077.0,T*35"
2020-09-11T10:45:59.626746,"$VDVBW,007.41,,A,00.00,00.00,V,,V,00.00,V*74"
2020-09-11T10:45:59.632753,"$GPRMC,084604,A,5153.7400,N,00428.7216,E,006.8,079.,110920,01.,E*4F"
2020-09-11T10:45:59.644067,"$YXXDR,A,-5.4,D,PTCH,A,0.7,D,ROLL*76"
2020-09-11T10:45:59.647107,"$SDDPT,7.78,0.00,100.0*5C"
2020-09-11T10:45:59.689444,"$VDVLW,9469.35,N,5399.38,N*56"
2020-09-11T10:45:59.695002,"$WIMWV,4.9,R,4.6,N,A*2C"
2020-09-11T10:45:59.725631,"$SDDBT,25.52,f,7.78,M,4.25,F*0D"
2020-09-11T10:45:59.728340,"$HEROT,6.09,A*14"
2020-09-11T10:45:59.766322,"$YXMTW,37.1,C*17"
2020-09-11T10:45:59.806403,"$GPHDT,076.9,T*3D"
2020-09-11T10:45:59.828737,"$GPRMC,084605,A,5153.7401,N,00428.7223,E,006.8,079.,110920,01.,E*49"
2020-09-11T10:46:00.002813,"$GPGGA,084559.70,5153.7402,N,00428.7202,E,2,8,1.3,7.4,M,44.9,M,,*57"
2020-09-11T10:46:00.006439,"$GPHDT,076.9,T*3D"
2020-09-11T10:46:00.012380,"$HEROT,2.10,A*18"
2020-09-11T10:46:00.028764,"$GPRMC,084605,A,5153.7402,N,00428.7228,E,006.8,079.,110920,01.,E*41"
2020-09-11T10:46:00.046317,"$HCHDT,54.7,T*1F"
2020-09-11T10:46:00.132283,"$GPVTG,78.5,T,77.6,M,6.7,N,12.5,K,D*1D"
2020-09-11T10:46:00.182935,"$WIMWV,6.5,R,4.4,N,A*20"
2020-09-11T10:46:00.196428,"$GPHDT,076.9,T*3D"
2020-09-11T10:46:00.218769,"$GPRMC,084605,A,5153.7403,N,00428.7234,E,006.8,079.,110920,01.,E*4D"
2020-09-11T10:46:00.239238,"$GPGGA,084605,5153.7403,N,00428.7234,E,2,05,10,+0006,M,+047,M,00,0000*6F"
2020-09-11T10:46:00.248951,"$GPGLL,5153.7403,N,00428.7234,E,084605.00,A*05"
2020-09-11T10:46:00.257972,"$GPVTG,079.0,T,,,006.8,N,012.7,K*29"
2020-09-11T10:46:00.262626,"$GPROT,-0032.9,A*24"
2020-09-11T10:46:00.271568,"$GPDTM,W84,,0,N,0,E,+0,W84*5A"
2020-09-11T10:46:00.282237,"$GPZDA,084558.00,11,09,2020,-02,00*44"
2020-09-11T10:46:00.298464,"$HEROT,-2.20,A*36"
2020-09-11T10:46:00.332931,"$WIMDA,30.0438,I,1.0174,B,17.0,C,,,,,,,246.4,T,245.5,M,2.3,N,1.2,M*23"
2020-09-11T10:46:00.396862,"$GPHDT,076.8,T*3C"
2020-09-11T10:46:00.410087,"$GPZDA,084600.10,11,09,2020,00,00*64"
2020-09-11T10:46:00.418771,"$GPRMC,084605,A,5153.7404,N,00428.7240,E,006.8,078.,110920,01.,E*48"
2020-09-11T10:46:00.448803,"$VDVBW,007.40,,A,00.00,00.00,V,,V,00.00,V*75"
2020-09-11T10:46:00.511480,"$VDVLW,9469.35,N,5399.38,N*56"
2020-09-11T10:46:00.529796,"$YXXDR,C,,C,WCHR,C,,C,WCHT,C,,C,HINX,P,1.0165,B,STNP*48"
2020-09-11T10:46:00.564378,"$HCHDT,54.6,T*1E"
2020-09-11T10:46:00.584470,"$HEROT,-6.32,A*31"
2020-09-11T10:46:00.596400,"$GPHDT,076.8,T*3C"
2020-09-11T10:46:00.618759,"$GPRMC,084605,A,5153.7404,N,00428.7246,E,006.8,078.,110920,01.,E*4E"
2020-09-11T10:46:00.643139,"$SDDPT,7.84,0.00,100.0*5F"
2020-09-11T10:46:00.648229,"$YXXDR,A,-4.9,D,PTCH,A,-0.2,D,ROLL*52"
2020-09-11T10:46:00.697002,"$WIMWV,8.2,R,4.1,N,A*2C"
2020-09-11T10:46:00.721658,"$SDDBT,25.72,f,7.84,M,4.28,F*01"
2020-09-11T10:46:00.762350,"$YXMTW,37.0,C*16"
2020-09-11T10:46:00.796435,"$GPHDT,076.7,T*33"
2020-09-11T10:46:00.818778,"$GPRMC,084606,A,5153.7404,N,00428.7252,E,006.8,078.,110920,01.,E*48"
2020-09-11T10:46:00.870454,"$HEROT,-9.10,A*3E"
2020-09-11T10:46:01.000783,"$GPGGA,084600.70,5153.7404,N,00428.7235,E,2,8,1.3,8.0,M,44.9,M,,*51"
2020-09-11T10:46:01.002424,"$GPHDT,076.6,T*32"
2020-09-11T10:46:01.018869,"$GPRMC,084606,A,5153.7405,N,00428.7258,E,006.8,077.,110920,01.,E*4C"
2020-09-11T10:46:01.046345,"$HCHDT,54.0,T*18"
2020-09-11T10:46:01.132256,"$GPVTG,79.2,T,78.3,M,6.7,N,12.5,K,D*11"
2020-09-11T10:46:01.158528,"$HEROT,-11.23,A*07"
2020-09-11T10:46:01.182960,"$WIMWV,8.2,R,4.0,N,A*2D"
2020-09-11T10:46:01.192429,"$GPHDT,076.5,T*31"
2020-09-11T10:46:01.214912,"$GPRMC,084606,A,5153.7406,N,00428.7264,E,006.8,077.,110920,01.,E*40"
2020-09-11T10:46:01.235217,"$GPGGA,084606,5153.7406,N,00428.7264,E,2,05,10,+0006,M,+047,M,00,0000*6C"
2020-09-11T10:46:01.244967,"$GPGLL,5153.7406,N,00428.7264,E,084606.00,A*06"
2020-09-11T10:46:01.254007,"$GPVTG,077.8,T,,,006.8,N,012.6,K*2E"
2020-09-11T10:46:01.256619,"$GPROT,-0032.1,A*2C"
2020-09-11T10:46:01.265484,"$GPDTM,W84,,0,N,0,E,+0,W84*5A"
2020-09-11T10:46:01.278225,"$GPZDA,084559.00,11,09,2020,-02,00*45"
2020-09-11T10:46:01.332965,"$WIMDA,30.0438,I,1.0174,B,17.0,C,,,,,,,248.6,T,247.7,M,2.7,N,1.4,M*2D"
2020-09-11T10:46:01.392468,"$GPHDT,076.4,T*30"
2020-09-11T10:46:01.410270,"$GPZDA,084601.10,11,09,2020,00,00*65"
2020-09-11T10:46:01.416779,"$GPRMC,084606,A,5153.7406,N,00428.7270,E,006.8,077.,110920,01.,E*45"
2020-09-11T10:46:01.444546,"$HEROT,-12.67,A*04"
2020-09-11T10:46:01.482879,"$VDVBW,007.40,,A,00.00,00.00,V,,V,00.00,V*75"
2020-09-11T10:46:01.529747,"$YXXDR,C,,C,WCHR,C,,C,WCHT,C,,C,HINX,P,1.0165,B,STNP*48"
2020-09-11T10:46:01.545481,"$VDVLW,9469.35,N,5399.38,N*56"
2020-09-11T10:46:01.564346,"$HCHDT,52.9,T*17"
2020-09-11T10:46:01.592456,"$GPHDT,076.4,T*30"
2020-09-11T10:46:01.614782,"$GPRMC,084606,A,5153.7406,N,00428.7276,E,006.8,078.,110920,01.,E*4C"
2020-09-11T10:46:01.644129,"$YXXDR,A,-4.8,D,PTCH,A,1.2,D,ROLL*7F"
2020-09-11T10:46:01.647211,"$SDDPT,7.87,0.00,100.0*5C"
2020-09-11T10:46:01.694969,"$WIMWV,8.5,R,4.1,N,A*2B"
2020-09-11T10:46:01.723680,"$SDDBT,25.82,f,7.87,M,4.30,F*04"
2020-09-11T10:46:01.730550,"$HEROT,-13.79,A*0A"
2020-09-11T10:46:01.764413,"$YXMTW,37.1,C*17"
2020-09-11T10:46:01.792451,"$GPHDT,076.3,T*37"
2020-09-11T10:46:01.814832,"$GPRMC,084607,A,5153.7406,N,00428.7282,E,006.8,078.,110920,01.,E*46"
2020-09-11T10:46:01.992439,"$GPHDT,076.2,T*36"
2020-09-11T10:46:02.000796,"$GPGGA,084601.70,5153.7406,N,00428.7265,E,2,9,1.3,8.1,M,44.9,M,,*57"
2020-09-11T10:46:02.014814,"$GPRMC,084607,A,5153.7407,N,00428.7288,E,006.8,078.,110920,01.,E*4D"
2020-09-11T10:46:02.016587,"$HEROT,-13.81,A*0D"
2020-09-11T10:46:02.046372,"$HCHDT,51.9,T*14"
2020-09-11T10:46:02.132275,"$GPVTG,80.0,T,79.1,M,6.7,N,12.4,K,D*17"
2020-09-11T10:46:02.183080,"$WIMWV,6.9,R,4.3,N,A*2B"
2020-09-11T10:46:02.192499,"$GPHDT,076.1,T*35"
2020-09-11T10:46:02.214814,"$GPRMC,084607,A,5153.7408,N,00428.7294,E,006.8,078.,110920,01.,E*4F"
2020-09-11T10:46:02.235241,"$GPGGA,084607,5153.7408,N,00428.7294,E,2,05,10,+0006,M,+047,M,00,0000*6C"
2020-09-11T10:46:02.245002,"$GPGLL,5153.7408,N,00428.7294,E,084607.00,A*06"
2020-09-11T10:46:02.254019,"$GPVTG,078.4,T,,,006.8,N,012.6,K*2D"
2020-09-11T10:46:02.256633,"$GPROT,-0031.9,A*27"
2020-09-11T10:46:02.265506,"$GPDTM,W84,,0,N,0,E,+0,W84*5A"
2020-09-11T10:46:02.278211,"$GPZDA,084600.00,11,09,2020,-02,00*4A"
2020-09-11T10:46:02.302551,"$HEROT,-14.64,A*01"
2020-09-11T10:46:02.332987,"$WIMDA,30.0468,I,1.0175,B,17.0,C,,,,,,,247.4,T,246.5,M,2.4,N,1.2,M*22"
2020-09-11T10:46:02.392491,"$GPHDT,076.0,T*34"
2020-09-11T10:46:02.410190,"$GPZDA,084602.10,11,09,2020,00,00*66"
2020-09-11T10:46:02.416810,"$GPRMC,084607,A,5153.7408,N,00428.7300,E,006.8,078.,110920,01.,E*43"
2020-09-11T10:46:02.476807,"$VDVBW,007.40,,A,00.00,00.00,V,,V,00.00,V*75"
2020-09-11T10:46:02.529765,"$YXXDR,C,,C,WCHR,C,,C,WCHT,C,,C,HINX,P,1.0166,B,STNP*4B"
2020-09-11T10:46:02.539506,"$VDVLW,9469.35,N,5399.38,N*56"
2020-09-11T10:46:02.564366,"$HCHDT,50.9,T*15"
2020-09-11T10:46:02.588590,"$HEROT,-13.93,A*0E"
2020-09-11T10:46:02.592452,"$GPHDT,075.9,T*3E"
2020-09-11T10:46:02.614839,"$GPRMC,084607,A,5153.7408,N,00428.7306,E,006.8,078.,110920,01.,E*45"
2020-09-11T10:46:02.644185,"$YXXDR,A,-6.0,D,PTCH,A,3.6,D,ROLL*73"
2020-09-11T10:46:02.647185,"$SDDPT,7.86,0.00,100.0*5D"
2020-09-11T10:46:02.695078,"$WIMWV,5.6,R,4.2,N,A*26"
2020-09-11T10:46:02.725731,"$SDDBT,25.79,f,7.86,M,4.29,F*09"
2020-09-11T10:46:02.766464,"$YXMTW,37.0,C*16"
2020-09-11T10:46:02.792478,"$GPHDT,075.8,T*3F"
2020-09-11T10:46:02.814819,"$GPRMC,084608,A,5153.7409,N,00428.7313,E,006.8,078.,110920,01.,E*4F"
2020-09-11T10:46:02.872685,"$HEROT,-12.68,A*0B"
2020-09-11T10:46:02.992473,"$GPHDT,075.8,T*3F"
2020-09-11T10:46:03.000830,"$GPGGA,084602.70,5153.7408,N,00428.7297,E,2,9,1.3,8.0,M,44.9,M,,*56"
2020-09-11T10:46:03.014838,"$GPRMC,084608,A,5153.7409,N,00428.7319,E,006.8,079.,110920,01.,E*44"
