timestamp,payload
2020-12-09T10:35:24.083550,"$HCHDT,257.1,T*28"
2020-12-09T10:35:24.160255,"$SDDPT,5.94,0.00,100.0*5C"
2020-12-09T10:35:24.165212,"$YXXDR,A,-5.9,D,PTCH,A,1.7,D,ROLL*7A"
2020-12-09T10:35:24.215572,"$HEROT,13.56,A*2A"
2020-12-09T10:35:24.220251,"$WIMWV,322.8,R,6.2,N,A*2C"
2020-12-09T10:35:24.229553,"$GPHDT,219.8,T*37"
2020-12-09T10:35:24.238776,"$SDDBT,19.49,f,5.94,M,3.24,F*0E"
2020-12-09T10:35:24.251924,"$GPRMC,093522,A,5154.8027,N,00429.1965,E,000.1,242.,091220,01.,E*49"
2020-12-09T10:35:24.272331,"$GPGGA,093522,5154.8027,N,00429.1965,E,2,04,02,+0005,M,+047,M,00,0000*6C"
2020-12-09T10:35:24.279502,"$YXMTW,36.8,C*1F"
2020-12-09T10:35:24.286180,"$GPGLL,5154.8027,N,00429.1965,E,093522.00,A*07"
2020-12-09T10:35:24.291119,"$GPVTG,242.4,T,,,000.1,N,000.1,K*2D"
2020-12-09T10:35:24.295751,"$GPROT,-0000.4,A*28"
2020-12-09T10:35:24.304607,"$GPDTM,W84,,0,N,0,E,+0,W84*5A"
2020-12-09T10:35:24.315286,"$GPZDA,093523.00,09,12,2020,-02,00*4D"
2020-12-09T10:35:24.429570,"$GPHDT,219.8,T*37"
2020-12-09T10:35:24.451929,"$GPRMC,093522,A,5154.8027,N,00429.1965,E,000.1,242.,091220,01.,E*49"
2020-12-09T10:35:24.504000,"$GPGGA,093524.09,5154.8024,N,00429.1964,E,2,10,1.0,8.5,M,44.9,M,,*65"
2020-12-09T10:35:24.505672,"$HEROT,13.81,A*20"
2020-12-09T10:35:24.539569,"$HCHDT,256.2,T*2A"
2020-12-09T10:35:24.627514,"$GPVTG,265.2,T,264.7,M,0.0,N,0.0,K,D*22"
2020-12-09T10:35:24.629602,"$GPHDT,219.8,T*37"
2020-12-09T10:35:24.651970,"$GPRMC,093522,A,5154.8028,N,00429.1967,E,000.0,242.,091220,01.,E*45"
2020-12-09T10:35:24.682283,"$WIMWV,313.5,R,5.4,N,A*26"
2020-12-09T10:35:24.727938,"$VDVBW,000.36,,A,00.00,00.00,V,,V,00.00,V*73"
2020-12-09T10:35:24.787595,"$HEROT,14.38,A*25"
2020-12-09T10:35:24.792613,"$VDVLW,9968.24,N,5898.25,N*5C"
2020-12-09T10:35:24.834172,"$WIMDA,29.7928,I,1.0089,B,-0.4,C,,,,,,,209.6,T,209.1,M,5.4,N,2.8,M*30"
2020-12-09T10:35:24.835763,"$GPHDT,219.8,T*37"
2020-12-09T10:35:24.853940,"$GPRMC,093522,A,5154.8028,N,00429.1967,E,000.0,242.,091220,01.,E*45"
2020-12-09T10:35:24.909251,"$GPZDA,093524.59,09,12,2020,00,00*69"
2020-12-09T10:35:25.029617,"$GPHDT,219.8,T*37"
2020-12-09T10:35:25.047601,"$YXXDR,C,-4.9,C,WCHR,C,-4.9,C,WCHT,C,,C,HINX,P,1.0079,B,STNP*44"
2020-12-09T10:35:25.053599,"$GPRMC,093523,A,5154.8028,N,00429.1967,E,000.0,242.,091220,01.,E*44"
2020-12-09T10:35:25.073585,"$HEROT,15.25,A*28"
2020-12-09T10:35:25.083605,"$HCHDT,255.3,T*28"
2020-12-09T10:35:25.156305,"$SDDPT,6.03,0.00,100.0*51"
2020-12-09T10:35:25.163262,"$YXXDR,A,-3.1,D,PTCH,A,1.1,D,ROLL*72"
2020-12-09T10:35:25.218315,"$WIMWV,317.5,R,5.6,N,A*20"
2020-12-09T10:35:25.229656,"$GPHDT,219.8,T*37"
2020-12-09T10:35:25.234903,"$SDDBT,19.78,f,6.03,M,3.29,F*0C"
2020-12-09T10:35:25.251971,"$GPRMC,093523,A,5154.8028,N,00429.1968,E,000.0,242.,091220,01.,E*4B"
2020-12-09T10:35:25.272372,"$GPGGA,093523,5154.8028,N,00429.1968,E,2,04,02,+0005,M,+047,M,00,0000*6F"
2020-12-09T10:35:25.275564,"$YXMTW,36.8,C*1F"
2020-12-09T10:35:25.282149,"$GPGLL,5154.8028,N,00429.1968,E,093523.00,A*04"
2020-12-09T10:35:25.291177,"$GPVTG,242.4,T,,,000.0,N,000.0,K*2D"
2020-12-09T10:35:25.295806,"$GPROT,+0000.1,A*2B"
2020-12-09T10:35:25.304672,"$GPDTM,W84,,0,N,0,E,+0,W84*5A"
2020-12-09T10:35:25.315350,"$GPZDA,093524.00,09,12,2020,-02,00*4A"
2020-12-09T10:35:25.359612,"$HEROT,15.89,A*2E"
2020-12-09T10:35:25.429624,"$GPHDT,219.9,T*36"
2020-12-09T10:35:25.452010,"$GPRMC,093523,A,5154.8028,N,00429.1968,E,000.0,242.,091220,01.,E*4B"
2020-12-09T10:35:25.503976,"$GPGGA,093525.09,5154.8024,N,00429.1964,E,2,9,1.1,8.5,M,44.9,M,,*5D"
2020-12-09T10:35:25.539612,"$HCHDT,255.0,T*2B"
2020-12-09T10:35:25.621394,"$GPVTG,18.6,T,18.1,M,0.0,N,0.0,K,D*21"
2020-12-09T10:35:25.629716,"$GPHDT,219.9,T*36"
2020-12-09T10:35:25.645682,"$HEROT,16.87,A*23"
2020-12-09T10:35:25.653981,"$GPRMC,093523,A,5154.8028,N,00429.1969,E,000.0,242.,091220,01.,E*4A"
2020-12-09T10:35:25.676368,"$WIMWV,319.2,R,7.3,N,A*2E"
2020-12-09T10:35:25.729979,"$VDVBW,000.36,,A,00.00,00.00,V,,V,00.00,V*73"
2020-12-09T10:35:25.794678,"$VDVLW,9968.24,N,5898.25,N*5C"
2020-12-09T10:35:25.828178,"$WIMDA,29.7958,I,1.0090,B,-0.4,C,,,,,,,214.2,T,213.7,M,7.3,N,3.8,M*3E"
2020-12-09T10:35:25.831701,"$GPHDT,219.9,T*36"
2020-12-09T10:35:25.852026,"$GPRMC,093523,A,5154.8028,N,00429.1969,E,000.0,242.,091220,01.,E*4A"
2020-12-09T10:35:25.905293,"$GPZDA,093525.59,09,12,2020,00,00*68"
2020-12-09T10:35:25.931652,"$HEROT,17.94,A*20"
2020-12-09T10:35:26.031676,"$GPHDT,219.9,T*36"
2020-12-09T10:35:26.041685,"$YXXDR,C,-5.9,C,WCHR,C,-5.9,C,WCHT,C,,C,HINX,P,1.0080,B,STNP*42"
2020-12-09T10:35:26.054043,"$GPRMC,093524,A,5154.8028,N,00429.1969,E,000.0,242.,091220,01.,E*4D"
2020-12-09T10:35:26.077722,"$HCHDT,255.2,T*29"
2020-12-09T10:35:26.159317,"$YXXDR,A,-3.4,D,PTCH,A,0.3,D,ROLL*74"
2020-12-09T10:35:26.162376,"$SDDPT,6.00,0.00,100.0*52"
2020-12-09T10:35:26.214345,"$WIMWV,317.2,R,8.0,N,A*2C"
2020-12-09T10:35:26.217683,"$HEROT,18.53,A*24"
2020-12-09T10:35:26.236914,"$SDDBT,19.68,f,6.00,M,3.28,F*0F"
2020-12-09T10:35:26.241740,"$GPHDT,220.0,T*35"
2020-12-09T10:35:26.262051,"$GPRMC,093524,A,5154.8028,N,00429.1968,E,000.1,243.,091220,01.,E*4C"
2020-12-09T10:35:26.277574,"$YXMTW,36.8,C*1F"
2020-12-09T10:35:26.286438,"$GPGGA,093524,5154.8028,N,00429.1968,E,2,04,02,+0005,M,+047,M,00,0000*68"
2020-12-09T10:35:26.292186,"$GPGLL,5154.8028,N,00429.1968,E,093524.00,A*03"
2020-12-09T10:35:26.301224,"$GPVTG,243.2,T,,,000.1,N,000.1,K*2A"
2020-12-09T10:35:26.305951,"$GPROT,+0000.9,A*23"
2020-12-09T10:35:26.314712,"$GPDTM,W84,,0,N,0,E,+0,W84*5A"
2020-12-09T10:35:26.325416,"$GPZDA,093525.00,09,12,2020,-02,00*4B"
2020-12-09T10:35:26.439701,"$GPHDT,220.0,T*35"
2020-12-09T10:35:26.462039,"$GPRMC,093524,A,5154.8028,N,00429.1968,E,000.1,243.,091220,01.,E*4C"
2020-12-09T10:35:26.506130,"$GPGGA,093526.09,5154.8024,N,00429.1964,E,2,10,1.0,8.5,M,44.9,M,,*67"
2020-12-09T10:35:26.507760,"$HEROT,17.75,A*2F"
2020-12-09T10:35:26.541687,"$HCHDT,255.7,T*2C"
2020-12-09T10:35:26.627588,"$GPVTG,177.5,T,177.0,M,0.1,N,0.1,K,D*23"
2020-12-09T10:35:26.639751,"$GPHDT,220.0,T*35"
2020-12-09T10:35:26.662076,"$GPRMC,093524,A,5154.8026,N,00429.1967,E,000.1,244.,091220,01.,E*4A"
2020-12-09T10:35:26.682373,"$WIMWV,315.7,R,8.0,N,A*2B"
2020-12-09T10:35:26.789704,"$HEROT,15.68,A*21"
2020-12-09T10:35:26.834327,"$WIMDA,29.7899,I,1.0088,B,-0.4,C,,,,,,,211.6,T,211.1,M,8.0,N,4.1,M*3C"
2020-12-09T10:35:26.841706,"$GPHDT,220.0,T*35"
2020-12-09T10:35:26.852021,"$VDVBW,000.36,,A,00.00,00.00,V,,V,00.00,V*73"
2020-12-09T10:35:26.864053,"$GPRMC,093524,A,5154.8026,N,00429.1967,E,000.1,244.,091220,01.,E*4A"
2020-12-09T10:35:26.911338,"$GPZDA,093526.59,09,12,2020,00,00*6B"
2020-12-09T10:35:26.914772,"$VDVLW,9968.24,N,5898.25,N*5C"
2020-12-09T10:35:27.039717,"$GPHDT,220.0,T*35"
2020-12-09T10:35:27.047715,"$YXXDR,C,-6.0,C,WCHR,C,-6.0,C,WCHT,C,,C,HINX,P,1.0078,B,STNP*45"
2020-12-09T10:35:27.062061,"$GPRMC,093525,A,5154.8026,N,00429.1967,E,000.1,245.,091220,01.,E*4A"
2020-12-09T10:35:27.075752,"$HEROT,13.17,A*2F"
2020-12-09T10:35:27.083713,"$HCHDT,256.3,T*2B"
2020-12-09T10:35:27.154468,"$SDDPT,5.92,0.00,100.0*5A"
2020-12-09T10:35:27.167454,"$YXXDR,A,-4.4,D,PTCH,A,-0.4,D,ROLL*59"
2020-12-09T10:35:27.222417,"$WIMWV,318.3,R,8.3,N,A*21"
2020-12-09T10:35:27.232921,"$SDDBT,19.42,f,5.92,M,3.23,F*04"
2020-12-09T10:35:27.235724,"$GPHDT,220.0,T*35"
2020-12-09T10:35:27.252063,"$GPRMC,093525,A,5154.8026,N,00429.1967,E,000.1,245.,091220,01.,E*4A"
2020-12-09T10:35:27.272491,"$GPGGA,093525,5154.8026,N,00429.1967,E,2,04,02,+0005,M,+047,M,00,0000*68"
2020-12-09T10:35:27.274063,"$YXMTW,36.8,C*1F"
2020-12-09T10:35:27.282239,"$GPGLL,5154.8026,N,00429.1967,E,093525.00,A*03"
2020-12-09T10:35:27.291292,"$GPVTG,245.3,T,,,000.1,N,000.1,K*2D"
2020-12-09T10:35:27.295921,"$GPROT,+0001.1,A*2A"
2020-12-09T10:35:27.304819,"$GPDTM,W84,,0,N,0,E,+0,W84*5A"
2020-12-09T10:35:27.315493,"$GPZDA,093526.00,09,12,2020,-02,00*48"
2020-12-09T10:35:27.361722,"$HEROT,11.21,A*28"
2020-12-09T10:35:27.431752,"$GPHDT,220.0,T*35"
2020-12-09T10:35:27.452075,"$GPRMC,093525,A,5154.8026,N,00429.1967,E,000.1,245.,091220,01.,E*4A"
2020-12-09T10:35:27.504173,"$GPGGA,093527.09,5154.8024,N,00429.1964,E,2,10,1.0,8.5,M,44.9,M,,*66"
2020-12-09T10:35:27.539730,"$HCHDT,256.7,T*2F"
2020-12-09T10:35:27.627649,"$GPVTG,253.9,T,253.4,M,0.1,N,0.1,K,D*2B"
2020-12-09T10:35:27.631762,"$GPHDT,220.0,T*35"
2020-12-09T10:35:27.643716,"$HEROT,9.96,A*1D"
2020-12-09T10:35:27.652093,"$GPRMC,093525,A,5154.8027,N,00429.1966,E,000.1,245.,091220,01.,E*4A"
2020-12-09T10:35:27.682435,"$WIMWV,317.3,R,8.8,N,A*25"
2020-12-09T10:35:27.736088,"$VDVBW,000.36,,A,00.00,00.00,V,,V,00.00,V*73"
2020-12-09T10:35:27.798789,"$VDVLW,9968.24,N,5898.25,N*5C"
2020-12-09T10:35:27.834313,"$WIMDA,29.7899,I,1.0088,B,-0.4,C,,,,,,,213.7,T,213.2,M,8.7,N,4.5,M*3D"
2020-12-09T10:35:27.835971,"$GPHDT,220.0,T*35"
2020-12-09T10:35:27.852099,"$GPRMC,093525,A,5154.8027,N,00429.1966,E,000.1,245.,091220,01.,E*4A"
2020-12-09T10:35:27.909406,"$GPZDA,093527.59,09,12,2020,00,00*6A"
2020-12-09T10:35:27.929673,"$HEROT,9.52,A*15"
2020-12-09T10:35:28.031813,"$GPHDT,220.0,T*35"
2020-12-09T10:35:28.047760,"$YXXDR,C,-6.4,C,WCHR,C,-6.4,C,WCHT,C,,C,HINX,P,1.0078,B,STNP*45"
2020-12-09T10:35:28.053752,"$GPRMC,093526,A,5154.8027,N,00429.1965,E,000.1,245.,091220,01.,E*4A"
2020-12-09T10:35:28.083776,"$HCHDT,256.9,T*21"
2020-12-09T10:35:28.156479,"$SDDPT,5.94,0.00,100.0*5C"
2020-12-09T10:35:28.163474,"$YXXDR,A,-4.9,D,PTCH,A,1.3,D,ROLL*7F"
2020-12-09T10:35:28.215721,"$HEROT,9.64,A*10"
2020-12-09T10:35:28.220467,"$WIMWV,319.4,R,9.5,N,A*20"
2020-12-09T10:35:28.231810,"$GPHDT,220.0,T*35"
2020-12-09T10:35:28.237008,"$SDDBT,19.49,f,5.94,M,3.24,F*0E"
2020-12-09T10:35:28.254153,"$GPRMC,093526,A,5154.8027,N,00429.1965,E,000.1,204.,091220,01.,E*4F"
2020-12-09T10:35:28.272552,"$GPGGA,093526,5154.8027,N,00429.1965,E,2,04,02,+0005,M,+047,M,00,0000*68"
2020-12-09T10:35:28.275735,"$YXMTW,36.9,C*1E"
2020-12-09T10:35:28.282310,"$GPGLL,5154.8027,N,00429.1965,E,093526.00,A*03"
2020-12-09T10:35:28.291343,"$GPVTG,204.8,T,,,000.1,N,000.1,K*23"
2020-12-09T10:35:28.296007,"$GPROT,+0000.6,A*2C"
2020-12-09T10:35:28.304826,"$GPDTM,W84,,0,N,0,E,+0,W84*5A"
2020-12-09T10:35:28.315509,"$GPZDA,093527.00,09,12,2020,-02,00*49"
2020-12-09T10:35:28.431843,"$GPHDT,220.0,T*35"
2020-12-09T10:35:28.452146,"$GPRMC,093526,A,5154.8027,N,00429.1965,E,000.1,204.,091220,01.,E*4F"
2020-12-09T10:35:28.506241,"$GPGGA,093528.09,5154.8024,N,00429.1965,E,2,10,1.0,8.5,M,44.9,M,,*68"
2020-12-09T10:35:28.507937,"$HEROT,11.14,A*2E"
2020-12-09T10:35:28.539799,"$HCHDT,256.7,T*2F"
2020-12-09T10:35:28.627716,"$GPVTG,281.8,T,281.3,M,0.1,N,0.1,K,D*2D"
2020-12-09T10:35:28.631799,"$GPHDT,220.0,T*35"
2020-12-09T10:35:28.652151,"$GPRMC,093526,A,5154.8028,N,00429.1965,E,000.1,248.,091220,01.,E*48"
2020-12-09T10:35:28.682501,"$WIMWV,319.2,R,9.6,N,A*25"
2020-12-09T10:35:28.730181,"$VDVBW,000.36,,A,00.00,00.00,V,,V,00.00,V*73"
2020-12-09T10:35:28.789817,"$HEROT,14.27,A*2B"
2020-12-09T10:35:28.794833,"$VDVLW,9968.24,N,5898.25,N*5C"
2020-12-09T10:35:28.834325,"$WIMDA,29.7958,I,1.0090,B,-0.4,C,,,,,,,215.3,T,214.8,M,9.5,N,4.9,M*38"
2020-12-09T10:35:28.835989,"$GPHDT,220.0,T*35"
2020-12-09T10:35:28.852151,"$GPRMC,093526,A,5154.8028,N,00429.1965,E,000.0,248.,091220,01.,E*49"
2020-12-09T10:35:28.909469,"$GPZDA,093528.59,09,12,2020,00,00*65"
2020-12-09T10:35:29.031826,"$GPHDT,220.0,T*35"
2020-12-09T10:35:29.047827,"$YXXDR,C,-6.5,C,WCHR,C,-6.5,C,WCHT,C,,C,HINX,P,1.0080,B,STNP*42"
2020-12-09T10:35:29.053814,"$GPRMC,093527,A,5154.8028,N,00429.1965,E,000.0,248.,091220,01.,E*48"
2020-12-09T10:35:29.075806,"$HEROT,18.37,A*26"
2020-12-09T10:35:29.083812,"$HCHDT,256.2,T*2A"
2020-12-09T10:35:29.158512,"$SDDPT,5.98,0.00,100.0*50"
2020-12-09T10:35:29.163511,"$YXXDR,A,-4.0,D,PTCH,A,1.5,D,ROLL*70"
2020-12-09T10:35:29.218563,"$WIMWV,316.8,R,9.1,N,A*27"
2020-12-09T10:35:29.231860,"$GPHDT,220.1,T*34"
2020-12-09T10:35:29.237049,"$SDDBT,19.62,f,5.98,M,3.27,F*08"
2020-12-09T10:35:29.254185,"$GPRMC,093527,A,5154.8028,N,00429.1966,E,000.0,248.,091220,01.,E*4B"
2020-12-09T10:35:29.272659,"$GPGGA,093527,5154.8028,N,00429.1966,E,2,04,02,+0005,M,+047,M,00,0000*65"
2020-12-09T10:35:29.277802,"$YXMTW,36.9,C*1E"
2020-12-09T10:35:29.284374,"$GPGLL,5154.8028,N,00429.1966,E,093527.00,A*0E"
2020-12-09T10:35:29.291390,"$GPVTG,248.2,T,,,000.0,N,000.1,K*20"
2020-12-09T10:35:29.296076,"$GPROT,+0001.0,A*2B"
2020-12-09T10:35:29.304988,"$GPDTM,W84,,0,N,0,E,+0,W84*5A"
2020-12-09T10:35:29.315583,"$GPZDA,093528.00,09,12,2020,-02,00*46"
2020-12-09T10:35:29.361845,"$HEROT,21.26,A*2C"
2020-12-09T10:35:29.431909,"$GPHDT,220.1,T*34"
2020-12-09T10:35:29.452222,"$GPRMC,093527,A,5154.8028,N,00429.1966,E,000.0,248.,091220,01.,E*4B"
2020-12-09T10:35:29.506279,"$GPGGA,093529.09,5154.8024,N,00429.1965,E,2,10,1.0,8.4,M,44.9,M,,*68"
2020-12-09T10:35:29.541850,"$HCHDT,255.9,T*22"
2020-12-09T10:35:29.627794,"$GPVTG,330.8,T,330.3,M,0.0,N,0.0,K,D*2D"
2020-12-09T10:35:29.631912,"$GPHDT,220.2,T*37"
2020-12-09T10:35:29.646021,"$HEROT,22.17,A*2D"
2020-12-09T10:35:29.654247,"$GPRMC,093527,A,5154.8028,N,00429.1967,E,000.0,248.,091220,01.,E*4A"
2020-12-09T10:35:29.682537,"$WIMWV,313.4,R,9.8,N,A*27"
2020-12-09T10:35:29.730188,"$VDVBW,000.36,,A,00.00,00.00,V,,V,00.00,V*73"
2020-12-09T10:35:29.792953,"$VDVLW,9968.24,N,5898.25,N*5C"
2020-12-09T10:35:29.834381,"$WIMDA,29.7928,I,1.0089,B,-0.4,C,,,,,,,209.3,T,208.8,M,9.8,N,5.0,M*32"
2020-12-09T10:35:29.836022,"$GPHDT,220.2,T*37"
2020-12-09T10:35:29.852224,"$GPRMC,093527,A,5154.8028,N,00429.1967,E,000.0,248.,091220,01.,E*4A"
2020-12-09T10:35:29.911557,"$GPZDA,093529.59,09,12,2020,00,00*64"
2020-12-09T10:35:29.931990,"$HEROT,20.86,A*27"
2020-12-09T10:35:30.031958,"$GPHDT,220.2,T*37"
2020-12-09T10:35:30.047958,"$YXXDR,C,-6.7,C,WCHR,C,-6.7,C,WCHT,C,,C,HINX,P,1.0079,B,STNP*44"
2020-12-09T10:35:30.053905,"$GPRMC,093528,A,5154.8028,N,00429.1967,E,000.0,248.,091220,01.,E*45"
2020-12-09T10:35:30.083985,"$HCHDT,255.9,T*22"
2020-12-09T10:35:30.154606,"$SDDPT,5.98,0.00,100.0*50"
2020-12-09T10:35:30.165543,"$YXXDR,A,-3.2,D,PTCH,A,1.2,D,ROLL*72"
2020-12-09T10:35:30.217936,"$HEROT,17.47,A*2E"
2020-12-09T10:35:30.222668,"$WIMWV,317.5,R,10.2,N,A*10"
2020-12-09T10:35:30.233081,"$SDDBT,19.62,f,5.98,M,3.27,F*08"
2020-12-09T10:35:30.235960,"$GPHDT,220.3,T*36"
2020-12-09T10:35:30.254252,"$GPRMC,093528,A,5154.8028,N,00429.1967,E,000.0,246.,091220,01.,E*4B"
2020-12-09T10:35:30.272655,"$GPGGA,093528,5154.8028,N,00429.1967,E,2,04,02,+0005,M,+047,M,00,0000*6B"
2020-12-09T10:35:30.274230,"$YXMTW,36.9,C*1E"
2020-12-09T10:35:30.282442,"$GPGLL,5154.8028,N,00429.1967,E,093528.00,A*00"
2020-12-09T10:35:30.291492,"$GPVTG,246.0,T,,,000.0,N,000.1,K*2C"
2020-12-09T10:35:30.296111,"$GPROT,+0002.0,A*28"
2020-12-09T10:35:30.304959,"$GPDTM,W84,,0,N,0,E,+0,W84*5A"
2020-12-09T10:35:30.315628,"$GPZDA,093529.00,09,12,2020,-02,00*47"
2020-12-09T10:35:30.432001,"$GPHDT,220.3,T*36"
2020-12-09T10:35:30.454292,"$GPRMC,093528,A,5154.8028,N,00429.1967,E,000.0,246.,091220,01.,E*4B"
2020-12-09T10:35:30.504333,"$GPGGA,093530.09,5154.8024,N,00429.1965,E,2,10,1.0,8.4,M,44.9,M,,*60"
2020-12-09T10:35:30.506003,"$HEROT,13.22,A*29"
2020-12-09T10:35:30.539964,"$HCHDT,256.2,T*2A"
2020-12-09T10:35:30.627838,"$GPVTG,201.5,T,201.0,M,0.1,N,0.1,K,D*23"
2020-12-09T10:35:30.631964,"$GPHDT,220.3,T*36"
2020-12-09T10:35:30.652267,"$GPRMC,093528,A,5154.8027,N,00429.1967,E,000.1,242.,091220,01.,E*41"
2020-12-09T10:35:30.684687,"$WIMWV,317.4,R,10.0,N,A*13"
2020-12-09T10:35:30.730280,"$VDVBW,000.35,,A,00.00,00.00,V,,V,00.00,V*70"
2020-12-09T10:35:30.787875,"$HEROT,9.79,A*1C"
2020-12-09T10:35:30.792965,"$VDVLW,9968.24,N,5898.25,N*5C"
2020-12-09T10:35:30.836453,"$WIMDA,29.7899,I,1.0088,B,-0.4,C,,,,,,,213.8,T,213.3,M,9.9,N,5.1,M*39"
2020-12-09T10:35:30.838129,"$GPHDT,220.3,T*36"
2020-12-09T10:35:30.852269,"$GPRMC,093528,A,5154.8026,N,00429.1967,E,000.1,241.,091220,01.,E*43"
2020-12-09T10:35:30.911630,"$GPZDA,093530.59,09,12,2020,00,00*6C"
2020-12-09T10:35:31.032002,"$GPHDT,220.3,T*36"
2020-12-09T10:35:31.050079,"$YXXDR,C,-6.6,C,WCHR,C,-6.5,C,WCHT,C,,C,HINX,P,1.0078,B,STNP*46"
2020-12-09T10:35:31.056009,"$GPRMC,093529,A,5154.8026,N,00429.1967,E,000.1,240.,091220,01.,E*43"
2020-12-09T10:35:31.073890,"$HEROT,7.32,A*1D"
2020-12-09T10:35:31.086028,"$HCHDT,256.5,T*2D"
2020-12-09T10:35:31.156628,"$SDDPT,5.94,0.00,100.0*5C"
2020-12-09T10:35:31.165600,"$YXXDR,A,-4.5,D,PTCH,A,0.2,D,ROLL*73"
2020-12-09T10:35:31.220657,"$WIMWV,311.5,R,9.6,N,A*2A"
2020-12-09T10:35:31.231978,"$GPHDT,220.2,T*37"
2020-12-09T10:35:31.237164,"$SDDBT,19.49,f,5.94,M,3.24,F*0E"
2020-12-09T10:35:31.254326,"$GPRMC,093529,A,5154.8026,N,00429.1966,E,000.1,240.,091220,01.,E*42"
2020-12-09T10:35:31.272718,"$GPGGA,093529,5154.8026,N,00429.1966,E,2,04,02,+0005,M,+047,M,00,0000*65"
2020-12-09T10:35:31.277882,"$YXMTW,36.9,C*1E"
2020-12-09T10:35:31.284479,"$GPGLL,5154.8026,N,00429.1966,E,093529.00,A*0E"
2020-12-09T10:35:31.291532,"$GPVTG,240.0,T,,,000.1,N,000.1,K*2B"
2020-12-09T10:35:31.296139,"$GPROT,+0001.7,A*2C"
2020-12-09T10:35:31.305004,"$GPDTM,W84,,0,N,0,E,+0,W84*5A"
2020-12-09T10:35:31.315719,"$GPZDA,093530.00,09,12,2020,-02,00*4F"
2020-12-09T10:35:31.359850,"$HEROT,6.75,A*1F"
2020-12-09T10:35:31.432016,"$GPHDT,220.2,T*37"
2020-12-09T10:35:31.454304,"$GPRMC,093529,A,5154.8026,N,00429.1966,E,000.1,240.,091220,01.,E*42"
2020-12-09T10:35:31.504395,"$GPGGA,093531.09,5154.8024,N,00429.1965,E,2,10,1.0,8.4,M,44.9,M,,*61"
2020-12-09T10:35:31.539994,"$HCHDT,256.7,T*2F"
2020-12-09T10:35:31.627878,"$GPVTG,192.7,T,192.2,M,0.1,N,0.1,K,D*23"
2020-12-09T10:35:31.631982,"$GPHDT,220.2,T*37"
2020-12-09T10:35:31.643869,"$HEROT,7.88,A*1C"
2020-12-09T10:35:31.652304,"$GPRMC,093529,A,5154.8026,N,00429.1966,E,000.1,238.,091220,01.,E*4D"
2020-12-09T10:35:31.682687,"$WIMWV,303.2,R,7.9,N,A*2F"
2020-12-09T10:35:31.730330,"$VDVBW,000.35,,A,00.00,00.00,V,,V,00.00,V*70"
2020-12-09T10:35:31.795019,"$VDVLW,9968.24,N,5898.25,N*5C"
2020-12-09T10:35:31.834500,"$WIMDA,29.7928,I,1.0089,B,-0.4,C,,,,,,,199.9,T,199.4,M,7.8,N,4.0,M*3A"
2020-12-09T10:35:31.836164,"$GPHDT,220.2,T*37"
2020-12-09T10:35:31.854325,"$GPRMC,093529,A,5154.8026,N,00429.1966,E,000.1,238.,091220,01.,E*4D"
2020-12-09T10:35:31.909692,"$GPZDA,093531.59,09,12,2020,00,00*6D"
2020-12-09T10:35:31.932036,"$HEROT,10.88,A*2A"
2020-12-09T10:35:32.032031,"$GPHDT,220.2,T*37"
2020-12-09T10:35:32.047981,"$YXXDR,C,-5.3,C,WCHR,C,-5.3,C,WCHT,C,,C,HINX,P,1.0079,B,STNP*44"
2020-12-09T10:35:32.054332,"$GPRMC,093530,A,5154.8026,N,00429.1966,E,000.1,238.,091220,01.,E*45"
2020-12-09T10:35:32.084034,"$HCHDT,256.6,T*2E"
2020-12-09T10:35:32.152685,"$SDDPT,5.97,0.00,100.0*5F"
2020-12-09T10:35:32.163645,"$YXXDR,A,-4.5,D,PTCH,A,0.2,D,ROLL*73"
2020-12-09T10:35:32.218700,"$WIMWV,284.9,R,5.7,N,A*26"
2020-12-09T10:35:32.222042,"$HEROT,14.88,A*2E"
2020-12-09T10:35:32.231266,"$SDDBT,19.58,f,5.97,M,3.26,F*0F"
2020-12-09T10:35:32.234080,"$GPHDT,220.2,T*37"
2020-12-09T10:35:32.254352,"$GPRMC,093530,A,5154.8026,N,00429.1966,E,000.0,238.,091220,01.,E*44"
2020-12-09T10:35:32.272781,"$GPGGA,093530,5154.8026,N,00429.1966,E,2,04,02,+0005,M,+047,M,00,0000*6D"
2020-12-09T10:35:32.274357,"$YXMTW,36.9,C*1E"
2020-12-09T10:35:32.282518,"$GPGLL,5154.8026,N,00429.1966,E,093530.00,A*06"
2020-12-09T10:35:32.291587,"$GPVTG,238.2,T,,,000.0,N,000.1,K*27"
2020-12-09T10:35:32.296194,"$GPROT,+0001.4,A*2F"
2020-12-09T10:35:32.305102,"$GPDTM,W84,,0,N,0,E,+0,W84*5A"
2020-12-09T10:35:32.315753,"$GPZDA,093531.00,09,12,2020,-02,00*4E"
2020-12-09T10:35:32.432021,"$GPHDT,220.3,T*36"
2020-12-09T10:35:32.454386,"$GPRMC,093530,A,5154.8026,N,00429.1966,E,000.0,238.,091220,01.,E*44"
2020-12-09T10:35:32.504451,"$GPGGA,093532.09,5154.8024,N,00429.1965,E,2,10,1.0,8.3,M,44.9,M,,*65"
2020-12-09T10:35:32.506100,"$HEROT,17.60,A*2B"
2020-12-09T10:35:32.546077,"$HCHDT,256.3,T*2B"
2020-12-09T10:35:32.631990,"$GPVTG,232.3,T,231.8,M,0.0,N,0.0,K,D*2E"
2020-12-09T10:35:32.634137,"$GPHDT,220.3,T*36"
2020-12-09T10:35:32.654402,"$GPRMC,093530,A,5154.8027,N,00429.1966,E,000.0,238.,091220,01.,E*45"
2020-12-09T10:35:32.686731,"$WIMWV,279.8,R,5.5,N,A*27"
2020-12-09T10:35:32.790080,"$HEROT,18.20,A*20"
2020-12-09T10:35:32.832169,"$GPHDT,220.3,T*36"
2020-12-09T10:35:32.840562,"$WIMDA,29.7899,I,1.0088,B,-0.4,C,,,,,,,176.1,T,175.6,M,5.5,N,2.8,M*38"
2020-12-09T10:35:32.850387,"$VDVBW,000.35,,A,00.00,00.00,V,,V,00.00,V*70"
2020-12-09T10:35:32.856368,"$GPRMC,093530,A,5154.8027,N,00429.1966,E,000.0,238.,091220,01.,E*45"
2020-12-09T10:35:32.913096,"$VDVLW,9968.24,N,5898.25,N*5C"
2020-12-09T10:35:32.917742,"$GPZDA,093532.59,09,12,2020,00,00*6E"
2020-12-09T10:35:33.032068,"$GPHDT,220.3,T*36"
2020-12-09T10:35:33.052088,"$YXXDR,C,-4.8,C,WCHR,C,-4.8,C,WCHT,C,,C,HINX,P,1.0079,B,STNP*44"
2020-12-09T10:35:33.058120,"$GPRMC,093531,A,5154.8027,N,00429.1966,E,000.0,238.,091220,01.,E*44"
2020-12-09T10:35:33.074169,"$HEROT,15.84,A*23"
2020-12-09T10:35:33.088043,"$HCHDT,256.4,T*2C"
2020-12-09T10:35:33.156731,"$SDDPT,5.97,0.00,100.0*5F"
2020-12-09T10:35:33.169767,"$YXXDR,A,-3.6,D,PTCH,A,0.4,D,ROLL*71"
2020-12-09T10:35:33.224745,"$WIMWV,277.8,R,5.3,N,A*2F"
2020-12-09T10:35:33.232095,"$GPHDT,220.3,T*36"
2020-12-09T10:35:33.237274,"$SDDBT,19.58,f,5.97,M,3.26,F*0F"
2020-12-09T10:35:33.254435,"$GPRMC,093531,A,5154.8027,N,00429.1966,E,000.0,228.,091220,01.,E*45"
2020-12-09T10:35:33.272849,"$GPGGA,093531,5154.8027,N,00429.1966,E,2,04,02,+0005,M,+047,M,00,0000*6D"
2020-12-09T10:35:33.275996,"$YXMTW,36.9,C*1E"
2020-12-09T10:35:33.282613,"$GPGLL,5154.8027,N,00429.1966,E,093531.00,A*06"
2020-12-09T10:35:33.291632,"$GPVTG,228.1,T,,,000.0,N,000.1,K*25"
2020-12-09T10:35:33.296243,"$GPROT,+0001.7,A*2C"
2020-12-09T10:35:33.305138,"$GPDTM,W84,,0,N,0,E,+0,W84*5A"
2020-12-09T10:35:33.315807,"$GPZDA,093532.00,09,12,2020,-02,00*4D"
2020-12-09T10:35:33.360071,"$HEROT,11.59,A*27"
2020-12-09T10:35:33.432091,"$GPHDT,220.3,T*36"
2020-12-09T10:35:33.452431,"$GPRMC,093531,A,5154.8027,N,00429.1966,E,000.0,228.,091220,01.,E*45"
2020-12-09T10:35:33.504503,"$GPGGA,093533.09,5154.8024,N,00429.1965,E,2,10,1.0,8.3,M,44.9,M,,*64"
2020-12-09T10:35:33.540075,"$HCHDT,256.5,T*2D"
2020-12-09T10:35:33.628002,"$GPVTG,256.7,T,256.2,M,0.0,N,0.0,K,D*23"
2020-12-09T10:35:33.632101,"$GPHDT,220.3,T*36"
2020-12-09T10:35:33.644027,"$HEROT,7.42,A*1A"
2020-12-09T10:35:33.654429,"$GPRMC,093531,A,5154.8027,N,00429.1965,E,000.0,213.,091220,01.,E*4E"
2020-12-09T10:35:33.682777,"$WIMWV,277.3,R,5.4,N,A*23"
2020-12-09T10:35:33.688446,"$VDVBW,000.36,,A,00.00,00.00,V,,V,00.00,V*73"
2020-12-09T10:35:33.751126,"$VDVLW,9968.24,N,5898.25,N*5C"
2020-12-09T10:35:33.834641,"$WIMDA,29.7869,I,1.0087,B,-0.4,C,,,,,,,172.7,T,172.2,M,5.4,N,2.8,M*38"
2020-12-09T10:35:33.836283,"$GPHDT,220.3,T*36"
2020-12-09T10:35:33.854440,"$GPRMC,093531,A,5154.8027,N,00429.1965,E,000.1,208.,091220,01.,E*45"
2020-12-09T10:35:33.909803,"$GPZDA,093533.59,09,12,2020,00,00*6F"
2020-12-09T10:35:33.930045,"$HEROT,4.63,A*1A"
2020-12-09T10:35:34.032173,"$GPHDT,220.2,T*37"
2020-12-09T10:35:34.048101,"$YXXDR,C,-4.6,C,WCHR,C,-4.6,C,WCHT,C,,C,HINX,P,1.0078,B,STNP*45"
2020-12-09T10:35:34.054456,"$GPRMC,093532,A,5154.8027,N,00429.1965,E,000.1,204.,091220,01.,E*4A"
2020-12-09T10:35:34.084145,"$HCHDT,256.7,T*2F"
2020-12-09T10:35:34.158811,"$SDDPT,5.94,0.00,100.0*5C"
2020-12-09T10:35:34.163769,"$YXXDR,A,-4.1,D,PTCH,A,1.7,D,ROLL*73"
2020-12-09T10:35:34.216052,"$HEROT,4.09,A*16"
2020-12-09T10:35:34.220817,"$WIMWV,272.1,R,4.7,N,A*26"
2020-12-09T10:35:34.232119,"$GPHDT,220.2,T*37"
2020-12-09T10:35:34.237317,"$SDDBT,19.49,f,5.94,M,3.24,F*0E"
2020-12-09T10:35:34.254476,"$GPRMC,093532,A,5154.8027,N,00429.1965,E,000.1,200.,091220,01.,E*4E"
2020-12-09T10:35:34.272905,"$GPGGA,093532,5154.8027,N,00429.1965,E,2,04,02,+0005,M,+047,M,00,0000*6D"
2020-12-09T10:35:34.278052,"$YXMTW,36.9,C*1E"
2020-12-09T10:35:34.284652,"$GPGLL,5154.8027,N,00429.1965,E,093532.00,A*06"
2020-12-09T10:35:34.291678,"$GPVTG,200.9,T,,,000.1,N,000.1,K*26"
2020-12-09T10:35:34.296317,"$GPROT,+0000.9,A*23"
2020-12-09T10:35:34.305176,"$GPDTM,W84,,0,N,0,E,+0,W84*5A"
2020-12-09T10:35:34.315843,"$GPZDA,093533.00,09,12,2020,-02,00*4C"
2020-12-09T10:35:34.432150,"$GPHDT,220.2,T*37"
2020-12-09T10:35:34.454477,"$GPRMC,093532,A,5154.8027,N,00429.1965,E,000.1,200.,091220,01.,E*4E"
2020-12-09T10:35:34.504550,"$GPGGA,093534.09,5154.8024,N,00429.1964,E,2,10,1.0,8.3,M,44.9,M,,*62"
2020-12-09T10:35:34.506159,"$HEROT,5.30,A*1D"
2020-12-09T10:35:34.540132,"$HCHDT,256.8,T*20"
2020-12-09T10:35:34.628059,"$GPVTG,261.8,T,261.3,M,0.1,N,0.1,K,D*2D"
2020-12-09T10:35:34.632155,"$GPHDT,220.2,T*37"
2020-12-09T10:35:34.654486,"$GPRMC,093532,A,5154.8027,N,00429.1964,E,000.1,196.,091220,01.,E*43"
2020-12-09T10:35:34.682821,"$WIMWV,269.3,R,4.4,N,A*2D"
2020-12-09T10:35:34.750469,"$VDVBW,000.36,,A,00.00,00.00,V,,V,00.00,V*73"
2020-12-09T10:35:34.786059,"$HEROT,7.48,A*10"
2020-12-09T10:35:34.813177,"$VDVLW,9968.24,N,5898.25,N*5C"
2020-12-09T10:35:34.834718,"$WIMDA,29.7869,I,1.0087,B,-0.4,C,,,,,,,164.8,T,164.3,M,4.4,N,2.3,M*3C"
2020-12-09T10:35:34.836344,"$GPHDT,220.2,T*37"
2020-12-09T10:35:34.854561,"$GPRMC,093532,A,5154.8027,N,00429.1964,E,000.1,194.,091220,01.,E*41"
2020-12-09T10:35:34.909804,"$GPZDA,093534.59,09,12,2020,00,00*68"
2020-12-09T10:35:35.032227,"$GPHDT,220.2,T*37"
2020-12-09T10:35:35.048207,"$YXXDR,C,-4.4,C,WCHR,C,-4.3,C,WCHT,C,,C,HINX,P,1.0078,B,STNP*42"
2020-12-09T10:35:35.054515,"$GPRMC,093533,A,5154.8027,N,00429.1965,E,000.0,193.,091220,01.,E*47"
2020-12-09T10:35:35.072080,"$HEROT,8.77,A*13"
2020-12-09T10:35:35.082161,"$HCHDT,256.7,T*2F"
2020-12-09T10:35:35.154855,"$SDDPT,5.92,0.00,100.0*5A"
2020-12-09T10:35:35.163817,"$YXXDR,A,-4.6,D,PTCH,A,1.7,D,ROLL*74"
2020-12-09T10:35:35.218862,"$WIMWV,278.9,R,4.3,N,A*20"
2020-12-09T10:35:35.233381,"$SDDBT,19.42,f,5.92,M,3.23,F*04"
2020-12-09T10:35:35.236196,"$GPHDT,220.2,T*37"
2020-12-09T10:35:35.254519,"$GPRMC,093533,A,5154.8027,N,00429.1965,E,000.0,193.,091220,01.,E*47"
2020-12-09T10:35:35.273021,"$GPGGA,093533,5154.8027,N,00429.1965,E,2,04,02,+0005,M,+047,M,00,0000*6C"
2020-12-09T10:35:35.274506,"$YXMTW,36.9,C*1E"
2020-12-09T10:35:35.282701,"$GPGLL,5154.8027,N,00429.1965,E,093533.00,A*07"
2020-12-09T10:35:35.291752,"$GPVTG,193.1,T,,,000.0,N,000.1,K*26"
2020-12-09T10:35:35.296357,"$GPROT,+0000.5,A*2F"
2020-12-09T10:35:35.305237,"$GPDTM,W84,,0,N,0,E,+0,W84*5A"
2020-12-09T10:35:35.315926,"$GPZDA,093534.00,09,12,2020,-02,00*4B"
2020-12-09T10:35:35.358108,"$HEROT,8.98,A*12"
2020-12-09T10:35:35.432193,"$GPHDT,220.2,T*37"
2020-12-09T10:35:35.454552,"$GPRMC,093533,A,5154.8027,N,00429.1965,E,000.0,193.,091220,01.,E*47"
2020-12-09T10:35:35.504646,"$GPGGA,093535.09,5154.8023,N,00429.1964,E,2,10,1.0,8.2,M,44.9,M,,*65"
2020-12-09T10:35:35.540262,"$HCHDT,256.4,T*2C"
2020-12-09T10:35:35.628103,"$GPVTG,169.4,T,168.9,M,0.1,N,0.1,K,D*2A"
2020-12-09T10:35:35.632221,"$GPHDT,220.2,T*37"
2020-12-09T10:35:35.644102,"$HEROT,8.14,A*16"
2020-12-09T10:35:35.654577,"$GPRMC,093533,A,5154.8026,N,00429.1966,E,000.1,224.,091220,01.,E*4B"
2020-12-09T10:35:35.682899,"$WIMWV,293.6,R,5.5,N,A*2D"
2020-12-09T10:35:35.732533,"$VDVBW,000.36,,A,00.00,00.00,V,,V,00.00,V*73"
2020-12-09T10:35:35.795245,"$VDVLW,9968.24,N,5898.25,N*5C"
2020-12-09T10:35:35.834733,"$WIMDA,29.7899,I,1.0088,B,-0.4,C,,,,,,,190.3,T,189.8,M,5.4,N,2.8,M*3E"
2020-12-09T10:35:35.836395,"$GPHDT,220.2,T*37"
2020-12-09T10:35:35.854551,"$GPRMC,093533,A,5154.8026,N,00429.1966,E,000.1,215.,091220,01.,E*49"
2020-12-09T10:35:35.909849,"$GPZDA,093535.59,09,12,2020,00,00*69"
2020-12-09T10:35:35.930125,"$HEROT,6.63,A*18"
2020-12-09T10:35:36.032274,"$GPHDT,220.1,T*34"
2020-12-09T10:35:36.048218,"$YXXDR,C,-5.5,C,WCHR,C,-5.5,C,WCHT,C,,C,HINX,P,1.0079,B,STNP*44"
2020-12-09T10:35:36.054551,"$GPRMC,093534,A,5154.8026,N,00429.1966,E,000.1,206.,091220,01.,E*4C"
2020-12-09T10:35:36.082224,"$HCHDT,256.2,T*2A"
2020-12-09T10:35:36.156921,"$SDDPT,5.94,0.00,100.0*5C"
2020-12-09T10:35:36.166087,"$YXXDR,A,-3.8,D,PTCH,A,-0.1,D,ROLL*57"
2020-12-09T10:35:36.216171,"$HEROT,4.32,A*1E"
2020-12-09T10:35:36.220911,"$WIMWV,312.5,R,6.2,N,A*22"
2020-12-09T10:35:36.232268,"$GPHDT,220.1,T*34"
2020-12-09T10:35:36.237441,"$SDDBT,19.49,f,5.94,M,3.24,F*0E"
2020-12-09T10:35:36.254586,"$GPRMC,093534,A,5154.8026,N,00429.1966,E,000.1,218.,091220,01.,E*43"
2020-12-09T10:35:36.273034,"$GPGGA,093534,5154.8026,N,00429.1966,E,2,04,02,+0005,M,+047,M,00,0000*69"
2020-12-09T10:35:36.276175,"$YXMTW,36.9,C*1E"
2020-12-09T10:35:36.282753,"$GPGLL,5154.8026,N,00429.1966,E,093534.00,A*02"
2020-12-09T10:35:36.291795,"$GPVTG,218.8,T,,,000.1,N,000.1,K*2E"
2020-12-09T10:35:36.296417,"$GPROT,+0000.0,A*2A"
2020-12-09T10:35:36.305297,"$GPDTM,W84,,0,N,0,E,+0,W84*5A"
2020-12-09T10:35:36.316036,"$GPZDA,093535.00,09,12,2020,-02,00*4A"
2020-12-09T10:35:36.432273,"$GPHDT,220.1,T*34"
2020-12-09T10:35:36.454589,"$GPRMC,093534,A,5154.8026,N,00429.1966,E,000.1,218.,091220,01.,E*43"
2020-12-09T10:35:36.506683,"$GPGGA,093536.09,5154.8023,N,00429.1965,E,2,10,1.0,8.2,M,44.9,M,,*67"
2020-12-09T10:35:36.508286,"$HEROT,1.37,A*1E"
2020-12-09T10:35:36.542270,"$HCHDT,256.1,T*29"
2020-12-09T10:35:36.628171,"$GPVTG,164.9,T,164.4,M,0.1,N,0.1,K,D*2B"
2020-12-09T10:35:36.632314,"$GPHDT,220.0,T*35"
2020-12-09T10:35:36.654633,"$GPRMC,093534,A,5154.8026,N,00429.1966,E,000.1,236.,091220,01.,E*4F"
2020-12-09T10:35:36.683048,"$WIMWV,334.5,R,6.2,N,A*26"
2020-12-09T10:35:36.726640,"$VDVBW,000.36,,A,00.00,00.00,V,,V,00.00,V*73"
2020-12-09T10:35:36.789365,"$VDVLW,9968.24,N,5898.25,N*5C"
2020-12-09T10:35:36.792262,"$HEROT,-1.20,A*35"
2020-12-09T10:35:36.834794,"$WIMDA,29.7899,I,1.0088,B,-0.4,C,,,,,,,231.4,T,230.9,M,6.1,N,3.1,M*3F"
2020-12-09T10:35:36.836479,"$GPHDT,220.0,T*35"
2020-12-09T10:35:36.854626,"$GPRMC,093534,A,5154.8026,N,00429.1966,E,000.1,242.,091220,01.,E*4C"
2020-12-09T10:35:36.911931,"$GPZDA,093536.59,09,12,2020,00,00*6A"
2020-12-09T10:35:37.032310,"$GPHDT,219.9,T*36"
2020-12-09T10:35:37.048285,"$YXXDR,C,-5.2,C,WCHR,C,-5.1,C,WCHT,C,,C,HINX,P,1.0079,B,STNP*47"
2020-12-09T10:35:37.054620,"$GPRMC,093535,A,5154.8026,N,00429.1966,E,000.1,247.,091220,01.,E*48"
2020-12-09T10:35:37.074281,"$HEROT,-1.72,A*32"
2020-12-09T10:35:37.084333,"$HCHDT,256.2,T*2A"
2020-12-09T10:35:37.153053,"$SDDPT,5.89,0.00,100.0*50"
2020-12-09T10:35:37.165932,"$YXXDR,A,-4.2,D,PTCH,A,0.0,D,ROLL*76"
2020-12-09T10:35:37.221081,"$WIMWV,328.4,R,5.8,N,A*23"
2020-12-09T10:35:37.231501,"$SDDBT,19.32,f,5.89,M,3.22,F*08"
2020-12-09T10:35:37.242313,"$GPHDT,219.9,T*36"
2020-12-09T10:35:37.264640,"$GPRMC,093535,A,5154.8026,N,00429.1966,E,000.1,146.,091220,01.,E*4A"
2020-12-09T10:35:37.272222,"$YXMTW,36.9,C*1E"
2020-12-09T10:35:37.283088,"$GPGGA,093535,5154.8026,N,00429.1966,E,2,04,02,+0005,M,+047,M,00,0000*68"
2020-12-09T10:35:37.292850,"$GPGLL,5154.8026,N,00429.1966,E,093535.00,A*03"
2020-12-09T10:35:37.301914,"$GPVTG,146.4,T,,,000.1,N,000.1,K*2A"
2020-12-09T10:35:37.306474,"$GPROT,-0001.4,A*29"
2020-12-09T10:35:37.315331,"$GPDTM,W84,,0,N,0,E,+0,W84*5A"
2020-12-09T10:35:37.326047,"$GPZDA,093536.00,09,12,2020,-02,00*49"
2020-12-09T10:35:37.360315,"$HEROT,-0.51,A*32"
2020-12-09T10:35:37.442303,"$GPHDT,219.8,T*37"
2020-12-09T10:35:37.464643,"$GPRMC,093535,A,5154.8026,N,00429.1966,E,000.1,146.,091220,01.,E*4A"
2020-12-09T10:35:37.506731,"$GPGGA,093537.09,5154.8023,N,00429.1965,E,2,10,1.0,8.2,M,44.9,M,,*66"
2020-12-09T10:35:37.542287,"$HCHDT,256.4,T*2C"
2020-12-09T10:35:37.628215,"$GPVTG,236.5,T,236.0,M,0.1,N,0.1,K,D*23"
2020-12-09T10:35:37.642425,"$GPHDT,219.8,T*37"
2020-12-09T10:35:37.646220,"$HEROT,1.19,A*12"
2020-12-09T10:35:37.664668,"$GPRMC,093535,A,5154.8026,N,00429.1964,E,000.0,146.,091220,01.,E*49"
2020-12-09T10:35:37.683052,"$WIMWV,321.9,R,6.1,N,A*2D"
2020-12-09T10:35:37.732677,"$VDVBW,000.36,,A,00.00,00.00,V,,V,00.00,V*73"
2020-12-09T10:35:37.795338,"$VDVLW,9968.24,N,5898.25,N*5C"
2020-12-09T10:35:37.834840,"$WIMDA,29.7869,I,1.0087,B,-0.4,C,,,,,,,218.0,T,217.5,M,6.0,N,3.1,M*38"
2020-12-09T10:35:37.842364,"$GPHDT,219.8,T*37"
2020-12-09T10:35:37.864656,"$GPRMC,093535,A,5154.8026,N,00429.1964,E,000.0,146.,091220,01.,E*49"
2020-12-09T10:35:37.912069,"$GPZDA,093537.59,09,12,2020,00,00*6B"
2020-12-09T10:35:37.930284,"$HEROT,2.35,A*1F"
2020-12-09T10:35:38.042361,"$GPHDT,219.7,T*38"
2020-12-09T10:35:38.050390,"$YXXDR,C,-5.4,C,WCHR,C,-5.3,C,WCHT,C,,C,HINX,P,1.0078,B,STNP*42"
2020-12-09T10:35:38.064703,"$GPRMC,093536,A,5154.8026,N,00429.1964,E,000.0,146.,091220,01.,E*4A"
2020-12-09T10:35:38.084348,"$HCHDT,256.3,T*2B"
2020-12-09T10:35:38.155058,"$SDDPT,5.95,0.00,100.0*5D"
2020-12-09T10:35:38.166116,"$YXXDR,A,-4.6,D,PTCH,A,1.4,D,ROLL*77"
2020-12-09T10:35:38.216277,"$HEROT,3.03,A*1B"
2020-12-09T10:35:38.221064,"$WIMWV,324.3,R,6.1,N,A*22"
2020-12-09T10:35:38.233554,"$SDDBT,19.52,f,5.95,M,3.25,F*04"
2020-12-09T10:35:38.236367,"$GPHDT,219.7,T*38"
2020-12-09T10:35:38.254751,"$GPRMC,093536,A,5154.8027,N,00429.1964,E,000.0,149.,091220,01.,E*44"
2020-12-09T10:35:38.273108,"$GPGGA,093536,5154.8027,N,00429.1964,E,2,04,02,+0005,M,+047,M,00,0000*68"
2020-12-09T10:35:38.276242,"$YXMTW,36.8,C*1F"
2020-12-09T10:35:38.282944,"$GPGLL,5154.8027,N,00429.1964,E,093536.00,A*03"
2020-12-09T10:35:38.291919,"$GPVTG,149.3,T,,,000.0,N,000.1,K*23"
2020-12-09T10:35:38.296529,"$GPROT,-0002.4,A*2A"
2020-12-09T10:35:38.305394,"$GPDTM,W84,,0,N,0,E,+0,W84*5A"
2020-12-09T10:35:38.316099,"$GPZDA,093537.00,09,12,2020,-02,00*48"
2020-12-09T10:35:38.432418,"$GPHDT,219.7,T*38"
2020-12-09T10:35:38.454718,"$GPRMC,093536,A,5154.8027,N,00429.1964,E,000.0,149.,091220,01.,E*44"
2020-12-09T10:35:38.506789,"$GPGGA,093538.09,5154.8023,N,00429.1966,E,2,10,1.0,8.1,M,44.9,M,,*69"
2020-12-09T10:35:38.508339,"$HEROT,3.26,A*1C"
2020-12-09T10:35:38.540345,"$HCHDT,256.0,T*28"
2020-12-09T10:35:38.628311,"$GPVTG,308.3,T,307.8,M,0.0,N,0.0,K,D*22"
2020-12-09T10:35:38.632418,"$GPHDT,219.7,T*38"
2020-12-09T10:35:38.654707,"$GPRMC,093536,A,5154.8028,N,00429.1965,E,000.0,153.,091220,01.,E*41"
2020-12-09T10:35:38.683064,"$WIMWV,313.7,R,5.1,N,A*21"
2020-12-09T10:35:38.788318,"$HEROT,3.55,A*18"
2020-12-09T10:35:38.834928,"$WIMDA,29.7869,I,1.0087,B,-0.4,C,,,,,,,209.7,T,209.2,M,5.1,N,2.6,M*33"
2020-12-09T10:35:38.836560,"$GPHDT,219.6,T*39"
2020-12-09T10:35:38.852705,"$VDVBW,000.36,,A,00.00,00.00,V,,V,00.00,V*73"
2020-12-09T10:35:38.858751,"$GPRMC,093536,A,5154.8028,N,00429.1965,E,000.0,154.,091220,01.,E*46"
2020-12-09T10:35:38.910101,"$GPZDA,093538.59,09,12,2020,00,00*64"
2020-12-09T10:35:38.915414,"$VDVLW,9968.24,N,5898.25,N*5C"
2020-12-09T10:35:39.032413,"$GPHDT,219.7,T*38"
2020-12-09T10:35:39.048391,"$YXXDR,C,-5.4,C,WCHR,C,-5.4,C,WCHT,C,,C,HINX,P,1.0078,B,STNP*45"
2020-12-09T10:35:39.054761,"$GPRMC,093537,A,5154.8028,N,00429.1965,E,000.0,156.,091220,01.,E*45"
2020-12-09T10:35:39.076404,"$HEROT,10.30,A*29"
2020-12-09T10:35:39.084380,"$HCHDT,255.8,T*23"
2020-12-09T10:35:39.159071,"$SDDPT,6.19,0.00,100.0*5A"
2020-12-09T10:35:39.164076,"$YXXDR,A,-3.6,D,PTCH,A,1.0,D,ROLL*74"
2020-12-09T10:35:39.219111,"$WIMWV,290.1,R,6.2,N,A*2D"
2020-12-09T10:35:39.226408,"$GPHDT,219.7,T*38"
2020-12-09T10:35:39.237620,"$SDDBT,20.31,f,6.19,M,3.38,F*00"
2020-12-09T10:35:39.248793,"$GPRMC,093537,A,5154.8028,N,00429.1965,E,000.0,157.,091220,01.,E*44"
2020-12-09T10:35:39.269181,"$GPGGA,093537,5154.8028,N,00429.1965,E,2,04,02,+0005,M,+047,M,00,0000*67"
2020-12-09T10:35:39.278951,"$GPGLL,5154.8028,N,00429.1965,E,093537.00,A*0C"
2020-12-09T10:35:39.280514,"$YXMTW,36.8,C*1F"
2020-12-09T10:35:39.287971,"$GPVTG,157.0,T,,,000.0,N,000.0,K*2E"
2020-12-09T10:35:39.290596,"$GPROT,-0002.5,A*2B"
2020-12-09T10:35:39.301448,"$GPDTM,W84,,0,N,0,E,+0,W84*5A"
2020-12-09T10:35:39.312153,"$GPZDA,093538.00,09,12,2020,-02,00*47"
2020-12-09T10:35:39.362407,"$HEROT,11.22,A*2B"
2020-12-09T10:35:39.426421,"$GPHDT,219.7,T*38"
2020-12-09T10:35:39.448821,"$GPRMC,093537,A,5154.8028,N,00429.1965,E,000.0,157.,091220,01.,E*44"
2020-12-09T10:35:39.506834,"$GPGGA,093539.09,5154.8023,N,00429.1966,E,2,10,1.0,8.1,M,44.9,M,,*68"
2020-12-09T10:35:39.542412,"$HCHDT,255.8,T*23"
2020-12-09T10:35:39.628324,"$GPVTG,257.3,T,256.8,M,0.0,N,0.0,K,D*2C"
2020-12-09T10:35:39.630425,"$GPHDT,219.7,T*38"
2020-12-09T10:35:39.648799,"$GPRMC,093537,A,5154.8027,N,00429.1965,E,000.0,158.,091220,01.,E*44"
2020-12-09T10:35:39.650433,"$HEROT,10.60,A*2C"
2020-12-09T10:35:39.683119,"$WIMWV,279.4,R,7.0,N,A*2C"
2020-12-09T10:35:39.742765,"$VDVBW,000.36,,A,00.00,00.00,V,,V,00.00,V*73"
2020-12-09T10:35:39.805466,"$VDVLW,9968.24,N,5898.25,N*5C"
2020-12-09T10:35:39.826457,"$GPHDT,219.7,T*38"
2020-12-09T10:35:39.834947,"$WIMDA,29.7899,I,1.0088,B,-0.4,C,,,,,,,175.2,T,174.7,M,7.0,N,3.6,M*30"
2020-12-09T10:35:39.848772,"$GPRMC,093537,A,5154.8027,N,00429.1965,E,000.0,158.,091220,01.,E*44"
2020-12-09T10:35:39.912090,"$GPZDA,093539.59,09,12,2020,00,00*65"
2020-12-09T10:35:39.932349,"$HEROT,9.85,A*1F"
2020-12-09T10:35:40.026458,"$GPHDT,219.7,T*38"
2020-12-09T10:35:40.048448,"$YXXDR,C,-6.0,C,WCHR,C,-6.0,C,WCHT,C,,C,HINX,P,1.0079,B,STNP*44"
2020-12-09T10:35:40.054416,"$GPRMC,093538,A,5154.8026,N,00429.1965,E,000.0,159.,091220,01.,E*4B"
2020-12-09T10:35:40.084449,"$HCHDT,256.0,T*28"
2020-12-09T10:35:40.155160,"$SDDPT,5.94,0.00,100.0*5C"
2020-12-09T10:35:40.164123,"$YXXDR,A,-4.3,D,PTCH,A,1.0,D,ROLL*76"
2020-12-09T10:35:40.216387,"$HEROT,8.88,A*13"
2020-12-09T10:35:40.221157,"$WIMWV,276.6,R,8.6,N,A*28"
2020-12-09T10:35:40.226503,"$GPHDT,219.7,T*38"
2020-12-09T10:35:40.233681,"$SDDBT,19.49,f,5.94,M,3.24,F*0E"
2020-12-09T10:35:40.248879,"$GPRMC,093538,A,5154.8026,N,00429.1965,E,000.0,159.,091220,01.,E*4B"
2020-12-09T10:35:40.269287,"$GPGGA,093538,5154.8026,N,00429.1965,E,2,04,02,+0005,M,+047,M,00,0000*66"
2020-12-09T10:35:40.274444,"$YXMTW,36.8,C*1F"
2020-12-09T10:35:40.280974,"$GPGLL,5154.8026,N,00429.1965,E,093538.00,A*0D"
2020-12-09T10:35:40.288084,"$GPVTG,159.6,T,,,000.0,N,000.1,K*27"
2020-12-09T10:35:40.290637,"$GPROT,-0002.3,A*2D"
2020-12-09T10:35:40.301503,"$GPDTM,W84,,0,N,0,E,+0,W84*5A"
2020-12-09T10:35:40.312189,"$GPZDA,093539.00,09,12,2020,-02,00*46"
2020-12-09T10:35:40.426481,"$GPHDT,219.7,T*38"
2020-12-09T10:35:40.448810,"$GPRMC,093538,A,5154.8026,N,00429.1965,E,000.0,159.,091220,01.,E*4B"
2020-12-09T10:35:40.506899,"$GPGGA,093540.09,5154.8024,N,00429.1965,E,2,10,1.0,8.1,M,44.9,M,,*62"
2020-12-09T10:35:40.508458,"$HEROT,8.32,A*12"
2020-12-09T10:35:40.542503,"$HCHDT,256.0,T*28"
2020-12-09T10:35:40.628402,"$GPVTG,151.3,T,150.8,M,0.0,N,0.0,K,D*2C"
2020-12-09T10:35:40.630507,"$GPHDT,219.7,T*38"
2020-12-09T10:35:40.648860,"$GPRMC,093538,A,5154.8026,N,00429.1966,E,000.0,160.,091220,01.,E*42"
2020-12-09T10:35:40.683186,"$WIMWV,271.7,R,8.5,N,A*2D"
2020-12-09T10:35:40.722863,"$VDVBW,000.36,,A,00.00,00.00,V,,V,00.00,V*73"
2020-12-09T10:35:40.785522,"$VDVLW,9968.24,N,5898.25,N*5C"
2020-12-09T10:35:40.788395,"$HEROT,8.38,A*18"
2020-12-09T10:35:40.826547,"$GPHDT,219.7,T*38"
2020-12-09T10:35:40.835092,"$WIMDA,29.7899,I,1.0088,B,-0.4,C,,,,,,,167.6,T,167.1,M,8.5,N,4.4,M*3C"
2020-12-09T10:35:40.848828,"$GPRMC,093538,A,5154.8026,N,00429.1966,E,000.0,160.,091220,01.,E*42"
2020-12-09T10:35:40.912162,"$GPZDA,093540.59,09,12,2020,00,00*6B"
2020-12-09T10:35:41.026506,"$GPHDT,219.7,T*38"
2020-12-09T10:35:41.048531,"$YXXDR,C,-6.0,C,WCHR,C,-5.9,C,WCHT,C,,C,HINX,P,1.0079,B,STNP*4E"
2020-12-09T10:35:41.054513,"$GPRMC,093539,A,5154.8026,N,00429.1966,E,000.0,160.,091220,01.,E*43"
2020-12-09T10:35:41.074399,"$HEROT,9.34,A*15"
2020-12-09T10:35:41.084498,"$HCHDT,255.8,T*23"
2020-12-09T10:35:41.157203,"$SDDPT,5.92,0.00,100.0*5A"
2020-12-09T10:35:41.166171,"$YXXDR,A,-4.0,D,PTCH,A,0.5,D,ROLL*71"
2020-12-09T10:35:41.221206,"$WIMWV,266.9,R,7.1,N,A*2E"
2020-12-09T10:35:41.226558,"$GPHDT,219.7,T*38"
2020-12-09T10:35:41.235717,"$SDDBT,19.42,f,5.92,M,3.23,F*04"
2020-12-09T10:35:41.248852,"$GPRMC,093539,A,5154.8026,N,00429.1966,E,000.0,160.,091220,01.,E*43"
2020-12-09T10:35:41.269300,"$GPGGA,093539,5154.8026,N,00429.1966,E,2,04,02,+0005,M,+047,M,00,0000*64"
2020-12-09T10:35:41.276473,"$YXMTW,36.8,C*1F"
2020-12-09T10:35:41.283097,"$GPGLL,5154.8026,N,00429.1966,E,093539.00,A*0F"
2020-12-09T10:35:41.288137,"$GPVTG,160.4,T,,,000.0,N,000.0,K*2E"
2020-12-09T10:35:41.292692,"$GPROT,-0002.2,A*2C"
2020-12-09T10:35:41.301575,"$GPDTM,W84,,0,N,0,E,+0,W84*5A"
2020-12-09T10:35:41.312259,"$GPZDA,093540.00,09,12,2020,-02,00*48"
2020-12-09T10:35:41.362565,"$HEROT,10.14,A*2F"
2020-12-09T10:35:41.426569,"$GPHDT,219.7,T*38"
2020-12-09T10:35:41.448882,"$GPRMC,093539,A,5154.8026,N,00429.1966,E,000.0,160.,091220,01.,E*43"
2020-12-09T10:35:41.506971,"$GPGGA,093541.09,5154.8024,N,00429.1965,E,2,10,1.0,8.1,M,44.9,M,,*63"
2020-12-09T10:35:41.542524,"$HCHDT,255.8,T*23"
2020-12-09T10:35:41.624267,"$GPVTG,96.1,T,95.6,M,0.0,N,0.0,K,D*22"
2020-12-09T10:35:41.626551,"$GPHDT,219.7,T*38"
2020-12-09T10:35:41.648891,"$GPRMC,093539,A,5154.8026,N,00429.1966,E,000.0,160.,091220,01.,E*43"
2020-12-09T10:35:41.650553,"$HEROT,10.86,A*24"
2020-12-09T10:35:41.679219,"$WIMWV,266.7,R,5.8,N,A*2B"
2020-12-09T10:35:41.728880,"$VDVBW,000.36,,A,00.00,00.00,V,,V,00.00,V*73"
2020-12-09T10:35:41.791580,"$VDVLW,9968.24,N,5898.25,N*5C"
2020-12-09T10:35:41.831104,"$WIMDA,29.7869,I,1.0087,B,-0.4,C,,,,,,,162.4,T,161.9,M,5.8,N,3.0,M*36"
2020-12-09T10:35:41.832704,"$GPHDT,219.7,T*38"
2020-12-09T10:35:41.848888,"$GPRMC,093539,A,5154.8026,N,00429.1966,E,000.0,160.,091220,01.,E*43"
2020-12-09T10:35:41.908197,"$GPZDA,093541.59,09,12,2020,00,00*6A"
2020-12-09T10:35:41.932548,"$HEROT,10.76,A*2B"
2020-12-09T10:35:42.026613,"$GPHDT,219.7,T*38"
2020-12-09T10:35:42.044549,"$YXXDR,C,-5.2,C,WCHR,C,-5.2,C,WCHT,C,,C,HINX,P,1.0078,B,STNP*45"
2020-12-09T10:35:42.050540,"$GPRMC,093540,A,5154.8027,N,00429.1966,E,000.0,160.,091220,01.,E*4C"
2020-12-09T10:35:42.080598,"$HCHDT,255.9,T*22"
2020-12-09T10:35:42.153253,"$SDDPT,6.10,0.00,100.0*53"
2020-12-09T10:35:42.164318,"$YXXDR,A,-4.1,D,PTCH,A,-0.2,D,ROLL*5A"
2020-12-09T10:35:42.216490,"$HEROT,9.89,A*13"
2020-12-09T10:35:42.221302,"$WIMWV,272.8,R,6.4,N,A*2E"
2020-12-09T10:35:42.226603,"$GPHDT,219.7,T*38"
2020-12-09T10:35:42.231788,"$SDDBT,20.01,f,6.10,M,3.33,F*01"
2020-12-09T10:35:42.248932,"$GPRMC,093540,A,5154.8027,N,00429.1966,E,000.0,160.,091220,01.,E*4C"
2020-12-09T10:35:42.269352,"$GPGGA,093540,5154.8027,N,00429.1966,E,2,04,02,+0005,M,+047,M,00,0000*6B"
2020-12-09T10:35:42.272480,"$YXMTW,36.8,C*1F"
2020-12-09T10:35:42.279109,"$GPGLL,5154.8027,N,00429.1966,E,093540.00,A*00"
2020-12-09T10:35:42.288148,"$GPVTG,160.6,T,,,000.0,N,000.0,K*2C"
2020-12-09T10:35:42.290753,"$GPROT,-0002.1,A*2F"
2020-12-09T10:35:42.301613,"$GPDTM,W84,,0,N,0,E,+0,W84*5A"
2020-12-09T10:35:42.312309,"$GPZDA,093541.00,09,12,2020,-02,00*49"
2020-12-09T10:35:42.426588,"$GPHDT,219.7,T*38"
2020-12-09T10:35:42.449001,"$GPRMC,093540,A,5154.8027,N,00429.1966,E,000.0,160.,091220,01.,E*4C"
2020-12-09T10:35:42.507010,"$GPGGA,093542.09,5154.8023,N,00429.1965,E,2,10,1.0,8.1,M,44.9,M,,*67"
2020-12-09T10:35:42.508644,"$HEROT,8.56,A*10"
2020-12-09T10:35:42.546613,"$HCHDT,256.0,T*28"
2020-12-09T10:35:42.628329,"$GPVTG,13.3,T,12.8,M,0.0,N,0.0,K,D*2C"
2020-12-09T10:35:42.630615,"$GPHDT,219.6,T*39"
2020-12-09T10:35:42.648937,"$GPRMC,093540,A,5154.8027,N,00429.1965,E,000.0,160.,091220,01.,E*4F"
2020-12-09T10:35:42.683343,"$WIMWV,277.7,R,7.1,N,A*20"
2020-12-09T10:35:42.732919,"$VDVBW,000.36,,A,00.00,00.00,V,,V,00.00,V*73"
2020-12-09T10:35:42.788522,"$HEROT,7.34,A*1B"
2020-12-09T10:35:42.795681,"$VDVLW,9968.24,N,5898.25,N*5C"
2020-12-09T10:35:42.826601,"$GPHDT,219.6,T*39"
2020-12-09T10:35:42.835172,"$WIMDA,29.7869,I,1.0087,B,-0.4,C,,,,,,,173.6,T,173.1,M,7.1,N,3.7,M*33"
2020-12-09T10:35:42.848978,"$GPRMC,093540,A,5154.8027,N,00429.1965,E,000.0,160.,091220,01.,E*4F"
2020-12-09T10:35:42.912284,"$GPZDA,093542.59,09,12,2020,00,00*69"
2020-12-09T10:35:43.026661,"$GPHDT,219.6,T*39"
2020-12-09T10:35:43.048620,"$YXXDR,C,-5.7,C,WCHR,C,-5.7,C,WCHT,C,,C,HINX,P,1.0078,B,STNP*45"
2020-12-09T10:35:43.054628,"$GPRMC,093541,A,5154.8027,N,00429.1965,E,000.0,160.,091220,01.,E*4E"
2020-12-09T10:35:43.072546,"$HEROT,6.73,A*19"
2020-12-09T10:35:43.084614,"$HCHDT,256.1,T*29"
2020-12-09T10:35:43.155299,"$SDDPT,5.94,0.00,100.0*5C"
2020-12-09T10:35:43.166281,"$YXXDR,A,-4.6,D,PTCH,A,0.8,D,ROLL*7A"
2020-12-09T10:35:43.221325,"$WIMWV,281.4,R,7.4,N,A*2F"
2020-12-09T10:35:43.226646,"$GPHDT,219.6,T*39"
2020-12-09T10:35:43.233824,"$SDDBT,19.49,f,5.94,M,3.24,F*0E"
2020-12-09T10:35:43.248975,"$GPRMC,093541,A,5154.8027,N,00429.1965,E,000.0,160.,091220,01.,E*4E"
2020-12-09T10:35:43.269417,"$GPGGA,093541,5154.8027,N,00429.1965,E,2,04,02,+0005,M,+047,M,00,0000*69"
2020-12-09T10:35:43.279171,"$GPGLL,5154.8027,N,00429.1965,E,093541.00,A*02"
2020-12-09T10:35:43.280748,"$YXMTW,36.8,C*1F"
2020-12-09T10:35:43.288247,"$GPVTG,160.6,T,,,000.0,N,000.1,K*2D"
2020-12-09T10:35:43.290836,"$GPROT,-0002.4,A*2A"
2020-12-09T10:35:43.301735,"$GPDTM,W84,,0,N,0,E,+0,W84*5A"
2020-12-09T10:35:43.312389,"$GPZDA,093542.00,09,12,2020,-02,00*4A"
2020-12-09T10:35:43.358557,"$HEROT,7.40,A*18"
2020-12-09T10:35:43.426656,"$GPHDT,219.6,T*39"
2020-12-09T10:35:43.448978,"$GPRMC,093541,A,5154.8027,N,00429.1965,E,000.0,160.,091220,01.,E*4E"
2020-12-09T10:35:43.507126,"$GPGGA,093543.09,5154.8023,N,00429.1965,E,2,10,1.0,8.1,M,44.9,M,,*66"
2020-12-09T10:35:43.542641,"$HCHDT,255.9,T*22"
2020-12-09T10:35:43.628563,"$GPVTG,354.3,T,353.8,M,0.1,N,0.1,K,D*2A"
2020-12-09T10:35:43.630662,"$GPHDT,219.6,T*39"
2020-12-09T10:35:43.648994,"$GPRMC,093541,A,5154.8028,N,00429.1964,E,000.1,160.,091220,01.,E*41"
2020-12-09T10:35:43.650566,"$HEROT,8.93,A*19"
2020-12-09T10:35:43.683342,"$WIMWV,285.4,R,6.2,N,A*2C"
2020-12-09T10:35:43.732984,"$VDVBW,000.37,,A,00.00,00.00,V,,V,00.00,V*72"
2020-12-09T10:35:43.795687,"$VDVLW,9968.24,N,5898.25,N*5C"
2020-12-09T10:35:43.826714,"$GPHDT,219.6,T*39"
2020-12-09T10:35:43.835172,"$WIMDA,29.7899,I,1.0088,B,-0.4,C,,,,,,,181.1,T,180.6,M,6.2,N,3.2,M*35"
2020-12-09T10:35:43.849009,"$GPRMC,093541,A,5154.8028,N,00429.1964,E,000.1,160.,091220,01.,E*41"
2020-12-09T10:35:43.912303,"$GPZDA,093543.59,09,12,2020,00,00*68"
2020-12-09T10:35:43.930621,"$HEROT,9.96,A*1D"
2020-12-09T10:35:44.026717,"$GPHDT,219.6,T*39"
2020-12-09T10:35:44.048663,"$YXXDR,C,-5.3,C,WCHR,C,-5.3,C,WCHT,C,,C,HINX,P,1.0079,B,STNP*44"
2020-12-09T10:35:44.054665,"$GPRMC,093542,A,5154.8028,N,00429.1964,E,000.1,160.,091220,01.,E*42"
2020-12-09T10:35:44.084667,"$HCHDT,255.5,T*2E"
2020-12-09T10:35:44.157368,"$SDDPT,5.94,0.00,100.0*5C"
2020-12-09T10:35:44.164336,"$YXXDR,A,-3.5,D,PTCH,A,2.3,D,ROLL*77"
2020-12-09T10:35:44.216657,"$HEROT,9.84,A*1E"
2020-12-09T10:35:44.221407,"$WIMWV,301.5,R,7.4,N,A*27"
2020-12-09T10:35:44.226694,"$GPHDT,219.6,T*39"
2020-12-09T10:35:44.235901,"$SDDBT,19.49,f,5.94,M,3.24,F*0E"
2020-12-09T10:35:44.249034,"$GPRMC,093542,A,5154.8028,N,00429.1964,E,000.1,160.,091220,01.,E*42"
2020-12-09T10:35:44.269474,"$GPGGA,093542,5154.8028,N,00429.1964,E,2,04,02,+0005,M,+047,M,00,0000*64"
2020-12-09T10:35:44.279258,"$GPGLL,5154.8028,N,00429.1964,E,093542.00,A*0F"
2020-12-09T10:35:44.280817,"$YXMTW,36.8,C*1F"
2020-12-09T10:35:44.288243,"$GPVTG,160.6,T,,,000.1,N,000.1,K*2C"
2020-12-09T10:35:44.290865,"$GPROT,-0002.4,A*2A"
2020-12-09T10:35:44.301760,"$GPDTM,W84,,0,N,0,E,+0,W84*5A"
2020-12-09T10:35:44.312416,"$GPZDA,093543.00,09,12,2020,-02,00*4B"
2020-12-09T10:35:44.426713,"$GPHDT,219.6,T*39"
2020-12-09T10:35:44.449033,"$GPRMC,093542,A,5154.8028,N,00429.1964,E,000.1,160.,091220,01.,E*42"
2020-12-09T10:35:44.505143,"$GPGGA,093544.09,5154.8023,N,00429.1965,E,2,10,1.0,8.0,M,44.9,M,,*60"
2020-12-09T10:35:44.506714,"$HEROT,8.65,A*10"
2020-12-09T10:35:44.540702,"$HCHDT,255.4,T*2F"
2020-12-09T10:35:44.624449,"$GPVTG,13.0,T,12.5,M,0.1,N,0.1,K,D*22"
2020-12-09T10:35:44.626713,"$GPHDT,219.6,T*39"
2020-12-09T10:35:44.649139,"$GPRMC,093542,A,5154.8028,N,00429.1966,E,000.0,160.,091220,01.,E*41"
2020-12-09T10:35:44.679399,"$WIMWV,312.1,R,8.7,N,A*2D"
2020-12-09T10:35:44.788659,"$HEROT,6.34,A*1A"
2020-12-09T10:35:44.831235,"$WIMDA,29.7899,I,1.0088,B,-0.4,C,,,,,,,207.4,T,206.9,M,8.7,N,4.5,M*34"
2020-12-09T10:35:44.832928,"$GPHDT,219.6,T*39"
2020-12-09T10:35:44.849141,"$GPRMC,093542,A,5154.8028,N,00429.1966,E,000.0,160.,091220,01.,E*41"
2020-12-09T10:35:44.853141,"$VDVBW,000.37,,A,00.00,00.00,V,,V,00.00,V*72"
2020-12-09T10:35:44.906423,"$GPZDA,093544.59,09,12,2020,00,00*6F"
2020-12-09T10:35:44.911763,"$VDVLW,9968.24,N,5898.25,N*5C"
2020-12-09T10:35:45.026780,"$GPHDT,219.5,T*3A"
2020-12-09T10:35:45.044742,"$YXXDR,C,-6.4,C,WCHR,C,-6.4,C,WCHT,C,,C,HINX,P,1.0079,B,STNP*44"
2020-12-09T10:35:45.050793,"$GPRMC,093543,A,5154.8028,N,00429.1966,E,000.0,160.,091220,01.,E*40"
2020-12-09T10:35:45.074675,"$HEROT,4.00,A*1F"
2020-12-09T10:35:45.078724,"$HCHDT,255.6,T*2D"
2020-12-09T10:35:45.153413,"$SDDPT,5.94,0.00,100.0*5C"
2020-12-09T10:35:45.160380,"$YXXDR,A,-3.9,D,PTCH,A,1.0,D,ROLL*7B"
2020-12-09T10:35:45.215429,"$WIMWV,315.2,R,9.3,N,A*2C"
2020-12-09T10:35:45.226808,"$GPHDT,219.5,T*3A"
2020-12-09T10:35:45.231936,"$SDDBT,19.49,f,5.94,M,3.24,F*0E"
2020-12-09T10:35:45.249147,"$GPRMC,093543,A,5154.8028,N,00429.1966,E,000.0,160.,091220,01.,E*40"
2020-12-09T10:35:45.269506,"$GPGGA,093543,5154.8028,N,00429.1966,E,2,04,02,+0005,M,+047,M,00,0000*67"
2020-12-09T10:35:45.274666,"$YXMTW,36.8,C*1F"
2020-12-09T10:35:45.281268,"$GPGLL,5154.8028,N,00429.1966,E,093543.00,A*0C"
2020-12-09T10:35:45.288288,"$GPVTG,160.6,T,,,000.0,N,000.0,K*2C"
2020-12-09T10:35:45.290918,"$GPROT,-0002.6,A*28"
2020-12-09T10:35:45.301790,"$GPDTM,W84,,0,N,0,E,+0,W84*5A"
2020-12-09T10:35:45.312482,"$GPZDA,093544.00,09,12,2020,-02,00*4C"
2020-12-09T10:35:45.358639,"$HEROT,3.13,A*1A"
2020-12-09T10:35:45.426768,"$GPHDT,219.5,T*3A"
2020-12-09T10:35:45.449151,"$GPRMC,093543,A,5154.8028,N,00429.1966,E,000.0,160.,091220,01.,E*40"
2020-12-09T10:35:45.507201,"$GPGGA,093545.09,5154.8022,N,00429.1965,E,2,10,1.0,8.0,M,44.9,M,,*60"
2020-12-09T10:35:45.542776,"$HCHDT,255.8,T*23"
2020-12-09T10:35:45.624495,"$GPVTG,67.8,T,67.3,M,0.0,N,0.0,K,D*2D"
2020-12-09T10:35:45.626775,"$GPHDT,219.5,T*3A"
2020-12-09T10:35:45.649156,"$GPRMC,093543,A,5154.8027,N,00429.1966,E,000.0,160.,091220,01.,E*4F"
2020-12-09T10:35:45.650684,"$HEROT,5.05,A*1B"
2020-12-09T10:35:45.679469,"$WIMWV,317.9,R,8.3,N,A*24"
2020-12-09T10:35:45.735158,"$VDVBW,000.37,,A,00.00,00.00,V,,V,00.00,V*72"
2020-12-09T10:35:45.799807,"$VDVLW,9968.24,N,5898.25,N*5C"
2020-12-09T10:35:45.831303,"$WIMDA,29.7899,I,1.0088,B,-0.4,C,,,,,,,213.7,T,213.2,M,8.3,N,4.3,M*3F"
2020-12-09T10:35:45.832954,"$GPHDT,219.5,T*3A"
2020-12-09T10:35:45.849178,"$GPRMC,093543,A,5154.8026,N,00429.1966,E,000.0,160.,091220,01.,E*4E"
2020-12-09T10:35:45.908435,"$GPZDA,093545.59,09,12,2020,00,00*6E"
2020-12-09T10:35:45.930720,"$HEROT,8.98,A*12"
2020-12-09T10:35:46.026816,"$GPHDT,219.5,T*3A"
2020-12-09T10:35:46.044837,"$YXXDR,C,-6.0,C,WCHR,C,-6.0,C,WCHT,C,,C,HINX,P,1.0079,B,STNP*44"
2020-12-09T10:35:46.050813,"$GPRMC,093544,A,5154.8026,N,00429.1966,E,000.0,160.,091220,01.,E*49"
2020-12-09T10:35:46.080781,"$HCHDT,255.8,T*23"
2020-12-09T10:35:46.157499,"$SDDPT,5.92,0.00,100.0*5A"
2020-12-09T10:35:46.162462,"$YXXDR,A,-4.8,D,PTCH,A,0.0,D,ROLL*7C"
2020-12-09T10:35:46.215499,"$WIMWV,323.4,R,7.7,N,A*25"
2020-12-09T10:35:46.218800,"$HEROT,12.67,A*29"
2020-12-09T10:35:46.226850,"$GPHDT,219.5,T*3A"
2020-12-09T10:35:46.236001,"$SDDBT,19.42,f,5.92,M,3.23,F*04"
2020-12-09T10:35:46.249166,"$GPRMC,093544,A,5154.8027,N,00429.1966,E,000.0,196.,091220,01.,E*41"
2020-12-09T10:35:46.269591,"$GPGGA,093544,5154.8027,N,00429.1966,E,2,04,02,+0005,M,+047,M,00,0000*6F"
2020-12-09T10:35:46.276749,"$YXMTW,36.8,C*1F"
2020-12-09T10:35:46.283334,"$GPGLL,5154.8027,N,00429.1966,E,093544.00,A*04"
2020-12-09T10:35:46.288369,"$GPVTG,196.5,T,,,000.0,N,000.0,K*26"
2020-12-09T10:35:46.290968,"$GPROT,-0002.5,A*2B"
2020-12-09T10:35:46.301843,"$GPDTM,W84,,0,N,0,E,+0,W84*5A"
2020-12-09T10:35:46.312536,"$GPZDA,093545.00,09,12,2020,-02,00*4D"
2020-12-09T10:35:46.426840,"$GPHDT,219.5,T*3A"
2020-12-09T10:35:46.449163,"$GPRMC,093544,A,5154.8027,N,00429.1966,E,000.0,196.,091220,01.,E*41"
2020-12-09T10:35:46.507258,"$GPGGA,093546.09,5154.8023,N,00429.1966,E,2,10,1.0,7.9,M,44.9,M,,*67"
2020-12-09T10:35:46.508912,"$HEROT,13.51,A*2D"
2020-12-09T10:35:46.542820,"$HCHDT,255.6,T*2D"
2020-12-09T10:35:46.624546,"$GPVTG,74.4,T,73.9,M,0.1,N,0.1,K,D*2C"
2020-12-09T10:35:46.626866,"$GPHDT,219.5,T*3A"
2020-12-09T10:35:46.649165,"$GPRMC,093544,A,5154.8027,N,00429.1966,E,000.0,248.,091220,01.,E*41"
2020-12-09T10:35:46.679511,"$WIMWV,330.3,R,6.9,N,A*2F"
2020-12-09T10:35:46.733165,"$VDVBW,000.37,,A,00.00,00.00,V,,V,00.00,V*72"
2020-12-09T10:35:46.790875,"$HEROT,11.32,A*2A"
2020-12-09T10:35:46.795866,"$VDVLW,9968.24,N,5898.25,N*5C"
2020-12-09T10:35:46.831353,"$WIMDA,29.7899,I,1.0088,B,-0.4,C,,,,,,,226.1,T,225.6,M,6.9,N,3.5,M*3B"
2020-12-09T10:35:46.833003,"$GPHDT,219.5,T*3A"
2020-12-09T10:35:46.849200,"$GPRMC,093544,A,5154.8027,N,00429.1966,E,000.0,266.,091220,01.,E*4D"
2020-12-09T10:35:46.908484,"$GPZDA,093546.59,09,12,2020,00,00*6D"
2020-12-09T10:35:47.026855,"$GPHDT,219.5,T*3A"
2020-12-09T10:35:47.044832,"$YXXDR,C,-5.7,C,WCHR,C,-5.7,C,WCHT,C,,C,HINX,P,1.0079,B,STNP*44"
2020-12-09T10:35:47.050820,"$GPRMC,093545,A,5154.8028,N,00429.1966,E,000.0,281.,091220,01.,E*4A"
2020-12-09T10:35:47.074785,"$HEROT,8.14,A*16"
2020-12-09T10:35:47.080853,"$HCHDT,255.3,T*28"
2020-12-09T10:35:47.153536,"$SDDPT,6.12,0.00,100.0*51"
2020-12-09T10:35:47.162576,"$YXXDR,A,-3.9,D,PTCH,A,-0.2,D,ROLL*55"
2020-12-09T10:35:47.219554,"$WIMWV,324.2,R,9.6,N,A*2B"
2020-12-09T10:35:47.226887,"$GPHDT,219.4,T*3B"
2020-12-09T10:35:47.232108,"$SDDBT,20.08,f,6.12,M,3.34,F*0D"
2020-12-09T10:35:47.249222,"$GPRMC,093545,A,5154.8028,N,00429.1966,E,000.0,292.,091220,01.,E*48"
2020-12-09T10:35:47.269663,"$GPGGA,093545,5154.8028,N,00429.1966,E,2,04,02,+0005,M,+047,M,00,0000*61"
2020-12-09T10:35:47.272774,"$YXMTW,36.8,C*1F"
2020-12-09T10:35:47.279387,"$GPGLL,5154.8028,N,00429.1966,E,093545.00,A*0A"
2020-12-09T10:35:47.288473,"$GPVTG,292.9,T,,,000.0,N,000.1,K*2C"
2020-12-09T10:35:47.291048,"$GPROT,-0002.6,A*28"
2020-12-09T10:35:47.301945,"$GPDTM,W84,,0,N,0,E,+0,W84*5A"
2020-12-09T10:35:47.312587,"$GPZDA,093546.00,09,12,2020,-02,00*4E"
2020-12-09T10:35:47.358770,"$HEROT,4.46,A*1D"
2020-12-09T10:35:47.426927,"$GPHDT,219.4,T*3B"
2020-12-09T10:35:47.449206,"$GPRMC,093545,A,5154.8028,N,00429.1966,E,000.0,292.,091220,01.,E*48"
2020-12-09T10:35:47.507317,"$GPGGA,093547.09,5154.8023,N,00429.1965,E,2,10,1.0,7.9,M,44.9,M,,*65"
2020-12-09T10:35:47.540875,"$HCHDT,255.3,T*28"
