timestamp,payload
2020-12-09T10:27:11.885362,"$GPZDA,092711.59,09,12,2020,00,00*6C"
2020-12-09T10:27:11.887640,"$HEROT,6.63,A*18"
2020-12-09T10:27:12.023759,"$YXXDR,C,-5.8,C,WCHR,C,-5.8,C,WCHT,C,,C,HINX,P,1.0077,B,STNP*4A"
2020-12-09T10:27:12.059791,"$HCHDT,256.6,T*2E"
2020-12-09T10:27:12.141477,"$YXXDR,A,-4.2,D,PTCH,A,-0.3,D,ROLL*58"
2020-12-09T10:27:12.174457,"$SDDPT,5.95,0.00,100.0*5D"
2020-12-09T10:27:12.177627,"$HEROT,7.19,A*14"
2020-12-09T10:27:12.196440,"$WIMWV,290.1,R,7.3,N,A*2D"
2020-12-09T10:27:12.233777,"$GPHDT,220.4,T*31"
2020-12-09T10:27:12.252928,"$SDDBT,19.52,f,5.95,M,3.25,F*04"
2020-12-09T10:27:12.276517,"$GPGGA,092710,5154.8029,N,00429.1969,E,2,04,01,+0006,M,+047,M,00,0000*6C"
2020-12-09T10:27:12.293637,"$YXMTW,36.8,C*1F"
2020-12-09T10:27:12.312128,"$GPRMC,092710,A,5154.8029,N,00429.1969,E,000.0,352.,091220,01.,E*48"
2020-12-09T10:27:12.336254,"$GPGLL,5154.8029,N,00429.1969,E,092710.00,A*07"
2020-12-09T10:27:12.355287,"$GPVTG,352.5,T,,,000.0,N,000.1,K*2D"
2020-12-09T10:27:12.363930,"$GPROT,-0000.9,A*25"
2020-12-09T10:27:12.380804,"$GPDTM,W84,,0,N,0,E,+0,W84*5A"
2020-12-09T10:27:12.401467,"$GPZDA,092711.00,09,12,2020,-02,00*4F"
2020-12-09T10:27:12.459644,"$HEROT,7.80,A*14"
2020-12-09T10:27:12.480190,"$GPGGA,092712.09,5154.8024,N,00429.1967,E,2,10,0.9,6.9,M,44.9,M,,*6A"
2020-12-09T10:27:12.515767,"$HCHDT,256.8,T*20"
2020-12-09T10:27:12.603662,"$GPVTG,206.5,T,206.0,M,0.0,N,0.0,K,D*23"
2020-12-09T10:27:12.658437,"$WIMWV,286.8,R,7.3,N,A*23"
2020-12-09T10:27:12.706101,"$VDVBW,000.42,,A,00.00,00.00,V,,V,00.00,V*70"
2020-12-09T10:27:12.745683,"$HEROT,8.01,A*12"
2020-12-09T10:27:12.768808,"$VDVLW,9968.19,N,5898.20,N*57"
2020-12-09T10:27:12.808314,"$WIMDA,29.7839,I,1.0086,B,-0.5,C,,,,,,,183.7,T,183.2,M,7.2,N,3.7,M*37"
2020-12-09T10:27:12.885405,"$GPZDA,092712.59,09,12,2020,00,00*6F"
2020-12-09T10:27:13.023772,"$YXXDR,C,-5.9,C,WCHR,C,-5.9,C,WCHT,C,,C,HINX,P,1.0078,B,STNP*45"
2020-12-09T10:27:13.031760,"$HEROT,7.05,A*19"
2020-12-09T10:27:13.057772,"$HCHDT,256.9,T*21"
2020-12-09T10:27:13.139454,"$YXXDR,A,-4.6,D,PTCH,A,0.7,D,ROLL*75"
2020-12-09T10:27:13.176473,"$SDDPT,5.98,0.00,100.0*50"
2020-12-09T10:27:13.194477,"$WIMWV,289.2,R,7.3,N,A*26"
2020-12-09T10:27:13.233813,"$GPHDT,220.3,T*36"
2020-12-09T10:27:13.254983,"$SDDBT,19.62,f,5.98,M,3.27,F*08"
2020-12-09T10:27:13.278569,"$GPGGA,092711,5154.8029,N,00429.1968,E,2,04,01,+0006,M,+047,M,00,0000*6C"
2020-12-09T10:27:13.295727,"$YXMTW,36.8,C*1F"
2020-12-09T10:27:13.312191,"$GPRMC,092711,A,5154.8029,N,00429.1968,E,000.0,017.,091220,01.,E*4A"
2020-12-09T10:27:13.317820,"$HEROT,5.40,A*1A"
2020-12-09T10:27:13.336312,"$GPGLL,5154.8029,N,00429.1968,E,092711.00,A*07"
2020-12-09T10:27:13.355386,"$GPVTG,017.9,T,,,000.0,N,000.1,K*23"
2020-12-09T10:27:13.363987,"$GPROT,-0001.6,A*2B"
2020-12-09T10:27:13.380854,"$GPDTM,W84,,0,N,0,E,+0,W84*5A"
2020-12-09T10:27:13.401528,"$GPZDA,092712.00,09,12,2020,-02,00*4C"
2020-12-09T10:27:13.482232,"$GPGGA,092713.09,5154.8024,N,00429.1966,E,2,10,0.9,7.0,M,44.9,M,,*62"
2020-12-09T10:27:13.515817,"$HCHDT,256.9,T*21"
2020-12-09T10:27:13.603777,"$GPVTG,311.8,T,311.3,M,0.1,N,0.1,K,D*2D"
2020-12-09T10:27:13.605778,"$HEROT,4.17,A*19"
2020-12-09T10:27:13.658656,"$WIMWV,288.1,R,7.2,N,A*25"
2020-12-09T10:27:13.708139,"$VDVBW,000.42,,A,00.00,00.00,V,,V,00.00,V*70"
2020-12-09T10:27:13.770848,"$VDVLW,9968.19,N,5898.20,N*57"
2020-12-09T10:27:13.810316,"$WIMDA,29.7810,I,1.0085,B,-0.5,C,,,,,,,184.4,T,183.9,M,7.2,N,3.7,M*30"
2020-12-09T10:27:13.885505,"$GPZDA,092713.59,09,12,2020,00,00*6E"
2020-12-09T10:27:13.887781,"$HEROT,4.84,A*13"
2020-12-09T10:27:14.023871,"$YXXDR,C,-5.7,C,WCHR,C,-5.7,C,WCHT,C,,C,HINX,P,1.0077,B,STNP*4A"
2020-12-09T10:27:14.059836,"$HCHDT,256.7,T*2F"
2020-12-09T10:27:14.139573,"$YXXDR,A,-3.6,D,PTCH,A,2.7,D,ROLL*70"
2020-12-09T10:27:14.173846,"$HEROT,7.05,A*19"
2020-12-09T10:27:14.178530,"$SDDPT,6.04,0.00,100.0*56"
2020-12-09T10:27:14.194532,"$WIMWV,286.8,R,7.2,N,A*22"
2020-12-09T10:27:14.233859,"$GPHDT,220.2,T*37"
2020-12-09T10:27:14.257042,"$SDDBT,19.81,f,6.04,M,3.30,F*05"
2020-12-09T10:27:14.276621,"$GPGGA,092712,5154.8031,N,00429.1967,E,2,04,01,+0006,M,+047,M,00,0000*69"
2020-12-09T10:27:14.297786,"$YXMTW,36.8,C*1F"
2020-12-09T10:27:14.312203,"$GPRMC,092712,A,5154.8031,N,00429.1967,E,000.0,086.,091220,01.,E*47"
2020-12-09T10:27:14.336369,"$GPGLL,5154.8031,N,00429.1967,E,092712.00,A*02"
2020-12-09T10:27:14.355419,"$GPVTG,086.1,T,,,000.0,N,000.1,K*23"
2020-12-09T10:27:14.364029,"$GPROT,-0002.1,A*2F"
2020-12-09T10:27:14.380929,"$GPDTM,W84,,0,N,0,E,+0,W84*5A"
2020-12-09T10:27:14.401617,"$GPZDA,092713.00,09,12,2020,-02,00*4D"
2020-12-09T10:27:14.459789,"$HEROT,9.89,A*13"
2020-12-09T10:27:14.478292,"$GPGGA,092714.09,5154.8024,N,00429.1966,E,2,9,1.2,7.0,M,44.9,M,,*57"
2020-12-09T10:27:14.515881,"$HCHDT,256.6,T*2E"
2020-12-09T10:27:14.601790,"$GPVTG,328.3,T,327.8,M,0.1,N,0.1,K,D*22"
2020-12-09T10:27:14.656551,"$WIMWV,283.2,R,7.8,N,A*27"
2020-12-09T10:27:14.747933,"$HEROT,11.81,A*22"
2020-12-09T10:27:14.808383,"$WIMDA,29.7810,I,1.0085,B,-0.5,C,,,,,,,179.3,T,178.8,M,7.8,N,4.0,M*3A"
2020-12-09T10:27:14.820212,"$VDVBW,000.41,,A,00.00,00.00,V,,V,00.00,V*73"
2020-12-09T10:27:14.882928,"$VDVLW,9968.19,N,5898.20,N*57"
2020-12-09T10:27:14.887568,"$GPZDA,092714.59,09,12,2020,00,00*69"
2020-12-09T10:27:15.021929,"$YXXDR,C,-6.1,C,WCHR,C,-6.1,C,WCHT,C,,C,HINX,P,1.0077,B,STNP*4A"
2020-12-09T10:27:15.033890,"$HEROT,13.40,A*2D"
2020-12-09T10:27:15.057936,"$HCHDT,256.5,T*2D"
2020-12-09T10:27:15.139535,"$YXXDR,A,-4.3,D,PTCH,A,1.6,D,ROLL*70"
2020-12-09T10:27:15.174568,"$SDDPT,6.03,0.00,100.0*51"
2020-12-09T10:27:15.194640,"$WIMWV,277.6,R,8.1,N,A*2E"
2020-12-09T10:27:15.233904,"$GPHDT,220.3,T*36"
2020-12-09T10:27:15.253123,"$SDDBT,19.78,f,6.03,M,3.29,F*0C"
2020-12-09T10:27:15.278676,"$GPGGA,092713,5154.8031,N,00429.1968,E,2,04,01,+0006,M,+047,M,00,0000*67"
2020-12-09T10:27:15.295798,"$YXMTW,36.8,C*1F"
2020-12-09T10:27:15.312250,"$GPRMC,092713,A,5154.8031,N,00429.1968,E,000.0,108.,091220,01.,E*4E"
2020-12-09T10:27:15.319899,"$HEROT,14.02,A*2C"
2020-12-09T10:27:15.336417,"$GPGLL,5154.8031,N,00429.1968,E,092713.00,A*0C"
2020-12-09T10:27:15.355493,"$GPVTG,108.4,T,,,000.0,N,000.0,K*20"
2020-12-09T10:27:15.364071,"$GPROT,-0001.6,A*2B"
2020-12-09T10:27:15.380991,"$GPDTM,W84,,0,N,0,E,+0,W84*5A"
2020-12-09T10:27:15.401653,"$GPZDA,092714.00,09,12,2020,-02,00*4A"
2020-12-09T10:27:15.480354,"$GPGGA,092715.09,5154.8024,N,00429.1966,E,2,10,0.9,7.0,M,44.9,M,,*64"
2020-12-09T10:27:15.515906,"$HCHDT,256.3,T*2B"
2020-12-09T10:27:15.603843,"$GPVTG,117.6,T,117.1,M,0.0,N,0.0,K,D*21"
2020-12-09T10:27:15.605946,"$HEROT,14.14,A*2B"
2020-12-09T10:27:15.658609,"$WIMWV,274.9,R,7.9,N,A*25"
2020-12-09T10:27:15.708250,"$VDVBW,000.41,,A,00.00,00.00,V,,V,00.00,V*73"
2020-12-09T10:27:15.770948,"$VDVLW,9968.19,N,5898.20,N*57"
2020-12-09T10:27:15.810469,"$WIMDA,29.7810,I,1.0085,B,-0.5,C,,,,,,,171.2,T,170.7,M,7.9,N,4.1,M*34"
2020-12-09T10:27:15.885598,"$GPZDA,092715.59,09,12,2020,00,00*68"
2020-12-09T10:27:15.889973,"$HEROT,13.27,A*2C"
2020-12-09T10:27:16.023954,"$YXXDR,C,-6.0,C,WCHR,C,-5.9,C,WCHT,C,,C,HINX,P,1.0077,B,STNP*40"
2020-12-09T10:27:16.059989,"$HCHDT,256.1,T*29"
2020-12-09T10:27:16.139599,"$YXXDR,A,-4.3,D,PTCH,A,0.1,D,ROLL*76"
2020-12-09T10:27:16.175967,"$HEROT,11.52,A*2C"
2020-12-09T10:27:16.180625,"$SDDPT,6.00,0.00,100.0*52"
2020-12-09T10:27:16.194679,"$WIMWV,275.6,R,7.4,N,A*26"
2020-12-09T10:27:16.233958,"$GPHDT,220.4,T*31"
2020-12-09T10:27:16.257156,"$SDDBT,19.68,f,6.00,M,3.28,F*0F"
2020-12-09T10:27:16.278846,"$GPGGA,092714,5154.8016,N,00429.1965,E,2,06,01,+0006,M,+047,M,00,0000*6A"
2020-12-09T10:27:16.297861,"$YXMTW,36.8,C*1F"
2020-12-09T10:27:16.312303,"$GPRMC,092714,A,5154.8016,N,00429.1965,E,000.0,115.,091220,01.,E*4D"
2020-12-09T10:27:16.336504,"$GPGLL,5154.8016,N,00429.1965,E,092714.00,A*03"
2020-12-09T10:27:16.355555,"$GPVTG,115.7,T,,,000.0,N,000.1,K*2E"
2020-12-09T10:27:16.364219,"$GPROT,-0001.1,A*2C"
2020-12-09T10:27:16.381021,"$GPDTM,W84,,0,N,0,E,+0,W84*5A"
2020-12-09T10:27:16.401706,"$GPZDA,092715.00,09,12,2020,-02,00*4B"
2020-12-09T10:27:16.459864,"$HEROT,9.35,A*14"
2020-12-09T10:27:16.482404,"$GPGGA,092716.09,5154.8025,N,00429.1966,E,2,10,0.9,7.0,M,44.9,M,,*66"
2020-12-09T10:27:16.516006,"$HCHDT,256.0,T*28"
2020-12-09T10:27:16.604000,"$GPVTG,106.6,T,106.1,M,0.1,N,0.1,K,D*21"
2020-12-09T10:27:16.658740,"$WIMWV,284.0,R,6.9,N,A*22"
2020-12-09T10:27:16.700308,"$VDVBW,000.41,,A,00.00,00.00,V,,V,00.00,V*73"
2020-12-09T10:27:16.745986,"$HEROT,7.11,A*1C"
2020-12-09T10:27:16.765020,"$VDVLW,9968.19,N,5898.20,N*57"
2020-12-09T10:27:16.810498,"$WIMDA,29.7810,I,1.0085,B,-0.5,C,,,,,,,180.8,T,180.3,M,6.8,N,3.5,M*38"
2020-12-09T10:27:16.885628,"$GPZDA,092716.59,09,12,2020,00,00*6B"
2020-12-09T10:27:17.024041,"$YXXDR,C,-5.7,C,WCHR,C,-5.7,C,WCHT,C,,C,HINX,P,1.0077,B,STNP*4A"
2020-12-09T10:27:17.031900,"$HEROT,4.88,A*1F"
2020-12-09T10:27:17.059993,"$HCHDT,256.1,T*29"
2020-12-09T10:27:17.141728,"$YXXDR,A,-3.9,D,PTCH,A,-1.2,D,ROLL*54"
2020-12-09T10:27:17.174699,"$SDDPT,5.97,0.00,100.0*5F"
2020-12-09T10:27:17.196690,"$WIMWV,284.4,R,7.3,N,A*2D"
2020-12-09T10:27:17.234172,"$GPHDT,220.3,T*36"
2020-12-09T10:27:17.251272,"$SDDBT,19.58,f,5.97,M,3.26,F*0F"
2020-12-09T10:27:17.278823,"$GPGGA,092715,5154.8031,N,00429.1989,E,2,06,01,+0006,M,+047,M,00,0000*6C"
2020-12-09T10:27:17.293898,"$YXMTW,36.8,C*1F"
2020-12-09T10:27:17.312370,"$GPRMC,092715,A,5154.8031,N,00429.1989,E,000.0,117.,091220,01.,E*49"
2020-12-09T10:27:17.317969,"$HEROT,3.52,A*1F"
2020-12-09T10:27:17.336541,"$GPGLL,5154.8031,N,00429.1989,E,092715.00,A*05"
2020-12-09T10:27:17.355576,"$GPVTG,117.9,T,,,000.0,N,000.1,K*22"
2020-12-09T10:27:17.364230,"$GPROT,-0001.6,A*2B"
2020-12-09T10:27:17.381052,"$GPDTM,W84,,0,N,0,E,+0,W84*5A"
2020-12-09T10:27:17.401910,"$GPZDA,092716.00,09,12,2020,-02,00*48"
2020-12-09T10:27:17.478477,"$GPGGA,092717.09,5154.8025,N,00429.1966,E,2,9,1.2,7.0,M,44.9,M,,*55"
2020-12-09T10:27:17.514118,"$HCHDT,256.4,T*2C"
2020-12-09T10:27:17.601999,"$GPVTG,169.8,T,169.3,M,0.0,N,0.0,K,D*2D"
2020-12-09T10:27:17.603976,"$HEROT,3.32,A*19"
2020-12-09T10:27:17.656728,"$WIMWV,279.9,R,7.3,N,A*22"
2020-12-09T10:27:17.704362,"$VDVBW,000.41,,A,00.00,00.00,V,,V,00.00,V*73"
2020-12-09T10:27:17.769064,"$VDVLW,9968.19,N,5898.20,N*57"
2020-12-09T10:27:17.808555,"$WIMDA,29.7810,I,1.0085,B,-0.5,C,,,,,,,176.3,T,175.8,M,7.3,N,3.8,M*3C"
2020-12-09T10:27:17.883722,"$GPZDA,092717.59,09,12,2020,00,00*6A"
2020-12-09T10:27:17.889966,"$HEROT,4.23,A*1E"
2020-12-09T10:27:18.022050,"$YXXDR,C,-5.9,C,WCHR,C,-5.9,C,WCHT,C,,C,HINX,P,1.0077,B,STNP*4A"
2020-12-09T10:27:18.058048,"$HCHDT,256.6,T*2E"
2020-12-09T10:27:18.137759,"$YXXDR,A,-4.8,D,PTCH,A,0.6,D,ROLL*7A"
2020-12-09T10:27:18.174016,"$HEROT,6.05,A*18"
2020-12-09T10:27:18.178766,"$SDDPT,6.03,0.00,100.0*51"
2020-12-09T10:27:18.192744,"$WIMWV,277.8,R,7.4,N,A*2A"
2020-12-09T10:27:18.255293,"$SDDBT,19.78,f,6.03,M,3.29,F*0C"
2020-12-09T10:27:18.258145,"$GPHDT,220.1,T*34"
2020-12-09T10:27:18.298875,"$GPGGA,092716,5154.8040,N,00429.1996,E,2,07,01,+0008,M,+047,M,00,0000*68"
2020-12-09T10:27:18.300442,"$YXMTW,36.8,C*1F"
2020-12-09T10:27:18.332420,"$GPRMC,092716,A,5154.8040,N,00429.1996,E,000.1,119.,091220,01.,E*4D"
2020-12-09T10:27:18.356608,"$GPGLL,5154.8040,N,00429.1996,E,092716.00,A*0E"
2020-12-09T10:27:18.375647,"$GPVTG,119.4,T,,,000.1,N,000.1,K*20"
2020-12-09T10:27:18.384267,"$GPROT,-0002.4,A*2A"
2020-12-09T10:27:18.401129,"$GPDTM,W84,,0,N,0,E,+0,W84*5A"
2020-12-09T10:27:18.421843,"$GPZDA,092717.00,09,12,2020,-02,00*49"
2020-12-09T10:27:18.459983,"$HEROT,8.09,A*1A"
2020-12-09T10:27:18.478410,"$GPGGA,092718.09,5154.8025,N,00429.1966,E,2,9,1.2,6.9,M,44.9,M,,*52"
2020-12-09T10:27:18.516071,"$HCHDT,256.7,T*2F"
2020-12-09T10:27:18.601982,"$GPVTG,315.8,T,315.3,M,0.1,N,0.1,K,D*2D"
2020-12-09T10:27:18.656880,"$WIMWV,278.9,R,7.4,N,A*24"
2020-12-09T10:27:18.708424,"$VDVBW,000.40,,A,00.00,00.00,V,,V,00.00,V*72"
2020-12-09T10:27:18.746052,"$HEROT,9.90,A*1B"
2020-12-09T10:27:18.771206,"$VDVLW,9968.19,N,5898.20,N*57"
2020-12-09T10:27:18.808618,"$WIMDA,29.7810,I,1.0085,B,-0.5,C,,,,,,,175.1,T,174.6,M,7.4,N,3.8,M*35"
2020-12-09T10:27:18.885888,"$GPZDA,092718.59,09,12,2020,00,00*65"
2020-12-09T10:27:19.022107,"$YXXDR,C,-5.9,C,WCHR,C,-5.9,C,WCHT,C,,C,HINX,P,1.0077,B,STNP*4A"
2020-12-09T10:27:19.034215,"$HEROT,11.44,A*2B"
2020-12-09T10:27:19.058176,"$HCHDT,256.4,T*2C"
2020-12-09T10:27:19.137846,"$YXXDR,A,-4.1,D,PTCH,A,2.5,D,ROLL*72"
2020-12-09T10:27:19.178847,"$SDDPT,6.04,0.00,100.0*56"
2020-12-09T10:27:19.192846,"$WIMWV,279.1,R,7.7,N,A*2E"
2020-12-09T10:27:19.244139,"$GPHDT,220.1,T*34"
2020-12-09T10:27:19.257324,"$SDDBT,19.81,f,6.04,M,3.30,F*05"
2020-12-09T10:27:19.288890,"$GPGGA,092717,5154.8043,N,00429.1994,E,2,08,01,+0009,M,+047,M,00,0000*66"
2020-12-09T10:27:19.298219,"$YXMTW,36.8,C*1F"
2020-12-09T10:27:19.322479,"$GPRMC,092717,A,5154.8043,N,00429.1994,E,000.1,123.,091220,01.,E*44"
2020-12-09T10:27:19.324132,"$HEROT,12.31,A*2A"
2020-12-09T10:27:19.346649,"$GPGLL,5154.8043,N,00429.1994,E,092717.00,A*0E"
2020-12-09T10:27:19.365754,"$GPVTG,123.5,T,,,000.1,N,000.1,K*28"
2020-12-09T10:27:19.374310,"$GPROT,-0002.3,A*2D"
2020-12-09T10:27:19.391178,"$GPDTM,W84,,0,N,0,E,+0,W84*5A"
2020-12-09T10:27:19.411898,"$GPZDA,092718.00,09,12,2020,-02,00*46"
2020-12-09T10:27:19.478474,"$GPGGA,092719.09,5154.8024,N,00429.1966,E,2,9,1.2,6.9,M,44.9,M,,*52"
2020-12-09T10:27:19.514310,"$HCHDT,256.1,T*29"
2020-12-09T10:27:19.602241,"$GPVTG,341.9,T,341.4,M,0.1,N,0.1,K,D*2B"
2020-12-09T10:27:19.604136,"$HEROT,12.56,A*2B"
2020-12-09T10:27:19.656897,"$WIMWV,279.1,R,7.8,N,A*21"
2020-12-09T10:27:19.706473,"$VDVBW,000.40,,A,00.00,00.00,V,,V,00.00,V*72"
2020-12-09T10:27:19.769277,"$VDVLW,9968.19,N,5898.20,N*57"
2020-12-09T10:27:19.808665,"$WIMDA,29.7839,I,1.0086,B,-0.5,C,,,,,,,174.9,T,174.4,M,7.8,N,4.0,M*35"
2020-12-09T10:27:19.885887,"$GPZDA,092719.59,09,12,2020,00,00*64"
2020-12-09T10:27:19.890200,"$HEROT,12.18,A*21"
2020-12-09T10:27:20.022168,"$YXXDR,C,-6.0,C,WCHR,C,-6.0,C,WCHT,C,,C,HINX,P,1.0078,B,STNP*45"
2020-12-09T10:27:20.058169,"$HCHDT,255.9,T*22"
2020-12-09T10:27:20.137866,"$YXXDR,A,-3.5,D,PTCH,A,2.3,D,ROLL*77"
2020-12-09T10:27:20.174900,"$SDDPT,6.06,0.00,100.0*54"
2020-12-09T10:27:20.178192,"$HEROT,11.63,A*2E"
2020-12-09T10:27:20.192859,"$WIMWV,279.2,R,7.9,N,A*23"
2020-12-09T10:27:20.234194,"$GPHDT,220.2,T*37"
2020-12-09T10:27:20.253415,"$SDDBT,19.88,f,6.06,M,3.31,F*0F"
2020-12-09T10:27:20.278960,"$GPGGA,092718,5154.8037,N,00429.1985,E,2,08,01,+0009,M,+047,M,00,0000*6A"
2020-12-09T10:27:20.294078,"$YXMTW,36.8,C*1F"
2020-12-09T10:27:20.312534,"$GPRMC,092718,A,5154.8037,N,00429.1985,E,000.0,124.,091220,01.,E*4E"
2020-12-09T10:27:20.336711,"$GPGLL,5154.8037,N,00429.1985,E,092718.00,A*02"
2020-12-09T10:27:20.355746,"$GPVTG,124.6,T,,,000.0,N,000.1,K*2D"
2020-12-09T10:27:20.364372,"$GPROT,-0001.8,A*25"
2020-12-09T10:27:20.381249,"$GPDTM,W84,,0,N,0,E,+0,W84*5A"
2020-12-09T10:27:20.401969,"$GPZDA,092719.00,09,12,2020,-02,00*47"
2020-12-09T10:27:20.462247,"$HEROT,11.09,A*22"
2020-12-09T10:27:20.478569,"$GPGGA,092720.09,5154.8024,N,00429.1966,E,2,9,1.2,6.9,M,44.9,M,,*58"
2020-12-09T10:27:20.516195,"$HCHDT,255.9,T*22"
2020-12-09T10:27:20.597943,"$GPVTG,96.7,T,96.2,M,0.0,N,0.0,K,D*23"
2020-12-09T10:27:20.652967,"$WIMWV,280.7,R,8.3,N,A*25"
2020-12-09T10:27:20.748222,"$HEROT,10.53,A*2C"
2020-12-09T10:27:20.804734,"$WIMDA,29.7810,I,1.0085,B,-0.5,C,,,,,,,177.2,T,176.7,M,8.3,N,4.3,M*33"
2020-12-09T10:27:20.808727,"$VDVBW,000.40,,A,00.00,00.00,V,,V,00.00,V*72"
2020-12-09T10:27:20.873246,"$VDVLW,9968.19,N,5898.20,N*57"
2020-12-09T10:27:20.881868,"$GPZDA,092720.59,09,12,2020,00,00*6E"
2020-12-09T10:27:21.018213,"$YXXDR,C,-6.3,C,WCHR,C,-6.3,C,WCHT,C,,C,HINX,P,1.0077,B,STNP*4A"
2020-12-09T10:27:21.034220,"$HEROT,10.13,A*28"
2020-12-09T10:27:21.054300,"$HCHDT,256.0,T*28"
2020-12-09T10:27:21.135964,"$YXXDR,A,-4.2,D,PTCH,A,-0.6,D,ROLL*5D"
2020-12-09T10:27:21.176968,"$SDDPT,6.00,0.00,100.0*52"
2020-12-09T10:27:21.192964,"$WIMWV,280.1,R,8.6,N,A*26"
2020-12-09T10:27:21.234242,"$GPHDT,220.2,T*37"
2020-12-09T10:27:21.255546,"$SDDBT,19.68,f,6.00,M,3.28,F*0F"
2020-12-09T10:27:21.279017,"$GPGGA,092719,5154.8035,N,00429.1987,E,2,07,01,+0009,M,+047,M,00,0000*64"
2020-12-09T10:27:21.296153,"$YXMTW,36.8,C*1F"
2020-12-09T10:27:21.314610,"$GPRMC,092719,A,5154.8035,N,00429.1987,E,000.1,023.,091220,01.,E*48"
2020-12-09T10:27:21.320234,"$HEROT,10.06,A*2C"
2020-12-09T10:27:21.336772,"$GPGLL,5154.8035,N,00429.1987,E,092719.00,A*03"
2020-12-09T10:27:21.355874,"$GPVTG,023.1,T,,,000.1,N,000.1,K*2D"
2020-12-09T10:27:21.364434,"$GPROT,-0001.4,A*29"
2020-12-09T10:27:21.381302,"$GPDTM,W84,,0,N,0,E,+0,W84*5A"
2020-12-09T10:27:21.402048,"$GPZDA,092720.00,09,12,2020,-02,00*4D"
2020-12-09T10:27:21.478618,"$GPGGA,092721.09,5154.8024,N,00429.1966,E,2,9,1.2,6.8,M,44.9,M,,*58"
2020-12-09T10:27:21.516243,"$HCHDT,256.2,T*2A"
2020-12-09T10:27:21.602181,"$GPVTG,116.4,T,115.9,M,0.1,N,0.1,K,D*28"
2020-12-09T10:27:21.604298,"$HEROT,10.19,A*22"
2020-12-09T10:27:21.656956,"$WIMWV,280.5,R,9.1,N,A*24"
2020-12-09T10:27:21.668589,"$VDVBW,000.40,,A,00.00,00.00,V,,V,00.00,V*72"
2020-12-09T10:27:21.731312,"$VDVLW,9968.19,N,5898.20,N*57"
2020-12-09T10:27:21.808786,"$WIMDA,29.7780,I,1.0084,B,-0.5,C,,,,,,,177.2,T,176.7,M,9.0,N,4.6,M*33"
2020-12-09T10:27:21.885934,"$GPZDA,092721.59,09,12,2020,00,00*6F"
2020-12-09T10:27:21.890252,"$HEROT,10.46,A*28"
2020-12-09T10:27:22.022271,"$YXXDR,C,-6.5,C,WCHR,C,-6.5,C,WCHT,C,,C,HINX,P,1.0076,B,STNP*4B"
2020-12-09T10:27:22.058336,"$HCHDT,256.3,T*2B"
2020-12-09T10:27:22.142116,"$YXXDR,A,-4.6,D,PTCH,A,-1.2,D,ROLL*5C"
2020-12-09T10:27:22.174235,"$HEROT,9.68,A*1C"
2020-12-09T10:27:22.181042,"$SDDPT,5.97,0.00,100.0*5F"
2020-12-09T10:27:22.197019,"$WIMWV,280.6,R,8.5,N,A*22"
2020-12-09T10:27:22.234303,"$GPHDT,220.2,T*37"
2020-12-09T10:27:22.259506,"$SDDBT,19.58,f,5.97,M,3.26,F*0F"
2020-12-09T10:27:22.279061,"$GPGGA,092720,5154.8023,N,00429.1965,E,2,07,01,+0008,M,+047,M,00,0000*64"
2020-12-09T10:27:22.300250,"$YXMTW,36.9,C*1E"
2020-12-09T10:27:22.314652,"$GPRMC,092720,A,5154.8023,N,00429.1965,E,000.0,341.,091220,01.,E*4F"
2020-12-09T10:27:22.336886,"$GPGLL,5154.8023,N,00429.1965,E,092720.00,A*02"
2020-12-09T10:27:22.355886,"$GPVTG,341.5,T,,,000.0,N,000.1,K*2F"
2020-12-09T10:27:22.364489,"$GPROT,-0001.5,A*28"
2020-12-09T10:27:22.381361,"$GPDTM,W84,,0,N,0,E,+0,W84*5A"
2020-12-09T10:27:22.402029,"$GPZDA,092721.00,09,12,2020,-02,00*4C"
2020-12-09T10:27:22.460361,"$HEROT,7.78,A*13"
2020-12-09T10:27:22.478656,"$GPGGA,092722.09,5154.8024,N,00429.1966,E,2,9,1.2,6.8,M,44.9,M,,*5B"
2020-12-09T10:27:22.516313,"$HCHDT,256.4,T*2C"
2020-12-09T10:27:22.598175,"$GPVTG,58.7,T,58.2,M,0.0,N,0.0,K,D*23"
2020-12-09T10:27:22.653002,"$WIMWV,281.4,R,7.8,N,A*23"
2020-12-09T10:27:22.698689,"$VDVBW,000.40,,A,00.00,00.00,V,,V,00.00,V*72"
2020-12-09T10:27:22.746302,"$HEROT,5.75,A*1C"
2020-12-09T10:27:22.761361,"$VDVLW,9968.19,N,5898.20,N*57"
2020-12-09T10:27:22.804892,"$WIMDA,29.7810,I,1.0085,B,-0.5,C,,,,,,,177.7,T,177.2,M,7.7,N,4.0,M*3A"
2020-12-09T10:27:22.881996,"$GPZDA,092722.59,09,12,2020,00,00*6C"
2020-12-09T10:27:23.018342,"$YXXDR,C,-6.0,C,WCHR,C,-6.0,C,WCHT,C,,C,HINX,P,1.0077,B,STNP*4A"
2020-12-09T10:27:23.032365,"$HEROT,4.88,A*1F"
2020-12-09T10:27:23.054383,"$HCHDT,256.2,T*2A"
2020-12-09T10:27:23.135997,"$YXXDR,A,-4.3,D,PTCH,A,0.4,D,ROLL*73"
2020-12-09T10:27:23.177040,"$SDDPT,5.98,0.00,100.0*50"
2020-12-09T10:27:23.191061,"$WIMWV,279.5,R,7.9,N,A*24"
2020-12-09T10:27:23.234363,"$GPHDT,220.0,T*35"
2020-12-09T10:27:23.255616,"$SDDBT,19.62,f,5.98,M,3.27,F*08"
2020-12-09T10:27:23.279133,"$GPGGA,092721,5154.8028,N,00429.1970,E,2,06,01,+0008,M,+047,M,00,0000*6B"
2020-12-09T10:27:23.296283,"$YXMTW,36.8,C*1F"
2020-12-09T10:27:23.314709,"$GPRMC,092721,A,5154.8028,N,00429.1970,E,000.1,009.,091220,01.,E*4F"
2020-12-09T10:27:23.316265,"$HEROT,5.40,A*1A"
2020-12-09T10:27:23.336897,"$GPGLL,5154.8028,N,00429.1970,E,092721.00,A*0C"
2020-12-09T10:27:23.355937,"$GPVTG,009.2,T,,,000.1,N,000.1,K*26"
2020-12-09T10:27:23.364539,"$GPROT,-0002.3,A*2D"
2020-12-09T10:27:23.381407,"$GPDTM,W84,,0,N,0,E,+0,W84*5A"
2020-12-09T10:27:23.402171,"$GPZDA,092722.00,09,12,2020,-02,00*4F"
2020-12-09T10:27:23.480829,"$GPGGA,092723.09,5154.8024,N,00429.1967,E,2,10,0.9,6.8,M,44.9,M,,*69"
2020-12-09T10:27:23.520433,"$HCHDT,256.3,T*2B"
2020-12-09T10:27:23.604285,"$HEROT,7.63,A*19"
2020-12-09T10:27:23.610296,"$GPVTG,316.8,T,316.3,M,0.1,N,0.1,K,D*2D"
2020-12-09T10:27:23.663163,"$WIMWV,278.8,R,8.1,N,A*2F"
2020-12-09T10:27:23.702702,"$VDVBW,000.40,,A,00.00,00.00,V,,V,00.00,V*72"
2020-12-09T10:27:23.765420,"$VDVLW,9968.19,N,5898.20,N*57"
2020-12-09T10:27:23.814910,"$WIMDA,29.7810,I,1.0085,B,-0.5,C,,,,,,,174.6,T,174.1,M,8.1,N,4.2,M*33"
2020-12-09T10:27:23.890025,"$GPZDA,092723.59,09,12,2020,00,00*6D"
2020-12-09T10:27:23.892373,"$HEROT,10.64,A*28"
2020-12-09T10:27:24.028406,"$YXXDR,C,-6.3,C,WCHR,C,-6.3,C,WCHT,C,,C,HINX,P,1.0077,B,STNP*4A"
2020-12-09T10:27:24.064419,"$HCHDT,256.1,T*29"
2020-12-09T10:27:24.144043,"$YXXDR,A,-4.0,D,PTCH,A,3.1,D,ROLL*76"
2020-12-09T10:27:24.176418,"$HEROT,13.77,A*29"
2020-12-09T10:27:24.181083,"$SDDPT,6.07,0.00,100.0*55"
2020-12-09T10:27:24.199083,"$WIMWV,282.2,R,8.7,N,A*26"
2020-12-09T10:27:24.234504,"$GPHDT,220.0,T*35"
2020-12-09T10:27:24.257609,"$SDDBT,19.91,f,6.07,M,3.31,F*06"
2020-12-09T10:27:24.279212,"$GPGGA,092722,5154.8028,N,00429.1968,E,2,07,01,+0007,M,+047,M,00,0000*6F"
2020-12-09T10:27:24.298313,"$YXMTW,36.9,C*1E"
2020-12-09T10:27:24.314779,"$GPRMC,092722,A,5154.8028,N,00429.1968,E,000.1,083.,091220,01.,E*47"
2020-12-09T10:27:24.336986,"$GPGLL,5154.8028,N,00429.1968,E,092722.00,A*06"
2020-12-09T10:27:24.356040,"$GPVTG,083.6,T,,,000.1,N,000.2,K*23"
2020-12-09T10:27:24.364599,"$GPROT,-0002.2,A*2C"
2020-12-09T10:27:24.381459,"$GPDTM,W84,,0,N,0,E,+0,W84*5A"
2020-12-09T10:27:24.402156,"$GPZDA,092723.00,09,12,2020,-02,00*4E"
2020-12-09T10:27:24.462476,"$HEROT,16.04,A*28"
2020-12-09T10:27:24.478765,"$GPGGA,092724.09,5154.8024,N,00429.1966,E,2,9,1.2,6.8,M,44.9,M,,*5D"
2020-12-09T10:27:24.516419,"$HCHDT,256.0,T*28"
2020-12-09T10:27:24.602422,"$GPVTG,319.3,T,318.8,M,0.1,N,0.1,K,D*2C"
2020-12-09T10:27:24.657126,"$WIMWV,283.8,R,9.6,N,A*2D"
2020-12-09T10:27:24.702794,"$VDVBW,000.40,,A,00.00,00.00,V,,V,00.00,V*72"
2020-12-09T10:27:24.748435,"$HEROT,16.56,A*2F"
2020-12-09T10:27:24.765462,"$VDVLW,9968.19,N,5898.20,N*57"
2020-12-09T10:27:24.808960,"$WIMDA,29.7810,I,1.0085,B,-0.5,C,,,,,,,179.5,T,179.0,M,9.6,N,4.9,M*3C"
2020-12-09T10:27:24.886183,"$GPZDA,092724.59,09,12,2020,00,00*6A"
2020-12-09T10:27:25.022454,"$YXXDR,C,-6.8,C,WCHR,C,-6.8,C,WCHT,C,,C,HINX,P,1.0077,B,STNP*4A"
2020-12-09T10:27:25.034445,"$HEROT,14.94,A*23"
2020-12-09T10:27:25.058451,"$HCHDT,255.8,T*23"
2020-12-09T10:27:25.140097,"$YXXDR,A,-3.7,D,PTCH,A,1.9,D,ROLL*7C"
2020-12-09T10:27:25.175201,"$SDDPT,6.07,0.00,100.0*55"
2020-12-09T10:27:25.195157,"$WIMWV,284.5,R,9.6,N,A*27"
2020-12-09T10:27:25.234480,"$GPHDT,220.1,T*34"
2020-12-09T10:27:25.253728,"$SDDBT,19.91,f,6.07,M,3.31,F*06"
2020-12-09T10:27:25.279232,"$GPGGA,092723,5154.8027,N,00429.1970,E,2,07,01,+0007,M,+047,M,00,0000*68"
2020-12-09T10:27:25.294409,"$YXMTW,36.8,C*1F"
2020-12-09T10:27:25.314852,"$GPRMC,092723,A,5154.8027,N,00429.1970,E,000.0,105.,091220,01.,E*4E"
2020-12-09T10:27:25.320447,"$HEROT,12.14,A*2D"
2020-12-09T10:27:25.336990,"$GPGLL,5154.8027,N,00429.1970,E,092723.00,A*01"
2020-12-09T10:27:25.356067,"$GPVTG,105.0,T,,,000.0,N,000.1,K*28"
2020-12-09T10:27:25.364718,"$GPROT,-0001.3,A*2E"
2020-12-09T10:27:25.381512,"$GPDTM,W84,,0,N,0,E,+0,W84*5A"
2020-12-09T10:27:25.402227,"$GPZDA,092724.00,09,12,2020,-02,00*49"
2020-12-09T10:27:25.480927,"$GPGGA,092725.09,5154.8024,N,00429.1966,E,2,10,0.9,6.9,M,44.9,M,,*6F"
2020-12-09T10:27:25.516464,"$HCHDT,255.8,T*23"
2020-12-09T10:27:25.604402,"$GPVTG,115.3,T,114.8,M,0.1,N,0.1,K,D*2C"
2020-12-09T10:27:25.606451,"$HEROT,9.68,A*1C"
2020-12-09T10:27:25.659169,"$WIMWV,283.7,R,9.4,N,A*20"
2020-12-09T10:27:25.702825,"$VDVBW,000.40,,A,00.00,00.00,V,,V,00.00,V*72"
2020-12-09T10:27:25.765530,"$VDVLW,9968.19,N,5898.20,N*57"
2020-12-09T10:27:25.811007,"$WIMDA,29.7810,I,1.0085,B,-0.5,C,,,,,,,180.1,T,179.6,M,9.3,N,4.8,M*3C"
2020-12-09T10:27:25.886187,"$GPZDA,092725.59,09,12,2020,00,00*6B"
2020-12-09T10:27:25.890415,"$HEROT,8.72,A*16"
2020-12-09T10:27:26.024510,"$YXXDR,C,-6.6,C,WCHR,C,-6.6,C,WCHT,C,,C,HINX,P,1.0077,B,STNP*4A"
2020-12-09T10:27:26.060526,"$HCHDT,255.9,T*22"
2020-12-09T10:27:26.142255,"$YXXDR,A,-4.2,D,PTCH,A,-0.3,D,ROLL*58"
2020-12-09T10:27:26.177207,"$SDDPT,6.12,0.00,100.0*51"
2020-12-09T10:27:26.180417,"$HEROT,9.02,A*10"
2020-12-09T10:27:26.197194,"$WIMWV,284.9,R,9.0,N,A*2D"
2020-12-09T10:27:26.234530,"$GPHDT,220.1,T*34"
2020-12-09T10:27:26.255726,"$SDDBT,20.08,f,6.12,M,3.34,F*0D"
2020-12-09T10:27:26.279294,"$GPGGA,092724,5154.8025,N,00429.1972,E,2,08,01,+0007,M,+047,M,00,0000*60"
2020-12-09T10:27:26.296438,"$YXMTW,36.8,C*1F"
2020-12-09T10:27:26.314935,"$GPRMC,092724,A,5154.8025,N,00429.1972,E,000.1,055.,091220,01.,E*4C"
2020-12-09T10:27:26.337039,"$GPGLL,5154.8025,N,00429.1972,E,092724.00,A*06"
2020-12-09T10:27:26.356078,"$GPVTG,055.1,T,,,000.1,N,000.1,K*2C"
2020-12-09T10:27:26.364777,"$GPROT,-0001.1,A*2C"
2020-12-09T10:27:26.381586,"$GPDTM,W84,,0,N,0,E,+0,W84*5A"
2020-12-09T10:27:26.402281,"$GPZDA,092725.00,09,12,2020,-02,00*48"
2020-12-09T10:27:26.462440,"$HEROT,9.73,A*16"
2020-12-09T10:27:26.478941,"$GPGGA,092726.09,5154.8023,N,00429.1966,E,2,9,1.2,6.8,M,44.9,M,,*58"
2020-12-09T10:27:26.514543,"$HCHDT,255.9,T*22"
2020-12-09T10:27:26.602445,"$GPVTG,124.5,T,124.0,M,0.1,N,0.1,K,D*23"
2020-12-09T10:27:26.657227,"$WIMWV,285.6,R,8.9,N,A*2B"
2020-12-09T10:27:26.748630,"$HEROT,10.42,A*2C"
2020-12-09T10:27:26.809107,"$WIMDA,29.7780,I,1.0084,B,-0.5,C,,,,,,,182.1,T,181.6,M,8.8,N,4.5,M*39"
2020-12-09T10:27:26.824945,"$VDVBW,000.40,,A,00.00,00.00,V,,V,00.00,V*72"
2020-12-09T10:27:26.884201,"$GPZDA,092726.59,09,12,2020,00,00*68"
2020-12-09T10:27:26.887582,"$VDVLW,9968.19,N,5898.20,N*57"
2020-12-09T10:27:27.022573,"$YXXDR,C,-6.4,C,WCHR,C,-6.4,C,WCHT,C,,C,HINX,P,1.0076,B,STNP*4B"
2020-12-09T10:27:27.034550,"$HEROT,10.21,A*29"
2020-12-09T10:27:27.058576,"$HCHDT,256.0,T*28"
2020-12-09T10:27:27.140311,"$YXXDR,A,-4.3,D,PTCH,A,-0.9,D,ROLL*53"
2020-12-09T10:27:27.179308,"$SDDPT,5.95,0.00,100.0*5D"
2020-12-09T10:27:27.195261,"$WIMWV,285.2,R,8.8,N,A*2E"
2020-12-09T10:27:27.234595,"$GPHDT,220.1,T*34"
2020-12-09T10:27:27.257775,"$SDDBT,19.52,f,5.95,M,3.25,F*04"
2020-12-09T10:27:27.279355,"$GPGGA,092725,5154.8022,N,00429.1966,E,2,08,01,+0007,M,+047,M,00,0000*63"
2020-12-09T10:27:27.298490,"$YXMTW,36.9,C*1E"
2020-12-09T10:27:27.314987,"$GPRMC,092725,A,5154.8022,N,00429.1966,E,000.0,005.,091220,01.,E*4B"
2020-12-09T10:27:27.318504,"$HEROT,8.84,A*1F"
2020-12-09T10:27:27.337108,"$GPGLL,5154.8022,N,00429.1966,E,092725.00,A*05"
2020-12-09T10:27:27.356158,"$GPVTG,005.7,T,,,000.0,N,000.1,K*2E"
2020-12-09T10:27:27.364795,"$GPROT,-0001.2,A*2F"
2020-12-09T10:27:27.381662,"$GPDTM,W84,,0,N,0,E,+0,W84*5A"
2020-12-09T10:27:27.402349,"$GPZDA,092726.00,09,12,2020,-02,00*4B"
2020-12-09T10:27:27.481064,"$GPGGA,092727.09,5154.8023,N,00429.1966,E,2,10,0.9,6.8,M,44.9,M,,*6B"
2020-12-09T10:27:27.516585,"$HCHDT,256.1,T*29"
2020-12-09T10:27:27.604511,"$GPVTG,127.6,T,127.1,M,0.0,N,0.0,K,D*21"
2020-12-09T10:27:27.606514,"$HEROT,7.11,A*1C"
2020-12-09T10:27:27.659346,"$WIMWV,289.8,R,8.3,N,A*23"
2020-12-09T10:27:27.710953,"$VDVBW,000.39,,A,00.00,00.00,V,,V,00.00,V*7C"
2020-12-09T10:27:27.773644,"$VDVLW,9968.19,N,5898.20,N*57"
2020-12-09T10:27:27.811252,"$WIMDA,29.7810,I,1.0085,B,-0.5,C,,,,,,,185.9,T,185.4,M,8.3,N,4.3,M*3A"
2020-12-09T10:27:27.886382,"$GPZDA,092727.59,09,12,2020,00,00*69"
2020-12-09T10:27:27.888607,"$HEROT,6.21,A*1E"
2020-12-09T10:27:28.024609,"$YXXDR,C,-6.2,C,WCHR,C,-6.1,C,WCHT,C,,C,HINX,P,1.0077,B,STNP*49"
2020-12-09T10:27:28.058639,"$HCHDT,256.3,T*2B"
2020-12-09T10:27:28.140290,"$YXXDR,A,-4.1,D,PTCH,A,0.4,D,ROLL*71"
2020-12-09T10:27:28.175315,"$SDDPT,6.01,0.00,100.0*53"
2020-12-09T10:27:28.178529,"$HEROT,6.67,A*1C"
2020-12-09T10:27:28.195328,"$WIMWV,295.3,R,7.9,N,A*20"
2020-12-09T10:27:28.234629,"$GPHDT,220.0,T*35"
2020-12-09T10:27:28.253865,"$SDDBT,19.72,f,6.01,M,3.28,F*05"
2020-12-09T10:27:28.279392,"$GPGGA,092726,5154.8026,N,00429.1968,E,2,08,01,+0007,M,+047,M,00,0000*6A"
2020-12-09T10:27:28.294545,"$YXMTW,36.8,C*1F"
2020-12-09T10:27:28.315016,"$GPRMC,092726,A,5154.8026,N,00429.1968,E,000.1,029.,091220,01.,E*4D"
2020-12-09T10:27:28.337164,"$GPGLL,5154.8026,N,00429.1968,E,092726.00,A*0C"
2020-12-09T10:27:28.356196,"$GPVTG,029.0,T,,,000.1,N,000.1,K*26"
2020-12-09T10:27:28.364815,"$GPROT,-0002.0,A*2E"
2020-12-09T10:27:28.381707,"$GPDTM,W84,,0,N,0,E,+0,W84*5A"
2020-12-09T10:27:28.402370,"$GPZDA,092727.00,09,12,2020,-02,00*4A"
2020-12-09T10:27:28.460548,"$HEROT,8.43,A*14"
2020-12-09T10:27:28.481067,"$GPGGA,092728.09,5154.8023,N,00429.1966,E,2,10,0.9,6.8,M,44.9,M,,*64"
2020-12-09T10:27:28.516642,"$HCHDT,256.3,T*2B"
2020-12-09T10:27:28.604550,"$GPVTG,310.2,T,309.7,M,0.1,N,0.1,K,D*2B"
2020-12-09T10:27:28.659346,"$WIMWV,304.1,R,9.1,N,A*2D"
2020-12-09T10:27:28.701007,"$VDVBW,000.39,,A,00.00,00.00,V,,V,00.00,V*7C"
2020-12-09T10:27:28.748652,"$HEROT,11.06,A*2D"
2020-12-09T10:27:28.765792,"$VDVLW,9968.19,N,5898.20,N*57"
2020-12-09T10:27:28.811177,"$WIMDA,29.7780,I,1.0084,B,-0.5,C,,,,,,,199.9,T,199.4,M,9.1,N,4.7,M*3A"
2020-12-09T10:27:28.886307,"$GPZDA,092728.59,09,12,2020,00,00*66"
2020-12-09T10:27:29.024679,"$YXXDR,C,-6.7,C,WCHR,C,-6.7,C,WCHT,C,,C,HINX,P,1.0076,B,STNP*4B"
2020-12-09T10:27:29.034708,"$HEROT,13.56,A*2A"
2020-12-09T10:27:29.058724,"$HCHDT,256.3,T*2B"
2020-12-09T10:27:29.140378,"$YXXDR,A,-4.5,D,PTCH,A,3.1,D,ROLL*73"
2020-12-09T10:27:29.177372,"$SDDPT,6.06,0.00,100.0*54"
2020-12-09T10:27:29.195370,"$WIMWV,301.6,R,9.4,N,A*2A"
2020-12-09T10:27:29.255972,"$SDDBT,19.88,f,6.06,M,3.31,F*0F"
2020-12-09T10:27:29.258707,"$GPHDT,220.0,T*35"
2020-12-09T10:27:29.299467,"$GPGGA,092727,5154.8027,N,00429.1967,E,2,08,01,+0007,M,+047,M,00,0000*65"
2020-12-09T10:27:29.301041,"$YXMTW,36.9,C*1E"
2020-12-09T10:27:29.320689,"$HEROT,14.68,A*20"
2020-12-09T10:27:29.335047,"$GPRMC,092727,A,5154.8027,N,00429.1967,E,000.1,091.,091220,01.,E*41"
2020-12-09T10:27:29.357234,"$GPGLL,5154.8027,N,00429.1967,E,092727.00,A*03"
2020-12-09T10:27:29.376282,"$GPVTG,091.8,T,,,000.1,N,000.1,K*2D"
2020-12-09T10:27:29.384974,"$GPROT,-0001.7,A*2A"
2020-12-09T10:27:29.401750,"$GPDTM,W84,,0,N,0,E,+0,W84*5A"
2020-12-09T10:27:29.422467,"$GPZDA,092728.00,09,12,2020,-02,00*45"
2020-12-09T10:27:29.483122,"$GPGGA,092729.09,5154.8023,N,00429.1967,E,2,10,0.9,6.8,M,44.9,M,,*64"
2020-12-09T10:27:29.516743,"$HCHDT,256.0,T*28"
2020-12-09T10:27:29.604620,"$GPVTG,329.4,T,328.9,M,0.1,N,0.1,K,D*2A"
2020-12-09T10:27:29.606703,"$HEROT,15.03,A*2C"
2020-12-09T10:27:29.659400,"$WIMWV,291.3,R,8.4,N,A*26"
2020-12-09T10:27:29.709047,"$VDVBW,000.39,,A,00.00,00.00,V,,V,00.00,V*7C"
2020-12-09T10:27:29.771753,"$VDVLW,9968.19,N,5898.20,N*57"
2020-12-09T10:27:29.811251,"$WIMDA,29.7780,I,1.0084,B,-0.5,C,,,,,,,187.0,T,186.5,M,8.4,N,4.3,M*33"
2020-12-09T10:27:29.886376,"$GPZDA,092729.59,09,12,2020,00,00*67"
2020-12-09T10:27:29.892822,"$HEROT,15.06,A*29"
2020-12-09T10:27:30.024768,"$YXXDR,C,-6.4,C,WCHR,C,-6.4,C,WCHT,C,,C,HINX,P,1.0076,B,STNP*4B"
2020-12-09T10:27:30.060750,"$HCHDT,255.7,T*2C"
2020-12-09T10:27:30.140427,"$YXXDR,A,-3.7,D,PTCH,A,2.0,D,ROLL*76"
