timestamp,payload,time,lat,lon,hdg,rsa_0,rpm_0,rsa_2,rpm_2,rsa_1,rpm_1
2020-09-11 10:45:37.227904,"$GPRMC,084542,A,5153.7361,N,00428.6504,E,007.4,083.,110920,01.,E*43",2020-09-11 10:45:37.227904,51.537361000000004,4.2865,,180.0,0.0,180.0,0.0,180.0,0.0
2020-09-11 10:45:37.427892,"$GPRMC,084542,A,5153.7361,N,00428.6511,E,007.4,083.,110920,01.,E*47",2020-09-11 10:45:37.427892,51.537361000000004,4.28651,83.0,538.56,12456.428817261234,539.94,8798.413519955911,539.7836542805642,8154.643426491822
2020-09-11 10:45:37.627926,"$GPRMC,084542,A,5153.7361,N,00428.6517,E,007.4,083.,110920,01.,E*41",2020-09-11 10:45:37.627926,51.537361000000004,4.28651,83.01118511782224,538.56,12519.977907207625,539.94,8698.799624187455,539.8098821047612,8138.1582309776695
2020-09-11 10:45:37.827914,"$GPRMC,084543,A,5153.7361,N,00428.6524,E,007.4,083.,110920,01.,E*40",2020-09-11 10:45:37.827914,51.537361000000004,4.286519999999999,83.1,538.56,12510.347144756068,539.94,8453.029839086092,539.7833903822653,8129.493301705711
2020-09-11 10:45:38.027926,"$GPRMC,084543,A,5153.7362,N,00428.6531,E,007.4,083.,110920,01.,E*47",2020-09-11 10:45:38.027926,51.537362,4.28653,83.1,538.56,12473.582929512144,539.94,8239.33850944842,539.7831270380998,8107.345216888375
2020-09-11 10:45:38.217939,"$GPRMC,084543,A,5153.7362,N,00428.6538,E,007.4,083.,110920,01.,E*4E",2020-09-11 10:45:38.217939,51.537362,4.28653,83.1,538.56,12456.00848602564,539.94,8080.098488578742,539.8083406591584,8072.177975708502
2020-09-11 10:45:38.417994,"$GPRMC,084543,A,5153.7363,N,00428.6544,E,007.4,083.,110920,01.,E*44",2020-09-11 10:45:38.417994,51.537363,4.28654,83.1,538.56,12475.621979231548,539.94,8045.273038543013,539.8286294992732,8092.088498926903
2020-09-11 10:45:38.617994,"$GPRMC,084543,A,5153.7363,N,00428.6551,E,007.4,083.,110920,01.,E*40",2020-09-11 10:45:38.617994,51.537363,4.28655,83.11117776744604,538.5639981455695,12490.177985139106,539.94,8030.14950814449,539.8399999999999,8115.649653565192
2020-09-11 10:45:38.817951,"$GPRMC,084544,A,5153.7364,N,00428.6558,E,007.4,083.,110920,01.,E*49",2020-09-11 10:45:38.817951,51.537364,4.28655,83.2,538.583792079404,12261.597984873257,539.94,8014.222390377952,539.8399999999999,8136.77119788211
2020-09-11 10:45:39.017969,"$GPRMC,084544,A,5153.7364,N,00428.6564,E,007.4,083.,110920,01.,E*46",2020-09-11 10:45:39.017969,51.537364,4.28656,83.2,538.5899999999999,12305.316930803498,539.930741515035,8045.555728485137,539.8399999999999,8141.958329613059
2020-09-11 10:45:39.213964,"$GPRMC,084544,A,5153.7365,N,00428.6571,E,007.4,083.,110920,01.,E*43",2020-09-11 10:45:39.213964,51.537365,4.28657,83.21116916231283,538.5868184603562,12506.313494653761,539.9112607180248,8057.622972857209,539.8399999999999,8141.599396174447
2020-09-11 10:45:39.415984,"$GPRMC,084544,A,5153.7365,N,00428.6577,E,007.4,083.,110920,01.,E*45",2020-09-11 10:45:39.415984,51.537365,4.28657,83.3,538.5667436676262,12485.562668778433,539.9287303754265,8016.354464162158,539.8399999999999,8134.911630924873
2020-09-11 10:45:39.614000,"$GPRMC,084544,A,5153.7366,N,00428.6584,E,007.4,083.,110920,01.,E*4A",2020-09-11 10:45:39.614000,51.537366,4.28658,83.31116964647197,538.56,12374.958213122998,539.94,8015.977416458787,539.8399999999999,8113.541821672867
2020-09-11 10:45:39.814006,"$GPRMC,084545,A,5153.7367,N,00428.6590,E,007.4,083.,110920,01.,E*4F",2020-09-11 10:45:39.814006,51.537367,4.28659,83.4,538.56,12217.711411514083,539.94,8032.753634413727,539.8399999999999,8107.858464243142
2020-09-11 10:45:40.014044,"$GPRMC,084545,A,5153.7367,N,00428.6597,E,007.4,083.,110920,01.,E*48",2020-09-11 10:45:40.014044,51.537367,4.28659,83.41115889486186,538.56,12374.225376745653,539.9218483638789,8068.508758341278,539.8399999999999,8135.832639661177
2020-09-11 10:45:40.214056,"$GPRMC,084545,A,5153.7368,N,00428.6603,E,007.4,083.,110920,01.,E*49",2020-09-11 10:45:40.214056,51.537367999999994,4.2866,83.5,538.57240663611,12480.44972575273,539.9181165258696,8047.191699630933,539.8570776486386,8125.863166427471
2020-09-11 10:45:40.416038,"$GPRMC,084545,A,5153.7368,N,00428.6610,E,007.4,083.,110920,01.,E*4B",2020-09-11 10:45:40.416038,51.537367999999994,4.28661,83.5121595899342,538.5899999999999,12540.161728116562,539.9383574341862,8031.597330201475,539.8628403785281,8113.824479416087
2020-09-11 10:45:40.614044,"$GPRMC,084545,A,5153.7370,N,00428.6617,E,007.4,083.,110920,01.,E*45",2020-09-11 10:45:40.614044,51.53737,4.28661,83.61109976881735,538.5899999999999,12497.465087347979,539.94,8067.625814669004,539.8432539237668,8110.554733556814
2020-09-11 10:45:40.814053,"$GPRMC,084546,A,5153.7370,N,00428.6623,E,007.4,083.,110920,01.,E*41",2020-09-11 10:45:40.814053,51.53737,4.28662,83.71117382957023,538.5778910460467,12373.523558955596,539.94,8057.645572386392,539.856574494674,8121.403526060412
2020-09-11 10:45:41.014057,"$GPRMC,084546,A,5153.7371,N,00428.6630,E,007.4,083.,110920,01.,E*42",2020-09-11 10:45:41.014057,51.537371,4.28663,83.81116809885874,538.5619701619189,12184.125073954172,539.94,8032.739662685872,539.8635560407133,8133.821618968867
2020-09-11 10:45:41.214075,"$GPRMC,084546,A,5153.7371,N,00428.6636,E,007.4,083.,110920,01.,E*44",2020-09-11 10:45:41.214075,51.537371,4.28663,83.91115866952018,538.5817061185826,12324.401340149305,539.94,8004.793965603273,539.8436162534517,8143.234294012061
2020-09-11 10:45:41.416098,"$GPRMC,084546,A,5153.7372,N,00428.6643,E,007.4,083.,110920,01.,E*45",2020-09-11 10:45:41.416098,51.537372,4.28664,84.01217623057383,538.5782926272541,12314.231643945097,539.94,8022.433733980209,539.8561719039659,8147.164649531711
2020-09-11 10:45:41.614111,"$GPRMC,084546,A,5153.7372,N,00428.6650,E,007.4,082.,110920,01.,E*46",2020-09-11 10:45:41.614111,51.537372,4.28665,84.11118676945536,538.56,12169.930420888983,539.94,8040.385130744287,539.864295275032,8133.934658012915
2020-09-11 10:45:41.814107,"$GPRMC,084547,A,5153.7372,N,00428.6656,E,007.4,082.,110920,01.,E*41",2020-09-11 10:45:41.814107,51.537372,4.28665,84.21117444127793,538.56,12163.300814463439,539.94,8017.954365674965,539.8440255471247,8082.461920961372
2020-09-11 10:45:42.014125,"$GPRMC,084547,A,5153.7373,N,00428.6663,E,007.4,082.,110920,01.,E*46",2020-09-11 10:45:42.014125,51.537372999999995,4.28666,84.31117804986576,538.56,12285.480523439805,539.94,8028.613407650302,539.8399999999999,8087.000653972301
2020-09-11 10:45:42.214125,"$GPRMC,084547,A,5153.7373,N,00428.6669,E,007.4,082.,110920,01.,E*4C",2020-09-11 10:45:42.214125,51.537372999999995,4.28666,84.41116424802111,538.56,12535.337203792255,539.94,8040.660126254376,539.8455193806194,8101.290385665652
2020-09-11 10:45:42.416133,"$GPRMC,084547,A,5153.7373,N,00428.6676,E,007.4,082.,110920,01.,E*42",2020-09-11 10:45:42.416133,51.537372999999995,4.28667,84.52424791156021,538.56,12317.45041051613,539.94,8017.328871861378,539.8657000000001,8098.647884283953
2020-09-11 10:45:42.614160,"$GPRMC,084547,A,5153.7374,N,00428.6682,E,007.4,082.,110920,01.,E*4E",2020-09-11 10:45:42.614160,51.537374,4.2866800000000005,84.7111734803537,538.570610365465,12258.800781314498,539.94,8007.686999593562,539.854561039996,8131.027273119579
2020-09-11 10:45:42.814147,"$GPRMC,084548,A,5153.7374,N,00428.6689,E,007.4,083.,110920,01.,E*4B",2020-09-11 10:45:42.814147,51.537374,4.2866800000000005,84.82228468540562,538.5893676197427,12362.484976372336,539.94,8008.579822116023,539.8453777638617,8162.286459142917
2020-09-11 10:45:43.014156,"$GPRMC,084548,A,5153.7374,N,00428.6696,E,007.4,083.,110920,01.,E*45",2020-09-11 10:45:43.014156,51.537374,4.28669,85.01116964647197,538.5694649064615,12357.25950005123,539.9228805399429,8031.148207885305,539.8653644067233,8150.796893902018
2020-09-11 10:45:43.214181,"$GPRMC,084548,A,5153.7375,N,00428.6702,E,007.4,083.,110920,01.,E*48",2020-09-11 10:45:43.214181,51.537375000000004,4.2867,85.12230210791567,538.56,12346.272045982021,539.916940416912,8028.35011941362,539.8546861699476,8124.385153485036
2020-09-11 10:45:43.416180,"$GPRMC,084548,A,5153.7375,N,00428.6709,E,007.4,083.,110920,01.,E*43",2020-09-11 10:45:43.416180,51.537375000000004,4.2867,85.32429424294243,538.56,12331.600658300897,539.9370973825751,8006.962278037538,539.7025378883138,8103.923668680044
2020-09-11 10:45:43.614193,"$GPRMC,084548,A,5153.7375,N,00428.6716,E,007.4,083.,110920,01.,E*4D",2020-09-11 10:45:43.614193,51.537375000000004,4.28671,85.51115622921553,538.56,12320.938962110642,539.6763456889337,7954.866782560045,539.2045634074996,8115.028214779359
2020-09-11 10:45:43.814202,"$GPRMC,084549,A,5153.7375,N,00428.6722,E,007.4,083.,110920,01.,E*4B",2020-09-11 10:45:43.814202,51.537375000000004,4.28672,85.6223418506078,538.5700220934636,12384.72992461162,538.9732476263082,7918.685573484403,538.6662304912027,8120.913804949592
2020-09-11 10:45:44.014234,"$GPRMC,084549,A,5153.7376,N,00428.6728,E,007.4,083.,110920,01.,E*42",2020-09-11 10:45:44.014234,51.537376,4.28672,85.82232224572775,538.5899592350678,12543.223377028093,537.5077101670247,7866.606974217195,538.1384772318863,8112.995980811187
2020-09-11 10:45:44.214228,"$GPRMC,084549,A,5153.7376,N,00428.6735,E,007.4,083.,110920,01.,E*4E",2020-09-11 10:45:44.214228,51.537376,4.28673,86.0111731341046,538.5701540924489,12499.669537336371,536.275775984592,7696.476800792192,537.6801060264336,8063.3369828274035
2020-09-11 10:45:44.416218,"$GPRMC,084549,A,5153.7377,N,00428.6742,E,007.4,083.,110920,01.,E*4F",2020-09-11 10:45:44.416218,51.537377,4.28674,86.11212337912376,538.56,12393.822463336115,535.3230759511996,7472.742629823821,537.1840252666391,7891.511414014425
2020-09-11 10:45:44.614226,"$GPRMC,084549,A,5153.7377,N,00428.6749,E,007.4,083.,110920,01.,E*44",2020-09-11 10:45:44.614226,51.537377,4.28674,86.2222827798973,538.56,12228.560033385,534.8800642248924,7248.798218706901,536.6950003483037,7668.940744963518
2020-09-11 10:45:44.814244,"$GPRMC,084550,A,5153.7377,N,00428.6755,E,007.4,084.,110920,01.,E*46",2020-09-11 10:45:44.814244,51.537377,4.2867500000000005,86.42230655386892,538.57938350824,12330.763428754155,534.9011096649843,7133.801412405909,536.2305535376051,7418.609426550423
2020-09-11 10:45:45.014255,"$GPRMC,084550,A,5153.7377,N,00428.6762,E,007.4,084.,110920,01.,E*42",2020-09-11 10:45:45.014255,51.537377,4.28676,86.61115867380107,538.5806624411096,12347.765100382898,535.2979216583925,7086.259172547137,535.7713363788146,7174.110006041735
2020-09-11 10:45:45.214256,"$GPRMC,084550,A,5153.7378,N,00428.6768,E,007.4,084.,110920,01.,E*47",2020-09-11 10:45:45.214256,51.537378,4.28676,86.72234053189362,538.5606570730292,12206.36606968823,536.3284766689458,7076.352743949819,535.3654135935626,6955.04448438777
2020-09-11 10:45:45.416292,"$GPRMC,084550,A,5153.7378,N,00428.6775,E,007.4,084.,110920,01.,E*4B",2020-09-11 10:45:45.416292,51.537378,4.286770000000001,86.92434319088719,538.5794582299147,12402.177834072198,537.1460483357157,7079.024921551835,535.1505266849031,6846.9722541547335
2020-09-11 10:45:45.614273,"$GPRMC,084550,A,5153.7378,N,00428.6782,E,007.4,084.,110920,01.,E*43",2020-09-11 10:45:45.614273,51.537378,4.28678,87.11117011170111,538.5808473397012,12463.887039086696,537.8732866595064,7083.717380898563,535.0899999999999,6872.980152651551
2020-09-11 10:45:45.814317,"$GPRMC,084551,A,5153.7378,N,00428.6788,E,007.4,084.,110920,01.,E*48",2020-09-11 10:45:45.814317,51.537378,4.28678,87.22238398544131,538.560964029063,12275.325577958269,538.5762005913787,7086.894236905078,535.0899999999999,6986.964867838847
2020-09-11 10:45:46.014299,"$GPRMC,084551,A,5153.7378,N,00428.6795,E,007.4,084.,110920,01.,E*44",2020-09-11 10:45:46.014299,51.537378,4.28679,87.42234709487767,538.56,12424.702063973524,539.228440903116,7068.9484977399625,535.0899999999999,7223.640184570173
2020-09-11 10:45:46.214305,"$GPRMC,084551,A,5153.7379,N,00428.6801,E,007.4,084.,110920,01.,E*47",2020-09-11 10:45:46.214305,51.537379,4.2868,87.61116527913197,538.5688257222739,12533.145374973556,539.730805644826,7125.101574771968,535.0899999999999,7305.714281461586
2020-09-11 10:45:46.416310,"$GPRMC,084551,A,5153.7379,N,00428.6808,E,007.4,084.,110920,01.,E*4E",2020-09-11 10:45:46.416310,51.537379,4.2868,87.7243368362113,538.588853582122,12493.081975883224,539.8174532952348,7229.842628486931,535.0899999999999,7307.014780847746
2020-09-11 10:45:46.614309,"$GPRMC,084551,A,5153.7379,N,00428.6814,E,007.4,084.,110920,01.,E*43",2020-09-11 10:45:46.614309,51.537379,4.28681,87.92231545470003,538.5714464465793,12333.224008384877,539.8399999999999,7338.646331228519,535.0899999999999,7327.425216226013
2020-09-11 10:45:46.814402,"$GPRMC,084552,A,5153.7379,N,00428.6820,E,007.4,085.,110920,01.,E*46",2020-09-11 10:45:46.814402,51.537379,4.2868200000000005,88.12242463630454,538.56,12290.161779648955,539.8399999999999,7383.791194589239,535.0899999999999,7328.739731942723
2020-09-11 10:45:47.014401,"$GPRMC,084552,A,5153.7380,N,00428.6827,E,007.4,085.,110920,01.,E*47",2020-09-11 10:45:47.014401,51.537380000000006,4.2868200000000005,88.32239599218035,538.56,12485.442919699331,539.8399999999999,7384.647843477102,535.0899999999999,7320.0
2020-09-11 10:45:47.214397,"$GPRMC,084552,A,5153.7380,N,00428.6833,E,007.4,085.,110920,01.,E*42",2020-09-11 10:45:47.214397,51.537380000000006,4.28683,88.51119127256729,538.5782975725336,12320.412822379818,539.8399999999999,7380.648190120659,535.0899999999999,7320.0
2020-09-11 10:45:47.416399,"$GPRMC,084552,A,5153.7380,N,00428.6840,E,007.3,085.,110920,01.,E*41",2020-09-11 10:45:47.416399,51.537380000000006,4.286840000000001,88.6243708066274,538.581644313706,12233.462492612734,539.8399999999999,7378.603438784985,535.0899999999999,7351.61687865645
2020-09-11 10:45:47.614395,"$GPRMC,084552,A,5153.7381,N,00428.6846,E,007.3,085.,110920,01.,E*46",2020-09-11 10:45:47.614395,51.537380999999996,4.286840000000001,88.82235301177106,538.5619009822008,12399.77718679655,539.8399999999999,7378.580084913112,535.0899999999999,7396.566770103967
2020-09-11 10:45:47.814397,"$GPRMC,084553,A,5153.7381,N,00428.6853,E,007.3,085.,110920,01.,E*43",2020-09-11 10:45:47.814397,51.537380999999996,4.28685,89.02236484966635,538.56,12473.476661493201,539.8260674691742,7385.820810294892,535.0899999999999,7381.316246286866
2020-09-11 10:45:48.014397,"$GPRMC,084553,A,5153.7381,N,00428.6859,E,007.3,085.,110920,01.,E*49",2020-09-11 10:45:48.014397,51.537380999999996,4.28685,89.23128235799862,538.6821133783521,12441.105788230918,539.8138840620143,7386.768543259317,535.0899999999999,7388.475853411675
2020-09-11 10:45:48.228391,"$GPRMC,084553,A,5153.7381,N,00428.6866,E,007.3,085.,110920,01.,E*45",2020-09-11 10:45:48.228391,51.537380999999996,4.28686,89.52229978398272,539.0102134510137,12216.530452225259,539.8352058507035,7381.371463943257,535.0899999999999,7406.801418838657
2020-09-11 10:45:48.428398,"$GPRMC,084553,A,5153.7381,N,00428.6872,E,007.3,085.,110920,01.,E*40",2020-09-11 10:45:48.428398,51.537380999999996,4.28687,89.71116128128969,310.69721355007476,12391.263175159625,539.8399999999999,7368.094709730524,535.0899999999999,7382.976801590899
2020-09-11 10:45:48.628394,"$GPRMC,084553,A,5153.7381,N,00428.6879,E,007.3,085.,110920,01.,E*4B",2020-09-11 10:45:48.628394,51.537380999999996,4.28687,89.82233189327573,182.0910479877644,12488.73625544171,539.8450076766876,7372.030978860034,535.0899999999999,7370.677491911057
2020-09-11 10:45:48.828394,"$GPRMC,084554,A,5153.7381,N,00428.6885,E,007.3,085.,110920,01.,E*4F",2020-09-11 10:45:48.828394,51.537380999999996,4.28688,90.01116877402968,184.2910790392537,12395.378865475974,539.8648184834827,7384.9238470321525,535.0899999999999,7369.262578747029
2020-09-11 10:45:49.028467,"$GPRMC,084554,A,5153.7381,N,00428.6892,E,007.3,085.,110920,01.,E*49",2020-09-11 10:45:49.028467,51.537380999999996,4.2868900000000005,90.1117890714639,186.31746412955846,12204.823183938133,539.8553064735324,7384.2616935016795,535.0899999999999,7395.867588637157
2020-09-11 10:45:49.218429,"$GPRMC,084554,A,5153.7381,N,00428.6898,E,007.3,086.,110920,01.,E*40",2020-09-11 10:45:49.218429,51.537380999999996,4.2868900000000005,90.2111793200326,188.29328752003437,12014.642854528454,539.8399999999999,7381.057791486327,535.0899999999999,7389.39059311489
2020-09-11 10:45:49.418428,"$GPRMC,084554,A,5153.7381,N,00428.6905,E,007.3,086.,110920,01.,E*45",2020-09-11 10:45:49.418428,51.537380999999996,4.2869,90.3,190.46772849093702,11821.653365853334,539.8399999999999,7376.899151936918,535.0899999999999,7362.85686479223
2020-09-11 10:45:49.618429,"$GPRMC,084554,A,5153.7381,N,00428.6911,E,007.3,086.,110920,01.,E*40",2020-09-11 10:45:49.618429,51.537380999999996,4.28691,90.3,192.22189023473896,11558.131497746637,539.8399999999999,7396.083202132727,535.0899999999999,7376.6896047478995
2020-09-11 10:45:49.818490,"$GPRMC,084555,A,5153.7381,N,00428.6918,E,007.3,086.,110920,01.,E*48",2020-09-11 10:45:49.818490,51.537380999999996,4.28691,90.3,193.8139803003019,11304.885432384988,539.8399999999999,7382.864229138331,535.0899999999999,7379.403981256898
2020-09-11 10:45:50.018455,"$GPRMC,084555,A,5153.7381,N,00428.6925,E,007.3,086.,110920,01.,E*46",2020-09-11 10:45:50.018455,51.537380999999996,4.28692,90.29140928927517,195.2359021401694,11111.719217073552,539.8399999999999,7343.797993643226,535.0887693441415,7373.020450379073
2020-09-11 10:45:50.214447,"$GPRMC,084555,A,5153.7381,N,00428.6931,E,007.3,087.,110920,01.,E*42",2020-09-11 10:45:50.214447,51.537380999999996,4.28693,90.17765636793514,196.59651162790698,11221.055771210753,539.8399999999999,7365.860395974043,535.0692517277779,7373.670168436337
2020-09-11 10:45:50.416451,"$GPRMC,084555,A,5153.7381,N,00428.6937,E,007.3,087.,110920,01.,E*44",2020-09-11 10:45:50.416451,51.537380999999996,4.28693,89.9757040933158,197.83633460086085,11307.863990342275,539.8399999999999,7384.851021611523,535.0707889480034,7378.414350072877
2020-09-11 10:45:50.614470,"$GPRMC,084555,A,5153.7380,N,00428.6943,E,007.3,087.,110920,01.,E*46",2020-09-11 10:45:50.614470,51.537380000000006,4.28694,89.77769344613107,198.7514188386279,11136.086457745805,539.8399999999999,7399.938133538274,535.0899999999999,7386.94173512654
2020-09-11 10:45:50.814469,"$GPRMC,084556,A,5153.7379,N,00428.6949,E,007.3,087.,110920,01.,E*49",2020-09-11 10:45:50.814469,51.537379,4.28694,89.56654432354588,199.16778380978107,11227.545963026187,539.8399999999999,7376.222707814536,535.0899999999999,7378.405357012108
2020-09-11 10:45:51.014483,"$GPRMC,084556,A,5153.7379,N,00428.6955,E,007.3,087.,110920,01.,E*44",2020-09-11 10:45:51.014483,51.537379,4.28695,89.25533488337209,199.19374246629658,11351.052769019672,539.8399999999999,7378.567548746518,535.0899999999999,7375.954025199577
2020-09-11 10:45:51.214489,"$GPRMC,084556,A,5153.7379,N,00428.6962,E,007.3,088.,110920,01.,E*4F",2020-09-11 10:45:51.214489,51.537379,4.2869600000000005,88.85531980842491,198.57252372455724,11323.144120588324,539.8399999999999,7408.41325109431,535.0899999999999,7379.934072494387
2020-09-11 10:45:51.418494,"$GPRMC,084556,A,5153.7379,N,00428.6968,E,007.3,088.,110920,01.,E*45",2020-09-11 10:45:51.418494,51.537379,4.2869600000000005,88.44736336912833,196.92550981014332,11244.426218152552,539.8399999999999,7393.772736598279,535.0899999999999,7376.694490928017
2020-09-11 10:45:51.614509,"$GPRMC,084556,A,5153.7379,N,00428.6975,E,007.3,088.,110920,01.,E*49",2020-09-11 10:45:51.614509,51.537379,4.28697,88.04421913286993,195.19905632772495,11199.180661408533,539.8399999999999,7381.956468588807,535.0899999999999,7378.720798612383
2020-09-11 10:45:51.814527,"$GPRMC,084557,A,5153.7379,N,00428.6980,E,007.3,088.,110920,01.,E*42",2020-09-11 10:45:51.814527,51.537379,4.28698,87.54410582317469,193.73586686174104,11309.49179053403,539.8399999999999,7373.342172131283,535.0899999999999,7386.711636609393
2020-09-11 10:45:52.014527,"$GPRMC,084557,A,5153.7378,N,00428.6987,E,007.2,089.,110920,01.,E*44",2020-09-11 10:45:52.014527,51.537378,4.28698,87.03291904971402,192.07207042844024,11239.33707730514,539.8399999999999,7398.481793032991,535.0899999999999,7384.443362133559
2020-09-11 10:45:52.214520,"$GPRMC,084557,A,5153.7378,N,00428.6993,E,007.2,089.,110920,01.,E*41",2020-09-11 10:45:52.214520,51.537378,4.28699,86.44416776671066,190.16308111265627,11144.644876875365,539.8399999999999,7404.295761765417,535.0899999999999,7378.464675445289
2020-09-11 10:45:52.418525,"$GPRMC,084557,A,5153.7377,N,00428.7000,E,007.2,089.,110920,01.,E*4C",2020-09-11 10:45:52.418525,51.537377,4.287,85.92096618550721,187.6984757564795,11207.507574351906,539.8399999999999,7384.689842354508,535.0899999999999,7368.3148363129785
2020-09-11 10:45:52.614530,"$GPRMC,084557,A,5153.7377,N,00428.7006,E,007.2,089.,110920,01.,E*4A",2020-09-11 10:45:52.614530,51.537377,4.287,85.33296972484403,186.01324054513344,11280.68821739044,539.8399999999999,7388.400404156083,535.0899999999999,7368.0
2020-09-11 10:45:52.814558,"$GPRMC,084558,A,5153.7376,N,00428.7012,E,007.2,090.,110920,01.,E*49",2020-09-11 10:45:52.814558,51.537376,4.28701,84.73296865390289,184.71215864118278,11314.084831431057,539.8399999999999,7390.117698679679,535.0899999999999,7368.292007566565
2020-09-11 10:45:53.014538,"$GPRMC,084558,A,5153.7376,N,00428.7018,E,007.2,090.,110920,01.,E*43",2020-09-11 10:45:53.014538,51.537376,4.28701,84.13302339532093,184.03056805998597,11167.804287371167,539.8399999999999,7388.123455969366,535.0899999999999,7368.95684132488
2020-09-11 10:45:53.214568,"$GPRMC,084558,A,5153.7376,N,00428.7024,E,007.2,090.,110920,01.,E*4C",2020-09-11 10:45:53.214568,51.537376,4.28702,83.544197488887,183.40019478571594,11144.650861784758,539.8399999999999,7386.13195601245,535.0899999999999,7379.550187625042
2020-09-11 10:45:53.418575,"$GPRMC,084558,A,5153.7375,N,00428.7030,E,007.2,090.,110920,01.,E*4A",2020-09-11 10:45:53.418575,51.537375000000004,4.28703,83.00962782854229,182.60532488545866,11177.672595509523,539.8399999999999,7385.298767858442,535.0899999999999,7381.2570805091755
2020-09-11 10:45:53.614573,"$GPRMC,084558,A,5153.7375,N,00428.7037,E,007.2,091.,110920,01.,E*4C",2020-09-11 10:45:53.614573,51.537375000000004,4.28703,82.34385016097185,181.3485225411402,11206.858750144775,539.8399999999999,7385.947256797623,535.0899999999999,7370.888530335593
2020-09-11 10:45:53.814579,"$GPRMC,084559,A,5153.7375,N,00428.7043,E,007.2,091.,110920,01.,E*4E",2020-09-11 10:45:53.814579,51.537375000000004,4.28704,81.73297012530676,352.6048465199286,11152.203102436451,539.8399999999999,7382.359689891819,535.0899999999999,7360.853737681676
2020-09-11 10:45:54.014570,"$GPRMC,084559,A,5153.7375,N,00428.7049,E,007.2,091.,110920,01.,E*44",2020-09-11 10:45:54.014570,51.537375000000004,4.28704,81.13316830197738,536.9151651077309,11070.547189987723,539.8399999999999,7384.296153308527,535.0899999999999,7362.688803773121
2020-09-11 10:45:54.214615,"$GPRMC,084559,A,5153.7375,N,00428.7056,E,007.1,091.,110920,01.,E*49",2020-09-11 10:45:54.214615,51.537375000000004,4.28705,80.54410972054859,534.2449492474275,11088.373688066855,539.8399999999999,7394.948673061178,535.0899999999999,7381.2797911639655
2020-09-11 10:45:54.418599,"$GPRMC,084559,A,5153.7375,N,00428.7061,E,007.1,092.,110920,01.,E*4E",2020-09-11 10:45:54.418599,51.537375000000004,4.28706,80.02100859656137,532.1379657218934,11191.991934789663,539.8399999999999,7392.938908087991,535.0899999999999,7366.471468319586
2020-09-11 10:45:54.614606,"$GPRMC,084559,A,5153.7376,N,00428.7068,E,007.1,091.,110920,01.,E*47",2020-09-11 10:45:54.614606,51.537376,4.28706,79.4443358447363,530.3012137396518,11299.471199150574,539.8399999999999,7390.737686048819,535.0899999999999,7362.51949320329
2020-09-11 10:45:54.814607,"$GPRMC,084600,A,5153.7378,N,00428.7075,E,007.1,091.,110920,01.,E*4A",2020-09-11 10:45:54.814607,51.537378,4.28707,78.95550644714541,528.2282403580812,11116.976425111156,539.8399999999999,7390.076175828537,535.0899999999999,7379.129326840028
2020-09-11 10:45:55.014633,"$GPRMC,084600,A,5153.7378,N,00428.7082,E,007.1,091.,110920,01.,E*42",2020-09-11 10:45:55.014633,51.537378,4.2870800000000004,78.54433971698585,526.5655615574914,11129.877519512822,539.8399999999999,7384.704940865183,535.0899999999999,7379.823612450418
2020-09-11 10:45:55.214632,"$GPRMC,084600,A,5153.7378,N,00428.7088,E,007.1,091.,110920,01.,E*48",2020-09-11 10:45:55.214632,51.537378,4.2870800000000004,78.06659266814663,525.1348810263398,11258.789750592923,539.8399999999999,7381.25216550555,535.0899999999999,7382.7569580647405
2020-09-11 10:45:55.418620,"$GPRMC,084600,A,5153.7379,N,00428.7094,E,007.1,091.,110920,01.,E*44",2020-09-11 10:45:55.418620,51.537379,4.28709,77.7606073336134,523.8744088725892,11309.928222483912,539.8598599334337,7381.927604566767,535.0899999999999,7392.8771841625685
2020-09-11 10:45:55.614635,"$GPRMC,084600,A,5153.7380,N,00428.7100,E,007.1,090.,110920,01.,E*4F",2020-09-11 10:45:55.614635,51.537380000000006,4.2871,77.45537780888344,522.5758970204458,11243.206766008327,539.8606546629056,7375.620630057611,535.0899999999999,7383.0734182001515
2020-09-11 10:45:55.814646,"$GPRMC,084601,A,5153.7381,N,00428.7106,E,007.1,089.,110920,01.,E*41",2020-09-11 10:45:55.814646,51.537380999999996,4.2871,77.07770476390513,521.288875700835,11104.421721528957,539.8406953444123,7371.978540772532,535.0899999999999,7373.093973252747
2020-09-11 10:45:56.014637,"$GPRMC,084601,A,5153.7382,N,00428.7112,E,007.1,089.,110920,01.,E*47",2020-09-11 10:45:56.014637,51.537382,4.28711,76.8776791071643,520.443250609277,11110.428880382073,539.8399999999999,7374.627708896307,535.0899999999999,7367.792476838045
2020-09-11 10:45:56.214670,"$GPRMC,084601,A,5153.7383,N,00428.7118,E,007.1,089.,110920,01.,E*4C",2020-09-11 10:45:56.214670,51.537383,4.28711,76.67765665124551,519.6639947534452,11233.494474481611,539.8399999999999,7384.728998498764,535.0899999999999,7372.105314222271
2020-09-11 10:45:56.416643,"$GPRMC,084601,A,5153.7383,N,00428.7124,E,007.0,089.,110920,01.,E*42",2020-09-11 10:45:56.416643,51.537383,4.28712,76.48790220078263,519.0352527320811,11423.52005256207,539.8399999999999,7382.228392476014,535.0899999999999,7376.0
2020-09-11 10:45:56.614677,"$GPRMC,084601,A,5153.7384,N,00428.7130,E,007.0,087.,110920,01.,E*4E",2020-09-11 10:45:56.614677,51.537384,4.28713,76.38881601311765,519.0682734782217,11298.663702307555,539.8399999999999,7355.893908869075,535.0899999999999,7376.0
2020-09-11 10:45:56.814652,"$GPRMC,084602,A,5153.7386,N,00428.7135,E,007.0,087.,110920,01.,E*4A",2020-09-11 10:45:56.814652,51.537386,4.28713,76.3,519.9137299493457,11214.062306189096,539.8399999999999,7374.692501994151,535.0899999999999,7385.445662543671
2020-09-11 10:45:57.014663,"$GPRMC,084602,A,5153.7387,N,00428.7141,E,007.0,086.,110920,01.,E*49",2020-09-11 10:45:57.014663,51.537386999999995,4.28714,76.3,521.3338552456312,11164.492622407739,539.8399999999999,7386.92284759566,535.0899999999999,7387.321240759339
2020-09-11 10:45:57.214737,"$GPRMC,084602,A,5153.7388,N,00428.7147,E,007.0,086.,110920,01.,E*40",2020-09-11 10:45:57.214737,51.537388,4.28714,76.3,523.6342879248759,11149.248131584178,539.8399999999999,7372.3747525259705,535.0899999999999,7370.191899501127
2020-09-11 10:45:57.416682,"$GPRMC,084602,A,5153.7388,N,00428.7153,E,007.0,086.,110920,01.,E*45",2020-09-11 10:45:57.416682,51.537388,4.28715,76.31216870903391,525.5221160118185,11201.430731467844,539.8399999999999,7361.014513715876,535.0899999999999,7371.9057135290805
2020-09-11 10:45:57.614697,"$GPRMC,084602,A,5153.7389,N,00428.7158,E,006.9,084.,110920,01.,E*45",2020-09-11 10:45:57.614697,51.537389000000005,4.28715,76.4,527.163426161601,11311.601080019636,539.8399999999999,7364.8762496738545,535.0899999999999,7379.025809372877
2020-09-11 10:45:57.814697,"$GPRMC,084603,A,5153.7391,N,00428.7164,E,006.9,084.,110920,01.,E*42",2020-09-11 10:45:57.814697,51.537391,4.28716,76.41116731984324,529.1264612134219,11230.362291393842,539.8399999999999,7397.903639288062,535.0899999999999,7389.013956771298
2020-09-11 10:45:58.014719,"$GPRMC,084603,A,5153.7391,N,00428.7170,E,006.9,083.,110920,01.,E*40",2020-09-11 10:45:58.014719,51.537391,4.28717,76.5111580600157,531.731643521434,11262.012721391859,539.8399999999999,7392.0699053787175,535.0899999999999,7375.57945748652
2020-09-11 10:45:58.214707,"$GPRMC,084603,A,5153.7392,N,00428.7176,E,006.9,083.,110920,01.,E*45",2020-09-11 10:45:58.214707,51.537392,4.28717,76.61115871460566,534.7013293530885,11401.858622420672,539.8399999999999,7383.860926954548,535.0899999999999,7368.423234744656
2020-09-11 10:45:58.416769,"$GPRMC,084603,A,5153.7393,N,00428.7182,E,006.9,083.,110920,01.,E*4F",2020-09-11 10:45:58.416769,51.537393,4.28718,76.71217537824622,537.4925189770017,11221.679687706412,539.8399999999999,7389.895150212029,535.0899999999999,7390.471099575116
2020-09-11 10:45:58.614704,"$GPRMC,084603,A,5153.7394,N,00428.7187,E,006.9,082.,110920,01.,E*4C",2020-09-11 10:45:58.614704,51.537394000000006,4.28718,76.8,393.9674980998733,11122.940245148111,539.8399999999999,7389.936330380127,535.0899999999999,7376.377992645697
2020-09-11 10:45:58.814711,"$GPRMC,084604,A,5153.7395,N,00428.7193,E,006.9,081.,110920,01.,E*4C",2020-09-11 10:45:58.814711,51.537395,4.28719,76.81115189031615,181.37264645158325,11102.510520939735,539.8399999999999,7383.996169770549,535.0959405325035,7363.830941744132
2020-09-11 10:45:59.014719,"$GPRMC,084604,A,5153.7396,N,00428.7199,E,006.9,081.,110920,01.,E*45",2020-09-11 10:45:59.014719,51.537396,4.28719,76.9,182.7053459792488,11175.259628650741,539.8399999999999,7366.840278442175,535.1156782939361,7381.714761177768
2020-09-11 10:45:59.228740,"$GPRMC,084604,A,5153.7397,N,00428.7205,E,006.9,081.,110920,01.,E*42",2020-09-11 10:45:59.228740,51.537397,4.2872,76.91118143459916,184.06728661545725,11299.641472296686,539.8399999999999,7378.18219632285,535.12,7388.758364139406
2020-09-11 10:45:59.428773,"$GPRMC,084604,A,5153.7398,N,00428.7211,E,006.9,081.,110920,01.,E*48",2020-09-11 10:45:59.428773,51.537398,4.28721,77.0,185.1634987130825,11443.735834167755,539.8399999999999,7387.967286798631,535.12,7383.4841054487115
2020-09-11 10:45:59.632753,"$GPRMC,084604,A,5153.7400,N,00428.7216,E,006.8,079.,110920,01.,E*4F",2020-09-11 10:45:59.632753,51.5374,4.28721,76.9868210930508,185.4086399735606,11215.142105926274,539.8399999999999,7381.895549933026,535.12,7359.916925799019
2020-09-11 10:45:59.828737,"$GPRMC,084605,A,5153.7401,N,00428.7223,E,006.8,079.,110920,01.,E*49",2020-09-11 10:45:59.828737,51.537401,4.28722,76.9,185.05232821355344,11120.597576923457,539.8399999999999,7375.50821625773,535.12,7371.706669785471
2020-09-11 10:46:00.028764,"$GPRMC,084605,A,5153.7402,N,00428.7228,E,006.8,079.,110920,01.,E*41",2020-09-11 10:46:00.028764,51.537402,4.28722,76.9,184.36006226910476,11135.417452252084,539.8399999999999,7374.57949920514,535.1222316254347,7378.103093606281
2020-09-11 10:46:00.218769,"$GPRMC,084605,A,5153.7403,N,00428.7234,E,006.8,079.,110920,01.,E*4D",2020-09-11 10:46:00.218769,51.537403000000005,4.28723,76.88885368749813,183.64109409074163,11197.095535578243,539.8399999999999,7385.232884121927,535.1285598097598,7357.252376819401
2020-09-11 10:46:00.418771,"$GPRMC,084605,A,5153.7404,N,00428.7240,E,006.8,078.,110920,01.,E*48",2020-09-11 10:46:00.418771,51.537403999999995,4.28724,76.8,183.0588006535733,11274.915436684827,539.8399999999999,7389.001942031684,535.1248287578594,7365.000213623949
2020-09-11 10:46:00.618759,"$GPRMC,084605,A,5153.7404,N,00428.7246,E,006.8,078.,110920,01.,E*4E",2020-09-11 10:46:00.618759,51.537403999999995,4.28724,76.78882245607018,182.59726843724386,11368.685606736008,539.8399999999999,7391.3238749370175,535.12,7379.42800397878
2020-09-11 10:46:00.818778,"$GPRMC,084606,A,5153.7404,N,00428.7252,E,006.8,078.,110920,01.,E*48",2020-09-11 10:46:00.818778,51.537403999999995,4.28725,76.68915330430266,181.99986589586936,11299.60539389638,539.8399999999999,7396.628152430454,535.12,7385.39674071618
2020-09-11 10:46:01.018869,"$GPRMC,084606,A,5153.7405,N,00428.7258,E,006.8,077.,110920,01.,E*4C",2020-09-11 10:46:01.018869,51.537405,4.28725,76.5913449646062,181.44887933300285,11192.663825927477,539.8399999999999,7394.0565364450085,535.12,7369.558699789808
2020-09-11 10:46:01.214912,"$GPRMC,084606,A,5153.7406,N,00428.7264,E,006.8,077.,110920,01.,E*40",2020-09-11 10:46:01.214912,51.537406000000004,4.28726,76.48876069166512,180.95132480027718,11051.3201695805,539.8399999999999,7390.865820917344,535.1151693473605,7355.416276220235
2020-09-11 10:46:01.416779,"$GPRMC,084606,A,5153.7406,N,00428.7270,E,006.8,077.,110920,01.,E*45",2020-09-11 10:46:01.416779,51.537406000000004,4.2872699999999995,76.4,180.6150658635555,10901.744962411007,539.8399999999999,7394.890336128869,535.0949690458242,7377.536777231356
2020-09-11 10:46:01.614782,"$GPRMC,084606,A,5153.7406,N,00428.7276,E,006.8,078.,110920,01.,E*4C",2020-09-11 10:46:01.614782,51.537406000000004,4.2872699999999995,76.38883672091802,180.42525402397828,10712.886348167971,539.8399999999999,7398.3578276771395,535.1048255070223,7378.434819158944
2020-09-11 10:46:01.814832,"$GPRMC,084607,A,5153.7406,N,00428.7282,E,006.8,078.,110920,01.,E*46",2020-09-11 10:46:01.814832,51.537406000000004,4.28728,76.28880882852971,183.9542024781621,10454.454557769188,539.8399999999999,7398.572702053632,535.12,7372.13032766773
2020-09-11 10:46:02.014814,"$GPRMC,084607,A,5153.7407,N,00428.7288,E,006.8,078.,110920,01.,E*4D",2020-09-11 10:46:02.014814,51.537407,4.28728,76.18881585524343,421.80191921800804,10257.908152948887,539.8399999999999,7386.599245604348,535.12,7372.793428740061
2020-09-11 10:46:02.214814,"$GPRMC,084607,A,5153.7408,N,00428.7294,E,006.8,078.,110920,01.,E*4F",2020-09-11 10:46:02.214814,51.537408,4.28729,76.08884205368214,539.54,10060.833564891971,539.8399999999999,7379.747173860325,535.12,7378.484456835607
2020-09-11 10:46:02.416810,"$GPRMC,084607,A,5153.7408,N,00428.7300,E,006.8,078.,110920,01.,E*43",2020-09-11 10:46:02.416810,51.537408,4.2873,75.98783812843504,539.5401588014586,9842.851550562837,539.8399999999999,7376.271074424037,535.12,7381.685293004667
2020-09-11 10:46:02.614839,"$GPRMC,084607,A,5153.7408,N,00428.7306,E,006.8,078.,110920,01.,E*45",2020-09-11 10:46:02.614839,51.537408,4.2873,75.88880795496586,539.5663212756963,9618.409576971779,539.8399999999999,7377.585100594543,535.12,7364.594447284388
2020-09-11 10:46:02.814819,"$GPRMC,084608,A,5153.7409,N,00428.7313,E,006.8,078.,110920,01.,E*4F",2020-09-11 10:46:02.814819,51.537409,4.28731,75.8,539.5671838247997,9380.112729969933,539.8399999999999,7388.9853644891555,535.12,7359.897594602133
2020-09-11 10:46:03.014838,"$GPRMC,084608,A,5153.7409,N,00428.7319,E,006.8,079.,110920,01.,E*44",2020-09-11 10:46:03.014838,51.537409,4.28731,75.78881979194264,539.5406035800188,9121.806626577836,539.8399999999999,7399.029129317119,535.1160326070669,7362.234527622824
2020-09-11 10:46:03.214821,"$GPRMC,084608,A,5153.7410,N,00428.7324,E,006.8,079.,110920,01.,E*42",2020-09-11 10:46:03.214821,51.53741,4.28732,75.6888447709395,539.54,9085.359467318136,539.8399999999999,7383.047323485928,535.0960544849702,7369.491355393766
2020-09-11 10:46:03.416825,"$GPRMC,084608,A,5153.7411,N,00428.7330,E,006.8,079.,110920,01.,E*46",2020-09-11 10:46:03.416825,51.537411,4.28733,75.6,539.54,9087.415236999037,539.8399999999999,7388.109353746562,535.1040250748874,7378.617345312562
2020-09-11 10:46:03.614857,"$GPRMC,084608,A,5153.7412,N,00428.7336,E,006.8,079.,110920,01.,E*43",2020-09-11 10:46:03.614857,51.537412,4.28733,75.58882737720167,539.54,9063.835554320754,539.8399999999999,7398.272065532217,535.12,7384.742036196404
2020-09-11 10:46:03.814901,"$GPRMC,084609,A,5153.7414,N,00428.7341,E,006.8,078.,110920,01.,E*45",2020-09-11 10:46:03.814901,51.537414,4.2873399999999995,75.48879018147278,539.54,9036.90817764024,539.8399999999999,7388.316622927649,535.12,7369.541224783767
2020-09-11 10:46:04.014835,"$GPRMC,084609,A,5153.7415,N,00428.7347,E,006.8,078.,110920,01.,E*42",2020-09-11 10:46:04.014835,51.537415,4.2873399999999995,75.4,539.5520744935212,9031.585060240965,539.8448763286049,7371.74917983895,535.12,7377.437162570957
2020-09-11 10:46:04.214899,"$GPRMC,084609,A,5153.7416,N,00428.7353,E,006.8,078.,110920,01.,E*44",2020-09-11 10:46:04.214899,51.537416,4.28735,75.38881808777008,539.5784663331365,9083.450426256752,539.8647868924245,7360.255870919645,535.12,7392.566358978449
2020-09-11 10:46:04.416836,"$GPRMC,084609,A,5153.7417,N,00428.7359,E,006.8,078.,110920,01.,E*4F",2020-09-11 10:46:04.416836,51.537417,4.28735,75.28788351768196,539.5549547948991,9097.095065043979,539.8550678936333,7393.860063102402,535.12,7364.384796347615
2020-09-11 10:46:04.614894,"$GPRMC,084609,A,5153.7418,N,00428.7364,E,006.8,078.,110920,01.,E*4E",2020-09-11 10:46:04.614894,51.537417999999995,4.28736,75.2,539.54,9084.953037757019,539.8399999999999,7396.715794024242,535.124412083343,7365.9035454636
2020-09-11 10:46:04.814841,"$GPRMC,084610,A,5153.7420,N,00428.7370,E,006.7,077.,110920,01.,E*48",2020-09-11 10:46:04.814841,51.537420000000004,4.28737,75.188843828602,539.54,9033.844895466103,539.8399999999999,7385.698122904806,535.1289618909825,7384.33069299075
2020-09-11 10:46:05.014848,"$GPRMC,084610,A,5153.7421,N,00428.7375,E,006.7,077.,110920,01.,E*4C",2020-09-11 10:46:05.014848,51.537421,4.28737,75.088831,539.5641431254246,9013.832577051096,539.8399999999999,7383.708551211441,535.1223247695341,7396.232486792777
2020-09-11 10:46:05.214902,"$GPRMC,084610,A,5153.7422,N,00428.7381,E,006.7,077.,110920,01.,E*44",2020-09-11 10:46:05.214902,51.537422,4.28738,74.98880461574613,539.5799999999999,9032.08969454867,539.8399999999999,7381.285408168019,535.12,7382.393393165412
2020-09-11 10:46:05.416868,"$GPRMC,084610,A,5153.7423,N,00428.7387,E,006.7,077.,110920,01.,E*43",2020-09-11 10:46:05.416868,51.537423,4.28738,74.88782589129457,539.5799999999999,9132.09977766626,539.8399999999999,7377.490735782728,535.12,7355.070186457181
2020-09-11 10:46:05.614858,"$GPRMC,084610,A,5153.7423,N,00428.7393,E,006.7,076.,110920,01.,E*47",2020-09-11 10:46:05.614858,51.537423,4.287389999999999,74.78883080014194,325.4123052411786,9145.915134723418,539.8399999999999,7367.613393952899,535.12,7366.255058535791
2020-09-11 10:46:05.814877,"$GPRMC,084611,A,5153.7424,N,00428.7398,E,006.7,076.,110920,01.,E*4A",2020-09-11 10:46:05.814877,51.537424,4.287389999999999,74.67770754466943,180.50808758939644,9118.56821031666,539.8399999999999,7370.734750163303,535.12,7380.586010205161
2020-09-11 10:46:06.014890,"$GPRMC,084611,A,5153.7425,N,00428.7404,E,006.7,076.,110920,01.,E*49",2020-09-11 10:46:06.014890,51.537425000000006,4.2874,74.48883344416723,181.66520462683738,9046.43755976033,539.8399999999999,7380.163009320905,535.1207907246185,7395.021745312655
2020-09-11 10:46:06.214879,"$GPRMC,084611,A,5153.7426,N,00428.7409,E,006.7,076.,110920,01.,E*47",2020-09-11 10:46:06.214879,51.537425999999996,4.2874,74.37767353939861,182.4607447744993,9014.091608911966,539.8399999999999,7381.4944940079895,535.1274109040353,7380.472762144109
2020-09-11 10:46:06.416880,"$GPRMC,084611,A,5153.7427,N,00428.7415,E,006.7,076.,110920,01.,E*4B",2020-09-11 10:46:06.416880,51.537427,4.2874099999999995,74.18782396112466,183.2453011703874,9016.79469559856,539.8438431596794,7382.837984965005,535.1258956564986,7387.49799966827
2020-09-11 10:46:06.614877,"$GPRMC,084611,A,5153.7427,N,00428.7421,E,006.7,076.,110920,01.,E*4C",2020-09-11 10:46:06.614877,51.537427,4.28742,74.0776703252744,184.06117045386574,9081.771137055232,539.8637062228509,7383.922825352103,535.12,7408.539755169167
2020-09-11 10:46:06.814880,"$GPRMC,084612,A,5153.7428,N,00428.7426,E,006.7,076.,110920,01.,E*47",2020-09-11 10:46:06.814880,51.537428,4.28742,73.8776554523956,185.51263242279694,9155.137689672862,539.87,7383.256741500065,535.12,7378.034914256157
2020-09-11 10:46:07.014932,"$GPRMC,084612,A,5153.7429,N,00428.7432,E,006.7,076.,110920,01.,E*43",2020-09-11 10:46:07.014932,51.537429,4.28743,73.6776360221392,187.0329428717627,9193.983520946966,539.8664465398394,7380.150693683524,535.12,7373.937136587321
2020-09-11 10:46:07.214897,"$GPRMC,084612,A,5153.7430,N,00428.7438,E,006.7,076.,110920,01.,E*41",2020-09-11 10:46:07.214897,51.53743,4.28743,73.4667243899021,188.5050454417906,9105.80120691656,539.8465849661301,7376.827883421875,535.12,7392.16750215673
2020-09-11 10:46:07.416901,"$GPRMC,084612,A,5153.7430,N,00428.7444,E,006.7,076.,110920,01.,E*4A",2020-09-11 10:46:07.416901,51.53743,4.28744,73.1756394616323,189.72382942998968,9095.019534424033,539.8399999999999,7384.8514770865395,535.12,7401.587353400639
2020-09-11 10:46:07.615005,"$GPRMC,084612,A,5153.7431,N,00428.7450,E,006.7,076.,110920,01.,E*4E",2020-09-11 10:46:07.615005,51.537431,4.28745,72.96632741814547,191.00281695572212,9123.360459478487,539.8432253428487,7383.669471536096,535.12,7392.294527850809
2020-09-11 10:46:07.814945,"$GPRMC,084613,A,5153.7432,N,00428.7455,E,006.7,076.,110920,01.,E*49",2020-09-11 10:46:07.814945,51.537431999999995,4.28745,72.66647427754049,192.53827222628723,9186.438460567739,539.862951721643,7376.665727155389,535.12,7366.051464413012
2020-09-11 10:46:08.014969,"$GPRMC,084613,A,5153.7432,N,00428.7461,E,006.7,076.,110920,01.,E*4E",2020-09-11 10:46:08.014969,51.537431999999995,4.287459999999999,72.35515898604842,193.5467783496563,9163.678926807454,539.87,7372.714037352159,535.12,7373.326459288061
2020-09-11 10:46:08.214895,"$GPRMC,084613,A,5153.7434,N,00428.7467,E,006.7,076.,110920,01.,E*4E",2020-09-11 10:46:08.214895,51.537434000000005,4.287459999999999,71.9665455,194.42442559856045,9113.908147049828,539.87,7370.62646307409,535.1345997561427,7375.691966189435
2020-09-11 10:46:08.416897,"$GPRMC,084613,A,5153.7435,N,00428.7473,E,006.6,076.,110920,01.,E*4B",2020-09-11 10:46:08.416897,51.537434999999995,4.28747,71.65138367987839,195.26583415251838,9102.491658798654,539.87,7371.139558216199,535.1586162533727,7373.0209448313935
2020-09-11 10:46:08.614918,"$GPRMC,084613,A,5153.7436,N,00428.7478,E,006.6,076.,110920,01.,E*43",2020-09-11 10:46:08.614918,51.537436,4.28747,71.25532570840392,195.92887459465206,9136.755050871614,539.87,7389.62084056918,535.1321340951719,7374.948206381058
2020-09-11 10:46:08.814900,"$GPRMC,084614,A,5153.7437,N,00428.7484,E,006.6,076.,110920,01.,E*46",2020-09-11 10:46:08.814900,51.537437,4.2874799999999995,70.84447084600609,196.59510749851611,9164.663499139162,539.873185024381,7390.282412811056,535.12,7380.014076173069
2020-09-11 10:46:09.014969,"$GPRMC,084614,A,5153.7438,N,00428.7489,E,006.6,076.,110920,01.,E*44",2020-09-11 10:46:09.014969,51.537438,4.2874799999999995,70.34407856903545,197.32080788762119,9053.85079477358,539.8995875370332,7376.9656873575805,535.12,7388.563977225659
2020-09-11 10:46:09.214991,"$GPRMC,084614,A,5153.7439,N,00428.7495,E,006.6,076.,110920,01.,E*48",2020-09-11 10:46:09.214991,51.537439000000006,4.28749,69.84396997864904,197.98725573469306,9009.90812677436,539.9100000000001,7376.3060733871735,535.12,7383.323896257509
2020-09-11 10:46:09.416912,"$GPRMC,084614,A,5153.7440,N,00428.7501,E,006.6,075.,110920,01.,E*49",2020-09-11 10:46:09.416912,51.53744,4.2875,69.33916027634197,198.65828099800146,9001.914214778404,539.9100000000001,7381.809261077186,535.12,7376.9686120221495
2020-09-11 10:46:09.614996,"$GPRMC,084614,A,5153.7441,N,00428.7506,E,006.6,075.,110920,01.,E*4F",2020-09-11 10:46:09.614996,51.537441,4.2875,68.83284226949505,199.34332580697725,9007.202324580285,539.9100000000001,7391.601215426775,535.12,7370.352889310453
2020-09-11 10:46:09.815026,"$GPRMC,084615,A,5153.7443,N,00428.7511,E,006.6,075.,110920,01.,E*4A",2020-09-11 10:46:09.815026,51.537443,4.28751,68.23267525765463,199.7181548231384,9089.288040099986,539.9219522122835,7379.670482823978,535.12,7386.396220197777
2020-09-11 10:46:10.014980,"$GPRMC,084615,A,5153.7443,N,00428.7516,E,006.6,075.,110920,01.,E*4D",2020-09-11 10:46:10.014980,51.537443,4.28751,67.61620695939033,199.9337841093352,9175.243575645425,539.94,7385.818977860268,535.12,7393.336578308445
2020-09-11 10:46:10.228974,"$GPRMC,084615,A,5153.7445,N,00428.7522,E,006.6,075.,110920,01.,E*4C",2020-09-11 10:46:10.228974,51.537445,4.28752,66.82162578297232,199.94794698699494,9056.517190858563,539.94,7406.8638876932755,535.12,7386.877591562163
2020-09-11 10:46:10.428985,"$GPRMC,084615,A,5153.7445,N,00428.7528,E,006.6,075.,110920,01.,E*46",2020-09-11 10:46:10.428985,51.537445,4.28752,66.1217018446568,199.93324056198347,9067.738107081037,539.9269876430784,7393.619441777307,535.12,7376.246660576364
2020-09-11 10:46:10.628964,"$GPRMC,084615,A,5153.7446,N,00428.7533,E,006.6,074.,110920,01.,E*4E",2020-09-11 10:46:10.628964,51.537446,4.28753,65.42173815236953,199.67795324386418,9125.43941434305,539.9129306396151,7380.425292234604,535.1350432957927,7370.663694419814
2020-09-11 10:46:10.828958,"$GPRMC,084616,A,5153.7448,N,00428.7538,E,006.6,074.,110920,01.,E*48",2020-09-11 10:46:10.828958,51.537448000000005,4.28753,64.71160529520678,198.9496863723939,9175.6068995564,539.9327303267706,7369.483998151651,535.1584117801735,7370.009026758008
2020-09-11 10:46:11.028952,"$GPRMC,084616,A,5153.7449,N,00428.7544,E,006.5,074.,110920,01.,E*41",2020-09-11 10:46:11.028952,51.537448999999995,4.28754,63.92432643810253,197.18856170360158,9134.403588024428,539.94,7396.078149257502,535.1321175387852,7382.633484388393
2020-09-11 10:46:11.218992,"$GPRMC,084616,A,5153.7450,N,00428.7549,E,006.5,074.,110920,01.,E*44",2020-09-11 10:46:11.218992,51.53745,4.28754,63.19919960405147,194.87733793098857,9060.54419243895,539.9385705432485,7403.338441381827,535.12,7383.388610164552
2020-09-11 10:46:11.418949,"$GPRMC,084616,A,5153.7451,N,00428.7555,E,006.5,074.,110920,01.,E*48",2020-09-11 10:46:11.418949,51.537451000000004,4.2875499999999995,62.3106532783934,191.32335138445563,9006.112087853719,539.9184756414164,7394.053077267526,535.12,7370.80732586904
2020-09-11 10:46:11.618971,"$GPRMC,084616,A,5153.7452,N,00428.7560,E,006.5,074.,110920,01.,E*4D",2020-09-11 10:46:11.618971,51.537452,4.28756,61.51048089519105,186.51993371583572,8984.326922566783,539.9215451557532,7373.026180495136,535.12,7378.706355666147
2020-09-11 10:46:11.818962,"$GPRMC,084617,A,5153.7453,N,00428.7566,E,006.5,074.,110920,01.,E*4B",2020-09-11 10:46:11.818962,51.537453,4.28756,60.713140216673786,243.99889405023686,8995.543534962537,539.9385077823837,7378.531125086607,535.12,7371.217131178613
2020-09-11 10:46:12.018956,"$GPRMC,084617,A,5153.7454,N,00428.7571,E,006.5,073.,110920,01.,E*4D",2020-09-11 10:46:12.018956,51.537454,4.28757,59.93120095162403,475.87016652215624,9105.852055886897,539.9187058734224,7413.17273357139,535.12,7341.550788653932
2020-09-11 10:46:12.214954,"$GPRMC,084617,A,5153.7455,N,00428.7577,E,006.5,073.,110920,01.,E*4A",2020-09-11 10:46:12.214954,51.537455,4.28757,59.1217983841939,531.2113917503499,9177.746667506906,539.9208395463754,7387.837286054187,535.1262271339208,7357.500936251457
2020-09-11 10:46:12.418975,"$GPRMC,084617,A,5153.7456,N,00428.7582,E,006.5,073.,110920,01.,E*43",2020-09-11 10:46:12.418975,51.537456,4.28758,58.39566870467091,526.8834665903677,9209.217561294281,539.94,7378.713154713672,535.1270276967348,7364.189987666592
2020-09-11 10:46:12.614982,"$GPRMC,084617,A,5153.7457,N,00428.7588,E,006.5,073.,110920,01.,E*48",2020-09-11 10:46:12.614982,51.537457,4.28758,57.6383138201691,523.0751248951999,9086.990864009344,539.94,7390.429676810882,535.1204996136579,7350.506397747407
2020-09-11 10:46:12.814994,"$GPRMC,084618,A,5153.7459,N,00428.7593,E,006.5,073.,110920,01.,E*43",2020-09-11 10:46:12.814994,51.537459,4.28759,57.021676682031334,519.720604355362,9100.819628708845,539.94,7385.981117036168,535.12,7360.285772303595
2020-09-11 10:46:13.015019,"$GPRMC,084618,A,5153.7460,N,00428.7598,E,006.5,073.,110920,01.,E*42",2020-09-11 10:46:13.015019,51.53746,4.28759,56.344043565009976,516.619142094265,9210.052757745992,539.94,7379.258952228287,535.12,7374.488802806364
2020-09-11 10:46:13.214948,"$GPRMC,084618,A,5153.7461,N,00428.7603,E,006.5,073.,110920,01.,E*42",2020-09-11 10:46:13.214948,51.537461,4.2876,55.8330019900597,513.6947104713257,9225.320188719337,539.94,7370.650912776217,535.12,7391.1082811019305
2020-09-11 10:46:13.418972,"$GPRMC,084618,A,5153.7463,N,00428.7609,E,006.5,073.,110920,01.,E*4A",2020-09-11 10:46:13.418972,51.537462999999995,4.2876,55.23409763609455,511.1410674503405,9172.141533190636,539.9292832211999,7387.429624015554,535.12,7366.470416051305
2020-09-11 10:46:13.614951,"$GPRMC,084618,A,5153.7465,N,00428.7614,E,006.5,072.,110920,01.,E*41",2020-09-11 10:46:13.614951,51.537465000000005,4.28761,54.74416694166941,508.91055282872645,9079.955450375395,539.9102589608519,7390.388047242043,535.12,7359.823999079991
2020-09-11 10:46:13.814978,"$GPRMC,084619,A,5153.7467,N,00428.7618,E,006.5,071.,110920,01.,E*4D",2020-09-11 10:46:13.814978,51.537467,4.28761,54.2552889661998,506.84362438646343,9135.060770308217,539.930090186851,7371.686382016769,535.12,7388.085219077035
2020-09-11 10:46:14.014973,"$GPRMC,084619,A,5153.7469,N,00428.7623,E,006.4,071.,110920,01.,E*4A",2020-09-11 10:46:14.014973,51.537469,4.28762,53.8665473184148,505.107643422819,9167.267295576608,539.94,7375.401626799308,535.12,7377.200080616385
2020-09-11 10:46:14.214977,"$GPRMC,084619,A,5153.7471,N,00428.7628,E,006.4,071.,110920,01.,E*48",2020-09-11 10:46:14.214977,51.537471,4.28762,53.566513357862746,503.48951048788274,9179.75704548369,539.94,7378.220898651232,535.1225627536151,7363.21852902401
2020-09-11 10:46:14.416971,"$GPRMC,084619,A,5153.7473,N,00428.7633,E,006.4,071.,110920,01.,E*40",2020-09-11 10:46:14.416971,51.537473,4.28763,53.27570356144378,501.7229831941156,9173.779535792142,539.9202463394709,7376.223515761994,535.1292757702751,7355.148775518357
2020-09-11 10:46:14.615014,"$GPRMC,084619,A,5153.7475,N,00428.7636,E,006.4,070.,110920,01.,E*42",2020-09-11 10:46:14.615014,51.537475,4.28763,53.077615007324674,500.4580475628996,9157.941513519223,539.919394191694,7378.904551881248,535.124194975265,7377.02145655123
2020-09-11 10:46:14.814982,"$GPRMC,084620,A,5153.7478,N,00428.7639,E,006.4,068.,110920,01.,E*43",2020-09-11 10:46:14.814982,51.537478,4.28763,52.88882900808391,499.3632360916812,9132.761256766657,539.9392145901477,7381.733357090284,535.12,7392.308286107727
2020-09-11 10:46:15.015011,"$GPRMC,084620,A,5153.7481,N,00428.7644,E,006.3,068.,110920,01.,E*48",2020-09-11 10:46:15.015011,51.537481,4.28764,52.78882404128908,498.0768077333634,9089.660561620087,539.94,7383.7318950386825,535.12,7384.362639690695
2020-09-11 10:46:15.214961,"$GPRMC,084620,A,5153.7483,N,00428.7648,E,006.3,067.,110920,01.,E*49",2020-09-11 10:46:15.214961,51.537483,4.28764,52.7,497.0896347612053,9085.892204792897,539.94,7381.12715360591,535.12,7379.7068498779
2020-09-11 10:46:15.416974,"$GPRMC,084620,A,5153.7485,N,00428.7652,E,006.3,067.,110920,01.,E*44",2020-09-11 10:46:15.416974,51.537485,4.28765,52.7121603590187,496.2262353220024,9122.11814138569,539.94,7378.508134251795,535.12,7376.130977515043
2020-09-11 10:46:15.615020,"$GPRMC,084620,A,5153.7487,N,00428.7655,E,006.3,066.,110920,01.,E*40",2020-09-11 10:46:15.615020,51.537487,4.28765,52.81114568741244,495.26785674076854,9139.221525062861,539.94,7377.188759942974,535.12,7373.517681832577
2020-09-11 10:46:15.814975,"$GPRMC,084621,A,5153.7491,N,00428.7658,E,006.2,063.,110920,01.,E*4F",2020-09-11 10:46:15.814975,51.537491,4.28765,52.92235311176556,494.48622475155463,9127.293306082418,539.94,7383.82600005966,535.12,7368.218395782027
2020-09-11 10:46:16.015029,"$GPRMC,084621,A,5153.7493,N,00428.7662,E,006.2,063.,110920,01.,E*44",2020-09-11 10:46:16.015029,51.537493000000005,4.28766,53.1336093112551,493.8019745944696,9085.154912240861,539.94,7388.538213786002,535.12,7366.322506062519
2020-09-11 10:46:16.214968,"$GPRMC,084621,A,5153.7495,N,00428.7666,E,006.2,062.,110920,01.,E*47",2020-09-11 10:46:16.214968,51.537495,4.28766,53.43347407237151,493.0291422247183,9046.01088061456,539.921278696939,7387.218623775707,535.12,7374.292701724081
2020-09-11 10:46:16.415164,"$GPRMC,084621,A,5153.7496,N,00428.7670,E,006.2,062.,110920,01.,E*43",2020-09-11 10:46:16.415164,51.537496000000004,4.28767,53.74480907667449,492.2965607440612,9068.937800344245,539.9187238806963,7375.988601125058,535.12,7367.1089431056425
2020-09-11 10:46:16.615060,"$GPRMC,084621,A,5153.7498,N,00428.7674,E,006.1,061.,110920,01.,E*49",2020-09-11 10:46:16.615060,51.537498,4.28767,54.155987838297364,491.6013717391805,9163.738393322035,539.9386772984988,7367.421530466984,535.12,7359.0
2020-09-11 10:46:16.814967,"$GPRMC,084622,A,5153.7501,N,00428.7677,E,006.1,059.,110920,01.,E*43",2020-09-11 10:46:16.814967,51.537501,4.28767,54.65580968664387,490.9900212756862,9179.41090959803,539.94,7368.748233834065,535.12,7359.0
2020-09-11 10:46:17.015073,"$GPRMC,084622,A,5153.7503,N,00428.7681,E,006.1,058.,110920,01.,E*49",2020-09-11 10:46:17.015073,51.537502999999994,4.28768,55.16722878190029,490.401658566201,9132.4817670036,539.94,7375.4380212589285,535.12,7358.484633223158
2020-09-11 10:46:17.215034,"$GPRMC,084622,A,5153.7505,N,00428.7685,E,006.1,058.,110920,01.,E*4B",2020-09-11 10:46:17.215034,51.537505,4.28768,55.77842214733558,489.82739175583697,9013.39162346866,539.94,7376.818359037138,535.12,7363.053881508365
2020-09-11 10:46:17.414998,"$GPRMC,084622,A,5153.7507,N,00428.7689,E,006.1,057.,110920,01.,E*4A",2020-09-11 10:46:17.414998,51.537507,4.28768,56.47823838080959,489.2017867234694,9032.181828767238,539.94,7362.849004005269,535.12,7381.5938356799425
2020-09-11 10:46:17.614979,"$GPRMC,084622,A,5153.7509,N,00428.7693,E,006.1,057.,110920,01.,E*4F",2020-09-11 10:46:17.614979,51.537509,4.2876900000000004,57.20012201830275,488.58213458733894,9063.979385291252,539.94,7362.626066846357,535.12,7368.268084059974
2020-09-11 10:46:17.815022,"$GPRMC,084623,A,5153.7511,N,00428.7698,E,006.1,056.,110920,01.,E*4D",2020-09-11 10:46:17.815022,51.537511,4.2876900000000004,58.111601138062596,487.98745607870694,9102.303697831509,539.94,7367.769878372555,535.12,7358.337732939806
2020-09-11 10:46:18.015015,"$GPRMC,084623,A,5153.7512,N,00428.7702,E,006.0,055.,110920,01.,E*4E",2020-09-11 10:46:18.015015,51.537512,4.2877,59.11160997755101,487.75432751712725,9048.582675581092,539.9222943844037,7377.639220163113,535.12,7386.792451956165
2020-09-11 10:46:18.215027,"$GPRMC,084623,A,5153.7514,N,00428.7706,E,006.0,055.,110920,01.,E*4C",2020-09-11 10:46:18.215027,51.537514,4.2877,60.122790544189115,487.65,9017.39289589022,539.9175336094615,7365.313783957376,535.125057961262,7371.075211553349
2020-09-11 10:46:18.415067,"$GPRMC,084623,A,5153.7517,N,00428.7710,E,006.0,055.,110920,01.,E*48",2020-09-11 10:46:18.415067,51.537517,4.287710000000001,61.234196826412884,487.6490350967017,9028.012033722292,539.9374986775787,7359.80374973302,535.1283031402977,7349.820708348873
2020-09-11 10:46:18.614985,"$GPRMC,084623,A,5153.7520,N,00428.7713,E,006.0,054.,110920,01.,E*4E",2020-09-11 10:46:18.614985,51.53752,4.287710000000001,62.433909365015076,487.62922390869903,9117.468682206323,539.94,7393.8297335540365,535.1216456425456,7357.1436144706695
2020-09-11 10:46:18.814982,"$GPRMC,084624,A,5153.7522,N,00428.7717,E,006.0,054.,110920,01.,E*4F",2020-09-11 10:46:18.814982,51.537521999999996,4.287710000000001,63.64510597023134,487.62,9145.204120458448,539.9327604651702,7392.961614826806,535.12,7358.010086947298
2020-09-11 10:46:19.014988,"$GPRMC,084624,A,5153.7524,N,00428.7720,E,006.0,054.,110920,01.,E*4D",2020-09-11 10:46:19.014988,51.537524000000005,4.28772,64.95623993840555,487.6206005438738,9063.667506313926,539.9128751338077,7379.264490701641,535.12,7357.0
2020-09-11 10:46:19.214984,"$GPRMC,084624,A,5153.7526,N,00428.7724,E,005.9,053.,110920,01.,E*46",2020-09-11 10:46:19.214984,51.537526,4.28772,66.36725167251673,487.64044955603487,9044.083802099189,539.9270887175987,7360.055442396542,535.12,7357.0
2020-09-11 10:46:19.415023,"$GPRMC,084624,A,5153.7528,N,00428.7728,E,005.9,053.,110920,01.,E*44",2020-09-11 10:46:19.415023,51.537528,4.28772,67.86756504042683,487.65,9055.714953597097,539.94,7372.090715147018,535.12,7365.637802477482
2020-09-11 10:46:19.614990,"$GPRMC,084624,A,5153.7530,N,00428.7731,E,005.9,053.,110920,01.,E*45",2020-09-11 10:46:19.614990,51.53753,4.28773,69.36738001070016,487.65,9106.213180883267,539.94,7388.342073447432,535.12,7372.590354458493
2020-09-11 10:46:19.815014,"$GPRMC,084625,A,5153.7532,N,00428.7734,E,005.9,052.,110920,01.,E*42",2020-09-11 10:46:19.815014,51.537532,4.28773,70.90112717471209,487.65,9059.842275011059,539.94,7381.054090221031,535.12,7361.385525097454
2020-09-11 10:46:20.015045,"$GPRMC,084625,A,5153.7534,N,00428.7738,E,005.9,052.,110920,01.,E*48",2020-09-11 10:46:20.015045,51.537533999999994,4.28773,72.70368885162776,487.6465820320977,9016.74146567718,539.94,7377.087831564656,535.12,7355.215610009075
2020-09-11 10:46:20.211001,"$GPRMC,084625,A,5153.7536,N,00428.7742,E,005.8,052.,110920,01.,E*46",2020-09-11 10:46:20.211001,51.537536,4.28774,74.48506847654829,487.6400397632235,9007.652597402597,539.94,7376.298963592878,535.1211954487636,7352.919811367585
2020-09-11 10:46:20.411022,"$GPRMC,084625,A,5153.7538,N,00428.7746,E,005.8,052.,110920,01.,E*4C",2020-09-11 10:46:20.411022,51.537538000000005,4.28774,76.30121400607003,488.84564919895956,9070.237137265422,539.94,7382.943296571884,535.1278558442164,7358.21531231902
2020-09-11 10:46:20.610992,"$GPRMC,084625,A,5153.7539,N,00428.7750,E,005.8,051.,110920,01.,E*49",2020-09-11 10:46:20.610992,51.537538999999995,4.28775,78.08971306333999,490.6037298443009,9107.476078535245,539.94,7377.651396443602,535.13,7363.054958187924
2020-09-11 10:46:20.811016,"$GPRMC,084626,A,5153.7541,N,00428.7753,E,005.8,051.,110920,01.,E*46",2020-09-11 10:46:20.811016,51.537541000000004,4.28775,79.8339214715458,492.9414771601759,9054.494851504818,539.94,7370.11932783144,535.1288524650306,7367.764326315371
2020-09-11 10:46:21.010989,"$GPRMC,084626,A,5153.7543,N,00428.7758,E,005.8,051.,110920,01.,E*4F",2020-09-11 10:46:21.010989,51.537543,4.28775,81.91284519208911,496.526054652445,9084.974692449881,539.94,7376.089225533383,535.1221830079311,7373.063519404291
2020-09-11 10:46:21.231026,"$GPRMC,084626,A,5153.7545,N,00428.7762,E,005.8,051.,110920,01.,E*40",2020-09-11 10:46:21.231026,51.537545,4.2877600000000005,84.02381007145321,501.14587189678247,9105.806082617024,539.94,7377.482901125122,535.12,7371.10118388327
2020-09-11 10:46:21.431042,"$GPRMC,084626,A,5153.7546,N,00428.7766,E,005.7,050.,110920,01.,E*49",2020-09-11 10:46:21.431042,51.537546,4.2877600000000005,86.02404103835846,505.8842590598974,9067.364155107396,539.94,7379.35227533996,535.12,7367.750876879795
2020-09-11 10:46:21.631008,"$GPRMC,084626,A,5153.7548,N,00428.7770,E,005.7,051.,110920,01.,E*41",2020-09-11 10:46:21.631008,51.537547999999994,4.28777,88.02363894555782,510.3746420622288,8994.704351754053,539.94,7388.014321463202,535.12,7371.056176506564
2020-09-11 10:46:21.830993,"$GPRMC,084627,A,5153.7549,N,00428.7774,E,005.7,051.,110920,01.,E*45",2020-09-11 10:46:21.830993,51.537549,4.28777,90.0123002643982,515.6369615281444,8966.159537040408,539.94,7383.33675271084,535.12,7372.946270811534
2020-09-11 10:46:22.031030,"$GPRMC,084627,A,5153.7550,N,00428.7778,E,005.7,051.,110920,01.,E*41",2020-09-11 10:46:22.031030,51.53755,4.28777,91.91150713206295,521.5348747240819,9016.47614871104,539.94,7378.953567891963,535.1216611222519,7374.946250268369
2020-09-11 10:46:22.220989,"$GPRMC,084627,A,5153.7551,N,00428.7782,E,005.6,051.,110920,01.,E*44",2020-09-11 10:46:22.220989,51.537551,4.287780000000001,93.71235322052539,526.8406232853365,9020.825277602837,539.94,7385.897113652827,535.1279994060748,7379.338293339499
2020-09-11 10:46:22.420995,"$GPRMC,084627,A,5153.7553,N,00428.7786,E,005.6,051.,110920,01.,E*42",2020-09-11 10:46:22.420995,51.537552999999996,4.287780000000001,95.6120697329006,531.6793487885134,9019.825124750168,539.94,7382.79332237006,535.1253788841191,7372.497138306873
2020-09-11 10:46:22.620984,"$GPRMC,084627,A,5153.7553,N,00428.7791,E,005.6,052.,110920,01.,E*47",2020-09-11 10:46:22.620984,51.537552999999996,4.28779,97.50109595068221,535.687504038289,9022.472197588384,539.94,7380.282162247746,535.12,7361.615795241747
2020-09-11 10:46:22.820979,"$GPRMC,084628,A,5153.7553,N,00428.7795,E,005.6,053.,110920,01.,E*4D",2020-09-11 10:46:22.820979,51.537552999999996,4.28779,99.29702278252685,309.2171843795107,9025.660606100888,539.9245210024174,7396.114676447886,535.12,7366.223201503369
