timestamp,payload,time,lat,lon,hdg,rsa_0,rpm_0,rsa_2,rpm_2,rsa_1,rpm_1
2020-12-09 10:54:02.843646,"$GPRMC,095400,A,5154.7971,N,00429.2241,E,002.8,190.,091220,01.,E*42",2020-12-09 10:54:02.843646,51.547971,4.29224,,180.0,0.0,180.0,0.0,180.0,0.0
2020-12-09 10:54:03.043644,"$GPRMC,095400,A,5154.7969,N,00429.2240,E,002.8,190.,091220,01.,E*4A",2020-12-09 10:54:03.043644,51.547969,4.29224,201.05578055780558,539.3266884718144,5315.173661724051,525.3129985472926,9330.924019924636,536.9131505970934,7246.357737491128
2020-12-09 10:54:03.243631,"$GPRMC,095401,A,5154.7965,N,00429.2239,E,002.9,190.,091220,01.,E*48",2020-12-09 10:54:03.243631,51.547965000000005,4.29223,201.54461092218443,539.35,5304.255344619467,524.274984773323,9311.295800431797,536.2124832010683,7245.214254615551
2020-12-09 10:54:03.443629,"$GPRMC,095401,A,5154.7965,N,00429.2239,E,002.9,190.,091220,01.,E*48",2020-12-09 10:54:03.443629,51.547965000000005,4.29223,201.94468112767893,539.35,5263.686854680221,523.5658495624195,9270.83602017703,535.4968443311645,7237.902564102564
2020-12-09 10:54:03.643627,"$GPRMC,095401,A,5154.7960,N,00429.2237,E,003.0,190.,091220,01.,E*4B",2020-12-09 10:54:03.643627,51.54796,4.29223,202.34468904017837,539.3338498967757,5293.109477833165,522.8664585073795,9205.481034414111,534.764387321838,7249.668904714354
2020-12-09 10:54:03.843630,"$GPRMC,095401,A,5154.7958,N,00429.2236,E,003.0,190.,091220,01.,E*41",2020-12-09 10:54:03.843630,51.547958,4.29223,202.7334411575016,539.3127053114424,5316.958785674222,522.1719214102816,9166.8692840447,534.0135205488555,7254.31185512461
2020-12-09 10:54:04.043610,"$GPRMC,095401,A,5154.7958,N,00429.2236,E,003.0,190.,091220,01.,E*41",2020-12-09 10:54:04.043610,51.547958,4.29223,203.04160502422863,539.3392748125832,5330.2331307686945,521.4826068544417,9275.915796368521,533.2557885022923,7241.084964812953
2020-12-09 10:54:04.257566,"$GPRMC,095402,A,5154.7954,N,00429.2234,E,003.1,190.,091220,01.,E*4D",2020-12-09 10:54:04.257566,51.547954,4.29223,203.42222922765143,539.3324032121194,5282.066021738987,520.7511221028176,9276.745173338944,532.4622078379743,7228.100379718265
2020-12-09 10:54:04.457526,"$GPRMC,095402,A,5154.7954,N,00429.2234,E,003.1,190.,091220,01.,E*4D",2020-12-09 10:54:04.457526,51.547954,4.29223,203.6334844727949,539.31,5272.970977520831,520.0651453303051,9241.437290148091,531.7434153446,7233.390443300681
2020-12-09 10:54:04.657487,"$GPRMC,095402,A,5154.7950,N,00429.2230,E,003.1,191.,091220,01.,E*4C",2020-12-09 10:54:04.657487,51.54795,4.29223,203.92224999750022,539.31,5302.782778670466,519.3680145828353,9226.927768066229,531.3586478757356,7263.934046156401
2020-12-09 10:54:04.857470,"$GPRMC,095402,A,5154.7948,N,00429.2229,E,003.2,191.,091220,01.,E*4E",2020-12-09 10:54:04.857470,51.547948,4.2922199999999995,204.1222345653066,539.3270279901602,5316.114587324446,518.7145109158768,9228.813868358551,531.1700000000001,7247.472243053363
2020-12-09 10:54:05.057448,"$GPRMC,095403,A,5154.7946,N,00429.2228,E,003.2,191.,091220,01.,E*40",2020-12-09 10:54:05.057448,51.547946,4.2922199999999995,204.31176789559305,539.346401509893,5305.055395905806,518.0764408238347,9247.14017665882,531.1700000000001,7238.751910611725
2020-12-09 10:54:05.247392,"$GPRMC,095403,A,5154.7944,N,00429.2227,E,003.2,191.,091220,01.,E*4D",2020-12-09 10:54:05.247392,51.547944,4.2922199999999995,204.42234945271443,539.3212881026516,5269.457055678672,517.4774649016194,9298.628447888292,531.1888184562026,7250.650574007767
2020-12-09 10:54:05.447360,"$GPRMC,095403,A,5154.7944,N,00429.2227,E,003.2,191.,091220,01.,E*4D",2020-12-09 10:54:05.447360,51.547944,4.2922199999999995,204.61116673334666,539.3250904709229,5289.713264554163,516.8312592888933,9256.13236209935,531.2,7256.788593320563
2020-12-09 10:54:05.647316,"$GPRMC,095403,A,5154.7941,N,00429.2225,E,003.2,193.,091220,01.,E*48",2020-12-09 10:54:05.647316,51.547941,4.2922199999999995,204.7111642862858,539.3485752250322,5309.1249825924915,516.3,9187.00059476606,531.2,7254.638955050336
2020-12-09 10:54:05.847338,"$GPRMC,095403,A,5154.7939,N,00429.2224,E,003.2,194.,091220,01.,E*41",2020-12-09 10:54:05.847338,51.547939,4.2922199999999995,204.81108024874737,539.3221949289459,5319.073224268387,516.3,9246.483743061062,531.181490492559,7237.411159071259
2020-12-09 10:54:06.047245,"$GPRMC,095404,A,5154.7937,N,00429.2223,E,003.3,194.,091220,01.,E*4E",2020-12-09 10:54:06.047245,51.547937000000005,4.2922199999999995,204.91047269952725,539.31,5283.288735948155,516.3045100404267,9262.937289144671,531.1700000000001,7256.253790395352
2020-12-09 10:54:06.243313,"$GPRMC,095404,A,5154.7935,N,00429.2222,E,003.3,194.,091220,01.,E*4D",2020-12-09 10:54:06.243313,51.547934999999995,4.2922199999999995,205.0,539.3104366993927,5269.391261651132,516.31,9257.056476459316,531.1700000000001,7269.0429288661335
2020-12-09 10:54:06.443260,"$GPRMC,095404,A,5154.7935,N,00429.2222,E,003.3,194.,091220,01.,E*4D",2020-12-09 10:54:06.443260,51.547934999999995,4.2922199999999995,205.01108393045493,539.3368482945145,5296.680965379494,516.31,9266.98173599092,531.1878266020249,7243.200994184023
2020-12-09 10:54:06.643190,"$GPRMC,095404,A,5154.7931,N,00429.2221,E,003.3,194.,091220,01.,E*4A",2020-12-09 10:54:06.643190,51.547931,4.2922199999999995,205.11029044804766,539.3366587354071,5313.935939530408,516.305722581842,9237.540444059194,531.2,7255.08079485959
2020-12-09 10:54:06.843126,"$GPRMC,095404,A,5154.7929,N,00429.2221,E,003.4,194.,091220,01.,E*44",2020-12-09 10:54:06.843126,51.547929,4.2922199999999995,205.21116939092866,539.3100820154261,5308.304748726045,516.3008950424266,9182.655510249753,531.2,7267.90528212524
2020-12-09 10:54:07.043088,"$GPRMC,095404,A,5154.7929,N,00429.2221,E,003.4,194.,091220,01.,E*44",2020-12-09 10:54:07.043088,51.547929,4.2922199999999995,205.31093802098658,539.3363101801899,5265.379851847938,516.3074766801177,9142.513201760015,531.1941854368642,7247.2589903376975
2020-12-09 10:54:07.243043,"$GPRMC,095405,A,5154.7926,N,00429.2220,E,003.4,194.,091220,01.,E*4B",2020-12-09 10:54:07.243043,51.547926,4.2922199999999995,205.4093479591837,539.3372791925815,5283.845724672775,516.4251350900656,9149.801818981958,531.4765625733041,7228.645578527072
2020-12-09 10:54:07.443004,"$GPRMC,095405,A,5154.7924,N,00429.2219,E,003.4,194.,091220,01.,E*43",2020-12-09 10:54:07.443004,51.547924,4.29221,205.51114562388082,539.3108462824775,5306.6359403727365,516.8024047883893,9196.548877990786,532.2561195928333,7214.841772613866
2020-12-09 10:54:07.642967,"$GPRMC,095405,A,5154.7919,N,00429.2219,E,003.5,193.,091220,01.,E*4B",2020-12-09 10:54:07.642967,51.547919,4.29221,205.6223191072357,539.3356509783393,5317.21557345608,518.6162542375125,9283.717570713825,533.5311197171185,7214.178342976961
2020-12-09 10:54:07.842956,"$GPRMC,095405,A,5154.7917,N,00429.2218,E,003.5,193.,091220,01.,E*44",2020-12-09 10:54:07.842956,51.547917,4.29221,205.81115434825017,539.3378250999784,5288.81803839248,520.7944687007364,9289.611180680084,534.7459113574693,7231.481420971887
2020-12-09 10:54:08.042898,"$GPRMC,095406,A,5154.7914,N,00429.2217,E,003.5,193.,091220,01.,E*4B",2020-12-09 10:54:08.042898,51.547914,4.29221,205.92231512411738,539.3112825116573,5272.653014630043,523.1316085282913,9236.533036185094,535.6865997833138,7247.466350481889
2020-12-09 10:54:08.242926,"$GPRMC,095406,A,5154.7912,N,00429.2217,E,003.6,193.,091220,01.,E*4E",2020-12-09 10:54:08.242926,51.547912,4.29221,206.11118472700724,539.31,5300.027677918749,524.8005365085064,9324.097899732367,536.811904232734,7236.211862555602
2020-12-09 10:54:08.442847,"$GPRMC,095406,A,5154.7912,N,00429.2217,E,003.6,193.,091220,01.,E*4E",2020-12-09 10:54:08.442847,51.547912,4.29221,206.22231070117346,539.3216409978452,5315.857118205922,526.4034721827471,9313.021898028579,537.8707269340151,7233.949991686342
2020-12-09 10:54:08.642809,"$GPRMC,095406,A,5154.7907,N,00429.2215,E,003.6,192.,091220,01.,E*49",2020-12-09 10:54:08.642809,51.547906999999995,4.29221,206.4223462457867,539.348075962085,5312.166402113761,527.930075916584,9225.46930593836,538.7227504781157,7236.806697882064
2020-12-09 10:54:08.842802,"$GPRMC,095406,A,5154.7905,N,00429.2214,E,003.7,192.,091220,01.,E*4B",2020-12-09 10:54:08.842802,51.547905,4.29221,206.6223755731909,539.3253915261942,5270.904248486724,529.1030515237685,9288.108055625156,538.9498021966444,7245.391732322465
2020-12-09 10:54:09.042769,"$GPRMC,095406,A,5154.7905,N,00429.2214,E,003.7,192.,091220,01.,E*4B",2020-12-09 10:54:09.042769,51.547905,4.29221,206.82192483222792,539.3211220662096,5277.969930282706,530.2951068965517,9292.879954072403,539.01,7251.68159052666
2020-12-09 10:54:09.242702,"$GPRMC,095407,A,5154.7901,N,00429.2211,E,003.7,192.,091220,01.,E*4B",2020-12-09 10:54:09.242702,51.547901,4.29221,207.01867988281052,539.3475996636218,5291.196904714409,531.4913859547302,9245.207203697413,539.01,7255.390941906148
2020-12-09 10:54:09.442666,"$GPRMC,095407,A,5154.7901,N,00429.2211,E,003.7,192.,091220,01.,E*4B",2020-12-09 10:54:09.442666,51.547901,4.29221,207.22233608606106,539.35,5291.861722853913,532.5259397728215,9212.581000805812,539.01,7252.0677130074655
2020-12-09 10:54:09.642653,"$GPRMC,095407,A,5154.7896,N,00429.2207,E,003.7,193.,091220,01.,E*42",2020-12-09 10:54:09.642653,51.547896,4.2922,207.4222818832211,539.3393675077864,5275.304989394079,533.509064635658,9186.96932141675,539.0172177937005,7239.795588264426
2020-12-09 10:54:09.842598,"$GPRMC,095407,A,5154.7894,N,00429.2206,E,003.7,193.,091220,01.,E*41",2020-12-09 10:54:09.842598,51.547894,4.2922,207.62222044360848,539.3126691057914,5268.700150997377,534.4473821699157,9167.828827119185,539.0437484533346,7228.610515149506
2020-12-09 10:54:10.042559,"$GPRMC,095407,A,5154.7894,N,00429.2206,E,003.7,193.,091220,01.,E*41",2020-12-09 10:54:10.042559,51.547894,4.2922,207.82183421101666,539.31,5300.482873718509,535.3253450637967,9153.182742215253,539.05,7244.5193661738385
2020-12-09 10:54:10.242576,"$GPRMC,095408,A,5154.7890,N,00429.2203,E,003.8,193.,091220,01.,E*40",2020-12-09 10:54:10.242576,51.547889999999995,4.2922,208.01871707974357,539.31,5319.602829499999,536.2077601079434,9149.722036733421,539.0432835333146,7248.251844741736
2020-12-09 10:54:10.442493,"$GPRMC,095408,A,5154.7890,N,00429.2203,E,003.8,193.,091220,01.,E*40",2020-12-09 10:54:10.442493,51.547889999999995,4.2922,208.21116512380408,539.31,5320.0888110706555,537.0774167957691,9157.204857297855,539.016887058707,7242.8184421155765
2020-12-09 10:54:10.642457,"$GPRMC,095408,A,5154.7886,N,00429.2198,E,003.8,196.,091220,01.,E*43",2020-12-09 10:54:10.642457,51.547886,4.29219,208.32233868064168,539.3336106258978,5276.365338934479,537.5380956514771,9229.965220900538,538.6721219921878,7222.299266472913
2020-12-09 10:54:10.842417,"$GPRMC,095408,A,5154.7884,N,00429.2196,E,003.8,196.,091220,01.,E*4F",2020-12-09 10:54:10.842417,51.547884,4.29219,208.5223234601363,539.35,5287.187093936789,537.1899563797884,9256.591860938934,538.1360533305318,7227.760328450163
2020-12-09 10:54:11.042387,"$GPRMC,095409,A,5154.7882,N,00429.2195,E,003.8,196.,091220,01.,E*4B",2020-12-09 10:54:11.042387,51.547882,4.29219,208.71116284419728,539.35,5313.331245417478,536.1107865513468,9235.39266795427,537.3350992642593,7241.487038616395
2020-12-09 10:54:11.242352,"$GPRMC,095409,A,5154.7880,N,00429.2193,E,003.8,196.,091220,01.,E*4F",2020-12-09 10:54:11.242352,51.54787999999999,4.29219,208.82233213144434,539.3270346849208,5327.262991138522,533.9022091308293,9241.504243677568,536.6541586863257,7214.385598683036
2020-12-09 10:54:11.442300,"$GPRMC,095409,A,5154.7880,N,00429.2193,E,003.8,196.,091220,01.,E*4F",2020-12-09 10:54:11.442300,51.54787999999999,4.29219,209.01115945725618,539.3193724680277,5295.9736329358875,532.0809019069859,9261.625428777308,536.0181870437623,7224.0913392162465
2020-12-09 10:54:11.642342,"$GPRMC,095409,A,5154.7879,N,00429.2190,E,003.8,199.,091220,01.,E*45",2020-12-09 10:54:11.642342,51.547879,4.29219,209.11120523257557,539.345856170731,5263.373648472099,530.6112383714386,9296.831577269573,535.360169453794,7251.880747785726
2020-12-09 10:54:11.842292,"$GPRMC,095409,A,5154.7874,N,00429.2187,E,003.9,199.,091220,01.,E*4F",2020-12-09 10:54:11.842292,51.547874,4.29218,209.22237977620222,539.3277744099314,5282.552362713871,529.710974183766,9291.58320774884,534.7283230968671,7241.979651460281
2020-12-09 10:54:12.042236,"$GPRMC,095409,A,5154.7874,N,00429.2187,E,003.9,199.,091220,01.,E*4F",2020-12-09 10:54:12.042236,51.547874,4.29218,209.41116535448825,539.3186480092767,5288.954549394859,528.668199476312,9278.547616443442,534.0982288852782,7237.203962347052
2020-12-09 10:54:12.242197,"$GPRMC,095410,A,5154.7869,N,00429.2185,E,003.9,200.,091220,01.,E*4A",2020-12-09 10:54:12.242197,51.547869,4.29218,209.52235775812508,539.3452234600676,5291.565348642538,527.4965011849323,9258.00229357038,533.4205368766261,7236.950661833233
2020-12-09 10:54:12.442181,"$GPRMC,095410,A,5154.7869,N,00429.2185,E,003.9,200.,091220,01.,E*4A",2020-12-09 10:54:12.442181,51.547869,4.29218,209.72224769956233,539.328212582843,5298.815109710843,526.7607419499179,9258.88742339506,532.7694211985612,7246.899751584519
2020-12-09 10:54:12.642176,"$GPRMC,095410,A,5154.7865,N,00429.2182,E,004.0,201.,091220,01.,E*4E",2020-12-09 10:54:12.642176,51.547865,4.29218,209.92177298772717,539.31,5292.66387696591,526.00533306605,9273.659348765208,532.216215325159,7252.55894763709
2020-12-09 10:54:12.842066,"$GPRMC,095410,A,5154.7862,N,00429.2181,E,004.0,201.,091220,01.,E*4A",2020-12-09 10:54:12.842066,51.547861999999995,4.29218,210.11114049471095,539.31,5283.7520457588735,525.230416730174,9304.7353349784,532.0768456228772,7255.052441848488
2020-12-09 10:54:13.042012,"$GPRMC,095411,A,5154.7860,N,00429.2180,E,004.0,201.,091220,01.,E*48",2020-12-09 10:54:13.042012,51.54786,4.29218,210.22177763168867,539.3313138927133,5287.718506885321,524.5454423306774,9259.927798678258,532.03,7255.716756207203
2020-12-09 10:54:13.242001,"$GPRMC,095411,A,5154.7858,N,00429.2178,E,004.0,201.,091220,01.,E*44",2020-12-09 10:54:13.242001,51.547858,4.29217,210.4093613700014,539.3422257769804,5296.189955092653,523.8541689399362,9238.957679645217,532.03,7252.944851803159
2020-12-09 10:54:13.441939,"$GPRMC,095411,A,5154.7858,N,00429.2178,E,004.0,201.,091220,01.,E*44",2020-12-09 10:54:13.441939,51.547858,4.29217,210.51113267184124,539.3156563844454,5303.646812908697,523.1550873298347,9257.443987280118,532.03,7248.188438276898
2020-12-09 10:54:13.641912,"$GPRMC,095411,A,5154.7852,N,00429.2176,E,004.1,201.,091220,01.,E*41",2020-12-09 10:54:13.641912,51.547852000000006,4.29217,210.61114545972958,539.3307396866805,5295.697549308652,522.539699248871,9220.352725306393,532.03,7250.836359543569
2020-12-09 10:54:13.841878,"$GPRMC,095411,A,5154.7852,N,00429.2176,E,004.1,201.,091220,01.,E*41",2020-12-09 10:54:13.841878,51.547852000000006,4.29217,210.71116917276314,539.3428249936635,5296.505369924443,521.9105257179945,9224.419284469162,532.03,7239.053938553939
2020-12-09 10:54:14.041853,"$GPRMC,095412,A,5154.7847,N,00429.2174,E,004.1,201.,091220,01.,E*44",2020-12-09 10:54:14.041853,51.547847000000004,4.29217,210.81105610234272,539.3161484999266,5301.504596085573,521.2615722862242,9298.12136797543,532.03,7217.7486886343895
2020-12-09 10:54:14.241845,"$GPRMC,095412,A,5154.7845,N,00429.2172,E,004.1,200.,091220,01.,E*41",2020-12-09 10:54:14.241845,51.547844999999995,4.29217,210.9102725748116,539.31,5304.803879452561,520.9773250154383,9236.082236405615,532.0257826388222,7234.326604640676
2020-12-09 10:54:14.441767,"$GPRMC,095412,A,5154.7845,N,00429.2172,E,004.1,200.,091220,01.,E*41",2020-12-09 10:54:14.441767,51.547844999999995,4.29217,211.0,539.3170017314926,5299.665404998724,520.8299999999999,9217.760328543189,532.0208439480433,7235.60020136651
2020-12-09 10:54:14.641731,"$GPRMC,095412,A,5154.7841,N,00429.2169,E,004.1,200.,091220,01.,E*4F",2020-12-09 10:54:14.641731,51.547841,4.29216,211.01114877871947,539.343533240014,5291.0,520.8299999999999,9294.956742257336,532.0274614379084,7224.427722299899
2020-12-09 10:54:14.841692,"$GPRMC,095412,A,5154.7839,N,00429.2167,E,004.2,200.,091220,01.,E*4D",2020-12-09 10:54:14.841692,51.547839,4.29216,211.1,539.3299990080317,5291.0,520.8362059515139,9231.920570954357,532.03,7240.328034404384
2020-12-09 10:54:15.041673,"$GPRMC,095412,A,5154.7839,N,00429.2167,E,004.2,200.,091220,01.,E*4D",2020-12-09 10:54:15.041673,51.547839,4.29216,211.08965862152,539.3164710604,5297.96991227048,520.6714123113665,9217.167829873539,532.03,7238.81985453542
2020-12-09 10:54:15.255619,"$GPRMC,095413,A,5154.7835,N,00429.2164,E,004.2,200.,091220,01.,E*43",2020-12-09 10:54:15.255619,51.54783499999999,4.29216,211.0,539.3448562141364,5304.959174213202,520.2515601249297,9319.974671253214,532.03,7222.03688930558
2020-12-09 10:54:15.457578,"$GPRMC,095413,A,5154.7835,N,00429.2164,E,004.2,200.,091220,01.,E*43",2020-12-09 10:54:15.457578,51.54783499999999,4.29216,210.988838935203,539.35,5288.241544294157,519.6827016356458,9275.400377278844,532.03,7238.0946400352495
2020-12-09 10:54:15.657630,"$GPRMC,095413,A,5154.7831,N,00429.2159,E,004.2,201.,091220,01.,E*48",2020-12-09 10:54:15.657630,51.547830999999995,4.2921499999999995,210.88880209895052,539.3419305991197,5283.904413223797,519.136130499154,9232.95094448824,532.03,7240.495901856764
2020-12-09 10:54:15.857583,"$GPRMC,095413,A,5154.7828,N,00429.2157,E,004.2,201.,091220,01.,E*4E",2020-12-09 10:54:15.857583,51.547828,4.2921499999999995,210.7777217318201,539.315578692111,5286.590293016651,518.6074899534688,9205.017023739436,532.03,7232.499356816743
2020-12-09 10:54:16.057536,"$GPRMC,095414,A,5154.7826,N,00429.2155,E,004.2,201.,091220,01.,E*45",2020-12-09 10:54:16.057536,51.54782599999999,4.2921499999999995,210.58821946943652,539.3307547517628,5295.855556989803,518.57383828765,9268.85704948708,532.03,7223.8367480921115
2020-12-09 10:54:16.247488,"$GPRMC,095414,A,5154.7824,N,00429.2153,E,004.2,201.,091220,01.,E*41",2020-12-09 10:54:16.247488,51.547824,4.2921499999999995,210.4888087689646,539.3442128058832,5294.165821982895,518.5571546645767,9282.224458975039,532.03,7232.095836799077
2020-12-09 10:54:16.447454,"$GPRMC,095414,A,5154.7824,N,00429.2153,E,004.2,201.,091220,01.,E*41",2020-12-09 10:54:16.447454,51.547824,4.2921499999999995,210.37806553470654,539.3177875310962,5286.937198163511,518.550514408485,9207.223934545937,532.03,7255.951564638474
2020-12-09 10:54:16.647451,"$GPRMC,095414,A,5154.7819,N,00429.2149,E,004.3,203.,091220,01.,E*47",2020-12-09 10:54:16.647451,51.547819,4.29214,210.19061220535673,539.31,5286.275648659019,518.5561256972112,9229.077942146923,532.03,7249.356378463843
2020-12-09 10:54:16.847361,"$GPRMC,095414,A,5154.7817,N,00429.2147,E,004.3,203.,091220,01.,E*47",2020-12-09 10:54:16.847361,51.547816999999995,4.29214,210.08889228089842,539.3152436076073,5290.650198948912,518.5682768498318,9240.018273997071,532.03,7243.686584141407
2020-12-09 10:54:17.047317,"$GPRMC,095415,A,5154.7815,N,00429.2145,E,004.3,203.,091220,01.,E*46",2020-12-09 10:54:17.047317,51.547815,4.29214,209.98848396726942,539.3418415478086,5297.482364731441,518.5881649216569,9203.50487561132,532.03,7239.017629183387
2020-12-09 10:54:17.241273,"$GPRMC,095415,A,5154.7812,N,00429.2143,E,004.3,203.,091220,01.,E*47",2020-12-09 10:54:17.241273,51.547812,4.29214,209.8776520891156,539.332394281125,5291.088372491684,518.5783248960586,9265.316575253939,532.03,7240.279832801177
2020-12-09 10:54:17.441229,"$GPRMC,095415,A,5154.7812,N,00429.2143,E,004.3,203.,091220,01.,E*47",2020-12-09 10:54:17.441229,51.547812,4.29214,209.6888395310954,539.3141568267645,5288.353071137158,518.855416143185,9304.984465701084,532.03,7239.782572727607
2020-12-09 10:54:17.641225,"$GPRMC,095415,A,5154.7807,N,00429.2142,E,004.3,203.,091220,01.,E*42",2020-12-09 10:54:17.641225,51.547807000000006,4.29214,209.57777777777778,539.3407506249667,5289.19192627765,519.6184232406085,9250.115327866384,532.03,7237.11402914775
2020-12-09 10:54:17.841177,"$GPRMC,095415,A,5154.7804,N,00429.2141,E,004.4,203.,091220,01.,E*45",2020-12-09 10:54:17.841177,51.547804,4.29214,209.37768654962574,539.332765812621,5296.46976490247,520.5500602313839,9232.3892529751,532.03,7222.372737300975
2020-12-09 10:54:18.041128,"$GPRMC,095416,A,5154.7802,N,00429.2139,E,004.4,203.,091220,01.,E*4F",2020-12-09 10:54:18.041128,51.547802000000004,4.29213,209.18907417943535,539.3136642574211,5295.231252750015,521.4490431118164,9221.842409493944,532.03,7226.863184614723
2020-12-09 10:54:18.241088,"$GPRMC,095416,A,5154.7802,N,00429.2139,E,004.4,203.,091220,01.,E*4F",2020-12-09 10:54:18.241088,51.547802000000004,4.29213,209.081280918818,539.3401099700443,5286.006443405422,522.2307501581947,9208.655349906188,532.03,7255.319328565424
2020-12-09 10:54:18.441040,"$GPRMC,095416,A,5154.7800,N,00429.2137,E,004.4,203.,091220,01.,E*43",2020-12-09 10:54:18.441040,51.547799999999995,4.29213,208.8777597662504,539.3333185183211,5287.988553868521,523.0468516693054,9253.082976926007,532.0264702168105,7232.812440664557
2020-12-09 10:54:18.641019,"$GPRMC,095416,A,5154.7795,N,00429.2136,E,004.4,203.,091220,01.,E*41",2020-12-09 10:54:18.641019,51.547794999999994,4.29213,208.68883383498493,539.31,5292.546268440559,523.8721013772072,9283.262499583958,532.0354548082771,7227.47149881026
2020-12-09 10:54:18.840974,"$GPRMC,095416,A,5154.7792,N,00429.2134,E,004.4,202.,091220,01.,E*45",2020-12-09 10:54:18.840974,51.547792,4.29213,208.57770752253558,539.31,5299.785911774968,524.7017956385143,9242.665877849891,532.6201787797122,7249.815189241064
2020-12-09 10:54:19.040934,"$GPRMC,095417,A,5154.7789,N,00429.2133,E,004.4,202.,091220,01.,E*49",2020-12-09 10:54:19.040934,51.547789,4.29213,208.38860280235536,539.3262359604525,5295.468339438584,525.9857816676154,9267.48300523581,533.6070062082629,7237.467229209252
2020-12-09 10:54:19.236917,"$GPRMC,095417,A,5154.7789,N,00429.2133,E,004.4,202.,091220,01.,E*49",2020-12-09 10:54:19.236917,51.547789,4.29213,208.27766491879652,539.3478029752066,5291.808661116022,527.4339625189207,9282.75667633069,534.9358627236314,7225.6782918336685
2020-12-09 10:54:19.436861,"$GPRMC,095417,A,5154.7787,N,00429.2131,E,004.5,202.,091220,01.,E*44",2020-12-09 10:54:19.436861,51.547787,4.29213,208.0888800524186,539.3213640991736,5289.170425006927,529.1205054711306,9224.855329248037,535.7914480173539,7219.761602425207
2020-12-09 10:54:19.636817,"$GPRMC,095417,A,5154.7782,N,00429.2128,E,004.5,201.,091220,01.,E*4A",2020-12-09 10:54:19.636817,51.547782,4.29212,207.9777306447498,539.3251421380808,5301.39993503028,530.2728688554482,9219.58112269617,536.6203061076358,7229.950355290319
2020-12-09 10:54:19.836794,"$GPRMC,095417,A,5154.7780,N,00429.2126,E,004.5,201.,091220,01.,E*46",2020-12-09 10:54:19.836794,51.54778,4.29212,207.78883376923423,539.3483111166795,5304.497106147499,531.3253211532972,9227.66440809119,537.4252390001848,7237.287119682494
2020-12-09 10:54:20.036773,"$GPRMC,095417,A,5154.7780,N,00429.2126,E,004.5,201.,091220,01.,E*46",2020-12-09 10:54:20.036773,51.54778,4.29212,207.68893857016943,539.3219374482775,5293.945133875718,532.4936321691042,9226.341808778352,538.2836589606177,7235.304571245402
2020-12-09 10:54:20.236771,"$GPRMC,095418,A,5154.7775,N,00429.2123,E,004.5,201.,091220,01.,E*46",2020-12-09 10:54:20.236771,51.547775,4.29212,207.5897039435467,539.31,5318.7445763324895,533.4895615716339,9288.271704525543,539.0291190517958,7246.768821262564
2020-12-09 10:54:20.436721,"$GPRMC,095418,A,5154.7775,N,00429.2123,E,004.5,201.,091220,01.,E*46",2020-12-09 10:54:20.436721,51.547775,4.29212,207.48881570721997,539.31111700412,5317.182623714547,534.4164594783849,9318.707095581047,539.6379781815052,7254.433170725206
2020-12-09 10:54:20.636635,"$GPRMC,095418,A,5154.7770,N,00429.2117,E,004.5,202.,091220,01.,E*47",2020-12-09 10:54:20.636635,51.54777,4.29211,207.38883798854744,539.3377072353217,5268.895496115515,535.294688590001,9168.965233011735,539.6700000000001,7249.770189398483
2020-12-09 10:54:20.836589,"$GPRMC,095418,A,5154.7768,N,00429.2115,E,004.5,202.,091220,01.,E*4C",2020-12-09 10:54:20.836589,51.547768,4.29211,207.28884718980967,539.3358007566205,5290.330480149726,536.1332389830117,9245.798740103406,539.672970348142,7249.555385879637
2020-12-09 10:54:21.036570,"$GPRMC,095418,A,5154.7768,N,00429.2115,E,004.5,202.,091220,01.,E*4C",2020-12-09 10:54:21.036570,51.547768,4.29211,207.2,539.3106093629117,5314.61795234842,536.9818890464328,9359.673722830032,539.6796308088899,7250.874318812312
2020-12-09 10:54:21.236524,"$GPRMC,095419,A,5154.7764,N,00429.2112,E,004.5,202.,091220,01.,E*46",2020-12-09 10:54:21.236524,51.547764,4.29211,207.2,539.3371665886368,5327.156694423266,537.9026461624086,9275.230345901575,539.6800000000001,7253.509505327596
2020-12-09 10:54:21.436476,"$GPRMC,095419,A,5154.7764,N,00429.2112,E,004.5,202.,091220,01.,E*46",2020-12-09 10:54:21.436476,51.547764,4.29211,207.2,539.35,5289.292972192752,538.6805658261458,9222.831668032213,539.6800000000001,7251.8401844816435
2020-12-09 10:54:21.636472,"$GPRMC,095419,A,5154.7760,N,00429.2106,E,004.5,203.,091220,01.,E*46",2020-12-09 10:54:21.636472,51.54776,4.2921,207.2,539.3499761131786,5269.201519007502,539.2542844488385,9200.482624508866,539.6800000000001,7242.858318919638
2020-12-09 10:54:21.836422,"$GPRMC,095419,A,5154.7757,N,00429.2104,E,004.6,204.,091220,01.,E*44",2020-12-09 10:54:21.836422,51.547757000000004,4.2921,207.2,539.3235884340274,5298.393140244409,539.2741853837528,9245.602487522565,539.6983885849974,7219.580478312932
2020-12-09 10:54:22.036386,"$GPRMC,095419,A,5154.7757,N,00429.2104,E,004.6,204.,091220,01.,E*44",2020-12-09 10:54:22.036386,51.547757000000004,4.2921,207.2110576923077,539.3227742458014,5292.919317614977,539.28,9241.062635976197,539.6989374814498,7226.716045821521
2020-12-09 10:54:22.236339,"$GPRMC,095420,A,5154.7753,N,00429.2100,E,004.6,204.,091220,01.,E*4E",2020-12-09 10:54:22.236339,51.547753,4.2921,207.31026353409476,539.3491069788267,5289.932194683873,539.28,9213.019636064562,539.6722649009714,7236.218524703138
2020-12-09 10:54:22.436315,"$GPRMC,095420,A,5154.7753,N,00429.2100,E,004.6,204.,091220,01.,E*4E",2020-12-09 10:54:22.436315,51.547753,4.2921,207.4,539.3242550838197,5304.511520706785,539.28,9183.839323200802,539.694227423775,7233.568291454622
2020-12-09 10:54:22.636301,"$GPRMC,095420,A,5154.7750,N,00429.2098,E,004.6,205.,091220,01.,E*4C",2020-12-09 10:54:22.636301,51.54774999999999,4.29209,207.41118223324617,539.31,5291.040849033439,539.28,9177.065546907006,539.6993191275744,7230.4093123270595
2020-12-09 10:54:22.836228,"$GPRMC,095420,A,5154.7746,N,00429.2094,E,004.6,205.,091220,01.,E*47",2020-12-09 10:54:22.836228,51.547746,4.29209,207.51115743587437,539.31,5280.996865620544,539.28,9191.551180867857,539.6729076449529,7231.0300803423
2020-12-09 10:54:23.036195,"$GPRMC,095420,A,5154.7746,N,00429.2094,E,004.6,205.,091220,01.,E*47",2020-12-09 10:54:23.036195,51.547746,4.29209,207.62225445234083,539.3351635575385,5290.302077066513,539.28,9262.35516706211,539.6759066588777,7242.288066552302
2020-12-09 10:54:23.236161,"$GPRMC,095421,A,5154.7740,N,00429.2090,E,004.6,206.,091220,01.,E*47",2020-12-09 10:54:23.236161,51.547740000000005,4.29209,207.81113333600032,539.35,5297.978966897634,539.28,9266.409553651743,539.6876506094254,7234.933418218473
2020-12-09 10:54:23.436119,"$GPRMC,095421,A,5154.7740,N,00429.2090,E,004.6,206.,091220,01.,E*47",2020-12-09 10:54:23.436119,51.547740000000005,4.29209,207.9110166343949,539.35,5299.8787393836365,539.2831718998582,9245.195403750657,539.707611212229,7228.976604324435
2020-12-09 10:54:23.636071,"$GPRMC,095421,A,5154.7737,N,00429.2089,E,004.6,206.,091220,01.,E*4F",2020-12-09 10:54:23.636071,51.547737,4.29208,208.02047606057852,539.35,5289.920507593314,539.3031368861789,9307.669188377087,539.71,7244.8253184539835
2020-12-09 10:54:23.836030,"$GPRMC,095421,A,5154.7733,N,00429.2086,E,004.7,206.,091220,01.,E*45",2020-12-09 10:54:23.836030,51.547733,4.29208,208.21113650571377,539.3387538921224,5287.466651906243,539.31,9267.507863270512,539.71,7242.656067879944
2020-12-09 10:54:24.036013,"$GPRMC,095421,A,5154.7733,N,00429.2086,E,004.7,206.,091220,01.,E*45",2020-12-09 10:54:24.036013,51.547733,4.29208,208.31114956093853,539.3122847461889,5290.901236043069,539.2745605238651,9187.25295096253,539.71,7232.255606785157
2020-12-09 10:54:24.235954,"$GPRMC,095422,A,5154.7727,N,00429.2082,E,004.7,205.,091220,01.,E*44",2020-12-09 10:54:24.235954,51.547727,4.29208,208.42225754372285,539.31,5304.173829343742,539.0294024330835,9266.450051493306,539.314785654635,7215.782039831656
2020-12-09 10:54:24.435918,"$GPRMC,095422,A,5154.7727,N,00429.2082,E,004.7,205.,091220,01.,E*44",2020-12-09 10:54:24.435918,51.547727,4.29208,208.61109125941496,539.31,5297.069866675522,538.0742451660512,9278.418066166212,538.6940314304466,7228.852075471698
2020-12-09 10:54:24.635915,"$GPRMC,095422,A,5154.7722,N,00429.2079,E,004.7,205.,091220,01.,E*45",2020-12-09 10:54:24.635915,51.547722,4.29207,208.7111726703602,539.31,5288.933833662643,536.7866467381398,9254.194365010679,537.7725451303028,7249.131817895932
2020-12-09 10:54:24.835860,"$GPRMC,095422,A,5154.7722,N,00429.2079,E,004.7,205.,091220,01.,E*45",2020-12-09 10:54:24.835860,51.547722,4.29207,208.8111549619848,539.31,5292.25369020539,535.9981181792573,9308.146952650162,537.0385783653176,7249.793687994677
2020-12-09 10:54:25.035821,"$GPRMC,095422,A,5154.7720,N,00429.2077,E,004.7,205.,091220,01.,E*49",2020-12-09 10:54:25.035821,51.54772,4.29207,208.91117144685788,539.319979648094,5295.575428814472,535.3089121331988,9337.14164071996,536.3696812984817,7256.350114024334
2020-12-09 10:54:25.235803,"$GPRMC,095423,A,5154.7715,N,00429.2073,E,004.7,205.,091220,01.,E*4A",2020-12-09 10:54:25.235803,51.547715,4.29207,209.01116734008082,539.3464512894504,5296.567446236826,534.6815771631173,9348.73272603293,535.7581135382379,7262.534519101042
2020-12-09 10:54:25.435728,"$GPRMC,095423,A,5154.7715,N,00429.2073,E,004.7,205.,091220,01.,E*4A",2020-12-09 10:54:25.435728,51.547715,4.29207,209.11114456776724,539.35,5291.268489528978,534.0666328761415,9371.895018900901,535.0772886930866,7253.961151373408
2020-12-09 10:54:25.635712,"$GPRMC,095423,A,5154.7711,N,00429.2068,E,004.7,205.,091220,01.,E*44",2020-12-09 10:54:25.635712,51.547711,4.29206,209.21117061973985,539.3408277186084,5293.00307957544,533.4403861197572,9314.089015844707,534.5126177541895,7254.895111228639
2020-12-09 10:54:25.836568,"$GPRMC,095423,A,5154.7711,N,00429.2068,E,004.7,205.,091220,01.,E*44",2020-12-09 10:54:25.836568,51.547711,4.29206,209.3,539.3140958379499,5297.801173241806,532.807590781263,9200.739364405514,534.2548702770822,7257.76787615639
2020-12-09 10:54:26.035609,"$GPRMC,095424,A,5154.7706,N,00429.2064,E,004.8,205.,091220,01.,E*46",2020-12-09 10:54:26.035609,51.547706,4.29206,209.31014245713558,539.3323749796384,5305.11123427442,532.2180359430901,9196.772310084008,534.2154634115773,7242.582827214016
2020-12-09 10:54:26.255628,"$GPRMC,095424,A,5154.7703,N,00429.2062,E,004.8,205.,091220,01.,E*45",2020-12-09 10:54:26.255628,51.547703,4.29206,209.4,539.3383681671759,5298.618531689873,531.5817908969556,9241.121648622277,534.23,7237.966160911675
2020-12-09 10:54:26.455544,"$GPRMC,095424,A,5154.7701,N,00429.2059,E,004.8,205.,091220,01.,E*4F",2020-12-09 10:54:26.455544,51.547700999999996,4.29205,209.4,539.3117843881,5291.5577466840605,531.0117990404497,9306.069363427165,534.23,7238.150464088946
2020-12-09 10:54:26.655497,"$GPRMC,095424,A,5154.7698,N,00429.2057,E,004.8,205.,091220,01.,E*40",2020-12-09 10:54:26.655497,51.547698,4.29205,209.4,539.31,5290.233668624555,530.4392664866539,9340.177796880018,534.23,7234.18058271703
2020-12-09 10:54:26.855504,"$GPRMC,095424,A,5154.7696,N,00429.2055,E,004.8,206.,091220,01.,E*4F",2020-12-09 10:54:26.855504,51.547695999999995,4.29205,209.4111755972466,539.3212509080342,5299.835432582425,529.947276656294,9278.670148029865,534.23,7239.979275640601
2020-12-09 10:54:27.055436,"$GPRMC,095425,A,5154.7694,N,00429.2052,E,004.8,206.,091220,01.,E*4B",2020-12-09 10:54:27.055436,51.547694,4.29205,209.5,539.3476574696551,5305.078488804061,529.5699999999999,9186.092842589549,534.23,7244.818023689224
2020-12-09 10:54:27.245393,"$GPRMC,095425,A,5154.7691,N,00429.2050,E,004.8,206.,091220,01.,E*4C",2020-12-09 10:54:27.245393,51.54769100000001,4.29205,209.5,539.35,5296.296757618886,529.5699999999999,9206.068603351956,534.2144236639951,7229.083989066512
2020-12-09 10:54:27.445364,"$GPRMC,095425,A,5154.7691,N,00429.2050,E,004.8,206.,091220,01.,E*4C",2020-12-09 10:54:27.445364,51.54769100000001,4.29205,209.5,539.35,5293.009846196416,529.5618494235808,9263.007054545214,534.2036577039395,7234.407776360345
2020-12-09 10:54:27.645356,"$GPRMC,095425,A,5154.7686,N,00429.2045,E,004.9,206.,091220,01.,E*4F",2020-12-09 10:54:27.645356,51.547686000000006,4.29204,209.5,539.35,5293.862151442068,529.6159554110543,9334.054820942118,534.2168635517228,7249.011816446768
2020-12-09 10:54:27.845320,"$GPRMC,095425,A,5154.7683,N,00429.2043,E,004.9,207.,091220,01.,E*4D",2020-12-09 10:54:27.845320,51.547683,4.29204,209.51116908454227,539.3443534181695,5301.83344960236,530.2262894300311,9228.024451028348,534.8083761548161,7241.710832296075
2020-12-09 10:54:28.045227,"$GPRMC,095426,A,5154.7681,N,00429.2042,E,004.9,207.,091220,01.,E*4D",2020-12-09 10:54:28.045227,51.547681000000004,4.29204,209.6,539.3331288453497,5299.166161336066,531.3119853812723,9209.691793031601,535.6110258960853,7228.143216973765
2020-12-09 10:54:28.235230,"$GPRMC,095426,A,5154.7678,N,00429.2040,E,004.9,207.,091220,01.,E*49",2020-12-09 10:54:28.235230,51.547678,4.29204,209.61117654116094,539.3142129104195,5293.4274684790125,532.6304409920003,9258.706176310088,536.4587097563071,7214.513857161329
2020-12-09 10:54:28.435151,"$GPRMC,095426,A,5154.7678,N,00429.2040,E,004.9,207.,091220,01.,E*49",2020-12-09 10:54:28.435151,51.547678,4.29204,209.7111230058879,539.31,5290.1037831834865,533.5898913406832,9193.90189345824,537.2933125051438,7235.061880621856
2020-12-09 10:54:28.635126,"$GPRMC,095426,A,5154.7674,N,00429.2036,E,004.9,206.,091220,01.,E*45",2020-12-09 10:54:28.635126,51.547674,4.29203,209.8,539.31,5293.415685730058,534.5060785407043,9230.054346888826,538.1002524100204,7232.033420800974
2020-12-09 10:54:28.835077,"$GPRMC,095426,A,5154.7671,N,00429.2035,E,004.9,206.,091220,01.,E*43",2020-12-09 10:54:28.835077,51.547671,4.29203,209.81109954665092,539.31,5297.8669841459605,535.3814982986667,9375.279863096383,538.893946962874,7213.863218138088
2020-12-09 10:54:29.035056,"$GPRMC,095426,A,5154.7671,N,00429.2035,E,004.9,206.,091220,01.,E*43",2020-12-09 10:54:29.035056,51.547671,4.29203,209.91105031197387,539.3303983388198,5290.561742416695,536.2155274133114,9264.06906881035,539.3570833084107,7248.504767044433
2020-12-09 10:54:29.235017,"$GPRMC,095427,A,5154.7669,N,00429.2033,E,004.9,206.,091220,01.,E*4D",2020-12-09 10:54:29.235017,51.547669,4.29203,210.01027262670297,539.35,5290.153541465551,536.9490346796363,9203.459569855517,539.61,7259.24766787959
2020-12-09 10:54:29.434975,"$GPRMC,095427,A,5154.7667,N,00429.2031,E,004.9,206.,091220,01.,E*41",2020-12-09 10:54:29.434975,51.547667000000004,4.29203,210.11116711923228,539.35,5293.752010239372,537.5832850496934,9208.746037621118,539.61,7250.864007645408
2020-12-09 10:54:29.634940,"$GPRMC,095427,A,5154.7661,N,00429.2028,E,004.9,205.,091220,01.,E*4C",2020-12-09 10:54:29.634940,51.547661,4.29202,210.21116646409473,539.35,5299.056455811208,537.1328726090472,9234.242115941164,539.61,7247.534709018318
2020-12-09 10:54:29.834877,"$GPRMC,095427,A,5154.7659,N,00429.2025,E,004.9,205.,091220,01.,E*4A",2020-12-09 10:54:29.834877,51.547659,4.29202,210.32233690895907,539.343430919703,5293.832092297143,536.4106268958544,9268.469983526631,539.6072398674721,7247.070765653568
2020-12-09 10:54:30.034850,"$GPRMC,095427,A,5154.7659,N,00429.2025,E,004.9,205.,091220,01.,E*4A",2020-12-09 10:54:30.034850,51.547659,4.29202,210.51117055585277,539.3169644109745,5284.260680248664,535.3996410515672,9312.393034594073,539.5872835444554,7248.342582625683
2020-12-09 10:54:30.234834,"$GPRMC,095428,A,5154.7657,N,00429.2023,E,004.9,205.,091220,01.,E*4D",2020-12-09 10:54:30.234834,51.547657,4.29202,210.61116171640262,539.31,5286.248777222539,534.7778870885925,9307.545964865936,539.1865640791608,7225.752727610999
2020-12-09 10:54:30.434797,"$GPRMC,095428,A,5154.7654,N,00429.2021,E,004.9,205.,091220,01.,E*4C",2020-12-09 10:54:30.434797,51.547654,4.29202,210.71114024115676,539.31,5290.690028180155,534.1648937743269,9255.786598916078,538.5326047686301,7212.932239739748
2020-12-09 10:54:30.634770,"$GPRMC,095428,A,5154.7650,N,00429.2014,E,004.9,206.,091220,01.,E*4D",2020-12-09 10:54:30.634770,51.547650000000004,4.29201,210.8111836612254,539.31,5297.520139216183,533.548311131151,9145.021383226423,537.6554281963945,7209.055630554618
2020-12-09 10:54:30.834707,"$GPRMC,095428,A,5154.7648,N,00429.2012,E,004.9,206.,091220,01.,E*42",2020-12-09 10:54:30.834707,51.547648,4.29201,210.9111500157564,539.31,5312.017257006127,532.9503345732307,9161.514116070986,536.9151947567291,7224.271234109574
2020-12-09 10:54:31.034662,"$GPRMC,095429,A,5154.7645,N,00429.2009,E,004.9,206.,091220,01.,E*44",2020-12-09 10:54:31.034662,51.547645,4.292,211.0111653422815,539.3154007625399,5307.0230825463905,532.375357648536,9212.503853245082,536.2583348849581,7227.429908867428
2020-12-09 10:54:31.234633,"$GPRMC,095429,A,5154.7643,N,00429.2007,E,004.9,206.,091220,01.,E*4C",2020-12-09 10:54:31.234633,51.547643,4.292,211.11116672834012,539.3418052387476,5289.11097746959,531.8277773028425,9297.382313538752,535.6200446867936,7218.142169466109
2020-12-09 10:54:31.434631,"$GPRMC,095429,A,5154.7643,N,00429.2007,E,004.9,206.,091220,01.,E*4C",2020-12-09 10:54:31.434631,51.547643,4.292,211.21117857410786,539.35,5279.143339391503,531.2880504319403,9276.858855807674,535.3841600218678,7233.737176990001
2020-12-09 10:54:31.634540,"$GPRMC,095429,A,5154.7638,N,00429.2001,E,005.0,208.,091220,01.,E*40",2020-12-09 10:54:31.634540,51.547638,4.292,211.3111580579029,539.3452712415929,5293.170488894186,530.7161512095772,9232.196703830015,535.39,7247.1246453000385
2020-12-09 10:54:31.834504,"$GPRMC,095429,A,5154.7635,N,00429.1999,E,005.0,208.,091220,01.,E*46",2020-12-09 10:54:31.834504,51.547635,4.29199,211.41114773284252,539.318874573452,5320.552389524723,530.1002966568974,9168.160057709387,535.39,7257.742989801235
2020-12-09 10:54:32.034453,"$GPRMC,095429,A,5154.7635,N,00429.1999,E,005.0,208.,091220,01.,E*46",2020-12-09 10:54:32.034453,51.547635,4.29199,211.5111510665433,539.3276374593851,5300.847285915142,529.6007935321985,9244.786797502231,535.39,7230.169078327562
2020-12-09 10:54:32.234431,"$GPRMC,095430,A,5154.7631,N,00429.1995,E,005.0,208.,091220,01.,E*46",2020-12-09 10:54:32.234431,51.547631,4.29199,211.6,539.3458091989808,5290.159641159751,529.3126641332444,9265.620143770022,535.39,7229.816690237655
2020-12-09 10:54:32.434417,"$GPRMC,095430,A,5154.7631,N,00429.1995,E,005.0,208.,091220,01.,E*46",2020-12-09 10:54:32.434417,51.547631,4.29199,211.61117944717788,539.319371498825,5288.25885755845,529.3192326161143,9156.519574611053,535.39,7261.462235320879
2020-12-09 10:54:32.634337,"$GPRMC,095430,A,5154.7626,N,00429.1991,E,005.0,208.,091220,01.,E*44",2020-12-09 10:54:32.634337,51.547626,4.29199,211.71114751474346,539.3270765520002,5311.602777703641,529.3199999999999,9217.788605334561,535.39,7239.510277104653
2020-12-09 10:54:32.834352,"$GPRMC,095430,A,5154.7623,N,00429.1990,E,005.0,208.,091220,01.,E*40",2020-12-09 10:54:32.834352,51.547623,4.29199,211.81119116786752,539.3464402126099,5313.544486296491,529.3275424241523,9258.503760652402,535.3880640007455,7229.889933794515
2020-12-09 10:54:33.034338,"$GPRMC,095430,A,5154.7623,N,00429.1990,E,005.0,208.,091220,01.,E*40",2020-12-09 10:54:33.034338,51.547623,4.29199,211.91118751375248,539.3198824404317,5298.849417923586,529.3473769922739,9215.146723813017,535.3680942902602,7238.474582707326
2020-12-09 10:54:33.234221,"$GPRMC,095431,A,5154.7618,N,00429.1986,E,005.0,209.,091220,01.,E*4F",2020-12-09 10:54:33.234221,51.547618,4.29198,212.01114856754162,539.3265777764565,5295.542221222129,529.35,9290.098641794893,535.3718167563911,7244.568702516619
2020-12-09 10:54:33.434202,"$GPRMC,095431,A,5154.7618,N,00429.1986,E,005.0,209.,091220,01.,E*4F",2020-12-09 10:54:33.434202,51.547618,4.29198,212.1,539.35,5303.176738543316,529.35,9329.482965718487,535.39,7246.593160585816
2020-12-09 10:54:33.634146,"$GPRMC,095431,A,5154.7616,N,00429.1984,E,005.0,208.,091220,01.,E*42",2020-12-09 10:54:33.634146,51.547616,4.29198,212.1,539.35,5319.568284009562,529.35,9264.2854984844,535.39,7243.258771066737
2020-12-09 10:54:33.834101,"$GPRMC,095431,A,5154.7610,N,00429.1981,E,005.0,208.,091220,01.,E*41",2020-12-09 10:54:33.834101,51.547610000000006,4.29198,212.11115371157211,539.3337259734845,5299.044325172672,529.3556623322577,9209.98441123635,535.39,7231.99567435339
2020-12-09 10:54:34.034111,"$GPRMC,095431,A,5154.7610,N,00429.1981,E,005.0,208.,091220,01.,E*41",2020-12-09 10:54:34.034111,51.547610000000006,4.29198,212.2,539.3129347559886,5289.679272006702,529.36,9190.50170962738,535.39,7231.29704113432
2020-12-09 10:54:34.234016,"$GPRMC,095432,A,5154.7605,N,00429.1977,E,005.0,208.,091220,01.,E*4F",2020-12-09 10:54:34.234016,51.547605000000004,4.29197,212.2,539.3393983942176,5291.115568957942,529.36,9237.345681375624,535.39,7246.507592348765
2020-12-09 10:54:34.433987,"$GPRMC,095432,A,5154.7605,N,00429.1977,E,005.0,208.,091220,01.,E*4F",2020-12-09 10:54:34.433987,51.547605000000004,4.29197,212.2,539.3340926415515,5309.086362183968,529.3544750523527,9211.764320616488,535.39,7234.207020495564
2020-12-09 10:54:34.633940,"$GPRMC,095432,A,5154.7602,N,00429.1975,E,005.0,207.,091220,01.,E*45",2020-12-09 10:54:34.633940,51.547602,4.29197,212.2,539.3124416638709,5306.645331919265,529.35,9193.006488777064,535.39,7225.2631505834415
2020-12-09 10:54:34.833915,"$GPRMC,095432,A,5154.7597,N,00429.1971,E,005.0,207.,091220,01.,E*4E",2020-12-09 10:54:34.833915,51.547596999999996,4.29197,212.2,539.3390113832265,5284.111444006231,529.35,9224.784281268621,535.39,7225.924566057206
2020-12-09 10:54:35.033879,"$GPRMC,095433,A,5154.7594,N,00429.1969,E,005.0,207.,091220,01.,E*45",2020-12-09 10:54:35.033879,51.547594,4.29196,212.2,539.35,5290.560595869273,529.333889605288,9250.20610555364,535.39,7230.122176202316
2020-12-09 10:54:35.233858,"$GPRMC,095433,A,5154.7592,N,00429.1966,E,005.0,207.,091220,01.,E*4C",2020-12-09 10:54:35.233858,51.547592,4.29196,212.2,539.3478001423468,5300.008177701385,529.3260274223583,9265.030518792924,535.39,7228.224086129194
2020-12-09 10:54:35.433800,"$GPRMC,095433,A,5154.7592,N,00429.1966,E,005.0,207.,091220,01.,E*4C",2020-12-09 10:54:35.433800,51.547592,4.29196,212.2,539.3212009684908,5312.565272865501,529.3460087676928,9258.393594173745,535.39,7215.708938407612
2020-12-09 10:54:35.633783,"$GPRMC,095433,A,5154.7587,N,00429.1960,E,005.1,207.,091220,01.,E*4F",2020-12-09 10:54:35.633783,51.547587,4.29196,212.2,539.3253106270723,5301.41931237649,529.35,9208.040214141374,535.39,7245.429897511078
2020-12-09 10:54:35.833707,"$GPRMC,095433,A,5154.7587,N,00429.1960,E,005.1,207.,091220,01.,E*4F",2020-12-09 10:54:35.833707,51.547587,4.29196,212.2,539.3482523160781,5292.208889660329,529.35,9189.86104981501,535.39,7258.288856707368
2020-12-09 10:54:36.033688,"$GPRMC,095433,A,5154.7585,N,00429.1958,E,005.1,207.,091220,01.,E*46",2020-12-09 10:54:36.033688,51.547585,4.29195,212.188867319421,539.3217948158217,5286.20112889874,529.35,9288.292501321353,535.39,7227.873596053576
2020-12-09 10:54:36.233700,"$GPRMC,095434,A,5154.7580,N,00429.1952,E,005.1,207.,091220,01.,E*4E",2020-12-09 10:54:36.233700,51.547579999999996,4.29195,212.1,539.3247143828912,5306.480597518946,529.3551382417922,9271.63528583011,535.39,7244.1276306991585
2020-12-09 10:54:36.433586,"$GPRMC,095434,A,5154.7580,N,00429.1952,E,005.1,207.,091220,01.,E*4E",2020-12-09 10:54:36.433586,51.547579999999996,4.29195,212.08888566526437,539.35,5311.697476335501,529.36,9228.47646769243,535.39,7257.08468066101
2020-12-09 10:54:36.633567,"$GPRMC,095434,A,5154.7575,N,00429.1947,E,005.1,208.,091220,01.,E*4F",2020-12-09 10:54:36.633567,51.547574999999995,4.29194,212.0,539.35,5297.870491398469,529.36,9214.601240959597,535.39,7245.175733214232
2020-12-09 10:54:36.833515,"$GPRMC,095434,A,5154.7575,N,00429.1947,E,005.1,208.,091220,01.,E*4F",2020-12-09 10:54:36.833515,51.547574999999995,4.29194,211.98887644270198,539.335701606753,5296.381035758649,529.3549678191541,9200.16694772344,535.39,7237.05249592202
2020-12-09 10:54:37.033478,"$GPRMC,095434,A,5154.7574,N,00429.1945,E,005.1,208.,091220,01.,E*4C",2020-12-09 10:54:37.033478,51.547574000000004,4.29194,211.9,539.31,5300.495262378571,529.35,9186.180341967987,535.39,7235.035236182035
2020-12-09 10:54:37.253448,"$GPRMC,095435,A,5154.7568,N,00429.1940,E,005.1,209.,091220,01.,E*44",2020-12-09 10:54:37.253448,51.547568,4.29194,211.88886921641884,539.31,5311.696033617912,529.35,9173.0829482417,535.39,7245.955076929186
2020-12-09 10:54:37.453396,"$GPRMC,095435,A,5154.7568,N,00429.1940,E,005.1,209.,091220,01.,E*44",2020-12-09 10:54:37.453396,51.547568,4.29194,211.8,539.31,5293.762286150882,529.35,9225.571046729343,535.39,7238.693769463173
2020-12-09 10:54:37.653364,"$GPRMC,095435,A,5154.7563,N,00429.1937,E,005.1,209.,091220,01.,E*4F",2020-12-09 10:54:37.653364,51.547563,4.29193,211.8,539.3125350392882,5288.049232950499,529.3522015641676,9256.520963699464,535.39,7240.968411081382
2020-12-09 10:54:37.853317,"$GPRMC,095435,A,5154.7561,N,00429.1935,E,005.1,209.,091220,01.,E*4F",2020-12-09 10:54:37.853317,51.547560999999995,4.29193,211.7888513885139,539.3389299940268,5294.017703298665,529.3588082391385,9210.301727354681,535.39,7261.570817476277
2020-12-09 10:54:38.053371,"$GPRMC,095436,A,5154.7559,N,00429.1933,E,005.1,209.,091220,01.,E*41",2020-12-09 10:54:38.053371,51.547559,4.29193,211.7,539.334572621628,5303.938195486733,529.36,9267.122382790734,535.39,7246.2106310542285
2020-12-09 10:54:38.243324,"$GPRMC,095436,A,5154.7556,N,00429.1930,E,005.1,209.,091220,01.,E*4D",2020-12-09 10:54:38.243324,51.54755600000001,4.29193,211.68881063967066,539.31,5301.965680094455,529.358295320794,9303.281907707387,535.39,7233.99434101146
2020-12-09 10:54:38.443386,"$GPRMC,095436,A,5154.7556,N,00429.1930,E,005.1,209.,091220,01.,E*4D",2020-12-09 10:54:38.443386,51.54755600000001,4.29193,211.6,539.31,5285.951431830462,529.3516622072802,9216.498897336389,535.39,7237.371872530945
2020-12-09 10:54:38.643233,"$GPRMC,095436,A,5154.7550,N,00429.1927,E,005.1,208.,091220,01.,E*4C",2020-12-09 10:54:38.643233,51.54755,4.29192,211.6,539.3235355455241,5287.4835217832215,529.3549622148714,9250.683463547686,535.39,7218.670894475348
2020-12-09 10:54:38.843204,"$GPRMC,095436,A,5154.7548,N,00429.1924,E,005.1,208.,091220,01.,E*46",2020-12-09 10:54:38.843204,51.547548,4.29192,211.58879009876233,539.3499301760777,5298.097688511297,529.358402783095,9288.016145980078,535.39,7209.9130711416865
2020-12-09 10:54:39.043132,"$GPRMC,095437,A,5154.7545,N,00429.1923,E,005.1,208.,091220,01.,E*4D",2020-12-09 10:54:39.043132,51.547545,4.29192,211.4882250143437,539.3234067297049,5319.4463272122985,529.3517470579424,9190.598587931121,535.39,7236.414310520804
2020-12-09 10:54:39.233082,"$GPRMC,095437,A,5154.7542,N,00429.1921,E,005.1,208.,091220,01.,E*48",2020-12-09 10:54:39.233082,51.547542,4.29192,211.38882665079595,539.3218828918913,5298.893640590901,529.3545537539129,9212.051808439051,535.39,7223.896579917775
2020-12-09 10:54:39.433035,"$GPRMC,095437,A,5154.7542,N,00429.1921,E,005.1,208.,091220,01.,E*48",2020-12-09 10:54:39.433035,51.547542,4.29192,211.2890435072545,539.3484528654147,5284.9653096120455,529.36,9272.121032703148,535.39,7212.431851923198
2020-12-09 10:54:39.632987,"$GPRMC,095437,A,5154.7536,N,00429.1915,E,005.1,208.,091220,01.,E*4C",2020-12-09 10:54:39.632987,51.547536,4.29191,211.19063294240132,539.35,5290.28668471933,529.36,9260.229430850255,535.39,7244.972771989492
2020-12-09 10:54:39.832937,"$GPRMC,095437,A,5154.7534,N,00429.1913,E,005.1,208.,091220,01.,E*48",2020-12-09 10:54:39.832937,51.547534,4.29191,211.1,539.3387936035947,5290.4269919118915,529.36,9242.73737447532,535.39,7243.920097672796
2020-12-09 10:54:40.032880,"$GPRMC,095437,A,5154.7534,N,00429.1913,E,005.1,208.,091220,01.,E*48",2020-12-09 10:54:40.032880,51.547534,4.29191,211.08915707101107,539.3123697095847,5290.236255517615,529.3556723999761,9235.255517348758,535.39,7233.712102077969
2020-12-09 10:54:40.232838,"$GPRMC,095438,A,5154.7532,N,00429.1911,E,005.1,208.,091220,01.,E*43",2020-12-09 10:54:40.232838,51.547532000000004,4.29191,210.99159611001681,539.3342329479269,5290.902393603731,529.3291859671897,9309.445045152484,535.39,7236.991553638496
2020-12-09 10:54:40.432797,"$GPRMC,095438,A,5154.7529,N,00429.1909,E,005.1,208.,091220,01.,E*40",2020-12-09 10:54:40.432797,51.547529000000004,4.2919,210.9,539.3391364342015,5307.340914193642,529.3373532938508,9328.668246508329,535.39,7247.643179052161
2020-12-09 10:54:40.632782,"$GPRMC,095438,A,5154.7525,N,00429.1904,E,005.1,208.,091220,01.,E*41",2020-12-09 10:54:40.632782,51.54752499999999,4.2919,210.9,539.3124872240767,5318.432927614738,529.3590206488111,9312.868987264124,535.39,7253.994916151226
2020-12-09 10:54:40.832761,"$GPRMC,095438,A,5154.7523,N,00429.1902,E,005.1,208.,091220,01.,E*41",2020-12-09 10:54:40.832761,51.547523,4.2919,210.88883160652853,539.3340918422259,5313.8092120691645,529.3523893197863,9278.388591758983,535.39,7226.87508351801
2020-12-09 10:54:41.032694,"$GPRMC,095438,A,5154.7523,N,00429.1902,E,005.1,208.,091220,01.,E*41",2020-12-09 10:54:41.032694,51.547523,4.2919,210.8,539.35,5299.831178681926,529.35,9266.2176005523,535.39,7234.467532166685
2020-12-09 10:54:41.232644,"$GPRMC,095439,A,5154.7520,N,00429.1900,E,005.1,208.,091220,01.,E*41",2020-12-09 10:54:41.232644,51.547520000000006,4.2919,210.8,539.35,5294.521751481479,529.350867081914,9274.97555923364,535.39,7251.896172742442
2020-12-09 10:54:41.432627,"$GPRMC,095439,A,5154.7518,N,00429.1898,E,005.1,208.,091220,01.,E*4A",2020-12-09 10:54:41.432627,51.547518,4.29189,210.8,539.3262739457534,5311.696859991148,529.3575389419532,9341.575065689347,535.4074561406424,7232.657023052451
2020-12-09 10:54:41.632565,"$GPRMC,095439,A,5154.7513,N,00429.1893,E,005.1,208.,091220,01.,E*4A",2020-12-09 10:54:41.632565,51.547513,4.29189,210.7888867764998,539.3203520670439,5299.960796705673,529.3558216181667,9309.090954700889,535.4125588298286,7232.464560725729
2020-12-09 10:54:41.832522,"$GPRMC,095439,A,5154.7510,N,00429.1891,E,005.1,208.,091220,01.,E*4B",2020-12-09 10:54:41.832522,51.54751,4.29189,210.7,539.3469299886688,5287.404773714609,529.35,9221.173463428959,535.3924847069217,7241.9980581493
2020-12-09 10:54:42.032474,"$GPRMC,095440,A,5154.7508,N,00429.1889,E,005.1,208.,091220,01.,E*45",2020-12-09 10:54:42.032474,51.547508,4.29188,210.7,539.3265037631445,5288.736034221608,529.35,9234.517964341609,535.39,7249.298991897337
2020-12-09 10:54:42.232443,"$GPRMC,095440,A,5154.7505,N,00429.1887,E,005.1,208.,091220,01.,E*46",2020-12-09 10:54:42.232443,51.547505,4.29188,210.68882843326014,539.31,5304.341716933068,529.3540226894359,9208.548610653415,535.39,7252.4180649613945
2020-12-09 10:54:42.432425,"$GPRMC,095440,A,5154.7505,N,00429.1887,E,005.1,208.,091220,01.,E*46",2020-12-09 10:54:42.432425,51.547505,4.29188,210.6,539.31,5313.04941433142,529.3593437223558,9163.617118057973,535.39,7253.574440048305
2020-12-09 10:54:42.632354,"$GPRMC,095440,A,5154.7499,N,00429.1884,E,005.1,208.,091220,01.,E*41",2020-12-09 10:54:42.632354,51.547498999999995,4.29188,210.6,539.31,5295.76153544276,529.3528175381673,9227.912987404807,535.39,7258.243216194397
2020-12-09 10:54:42.832307,"$GPRMC,095440,A,5154.7496,N,00429.1881,E,005.2,208.,091220,01.,E*48",2020-12-09 10:54:42.832307,51.547496,4.29188,210.6,539.31,5290.445563113934,529.35,9260.076074152556,535.39,7250.086400127176
2020-12-09 10:54:43.032269,"$GPRMC,095440,A,5154.7496,N,00429.1881,E,005.2,208.,091220,01.,E*48",2020-12-09 10:54:43.032269,51.547496,4.29188,210.6,539.31,5294.075643564356,529.3505354140938,9264.74843324682,535.39,7235.0243264115325
2020-12-09 10:54:43.232248,"$GPRMC,095441,A,5154.7491,N,00429.1878,E,005.2,208.,091220,01.,E*48",2020-12-09 10:54:43.232248,51.547491,4.29187,210.58883371091073,539.3321970121474,5312.710844496214,529.3571924381581,9212.778665502778,535.39,7226.444482581088
2020-12-09 10:54:43.432227,"$GPRMC,095441,A,5154.7491,N,00429.1878,E,005.2,208.,091220,01.,E*48",2020-12-09 10:54:43.432227,51.547491,4.29187,210.5,539.3414766077016,5305.350360424679,529.3561670229867,9191.161574967371,535.39,7225.38440213151
2020-12-09 10:54:43.632155,"$GPRMC,095441,A,5154.7486,N,00429.1874,E,005.2,207.,091220,01.,E*4D",2020-12-09 10:54:43.632155,51.547486,4.29187,210.48972908257855,539.3149153386785,5293.669064795883,529.3504590185632,9197.888370654007,535.39,7229.428348945864
2020-12-09 10:54:43.832141,"$GPRMC,095441,A,5154.7483,N,00429.1872,E,005.2,207.,091220,01.,E*4E",2020-12-09 10:54:43.832141,51.547483,4.29187,210.4,539.31,5292.343614028227,529.3570764700044,9277.059655414465,535.39,7234.076915924781
2020-12-09 10:54:44.032078,"$GPRMC,095442,A,5154.7480,N,00429.1870,E,005.2,207.,091220,01.,E*4C",2020-12-09 10:54:44.032078,51.54747999999999,4.29187,210.3888730463669,539.3178448900941,5305.178484558848,529.356312812057,9269.740084666195,535.39,7233.661998803112
2020-12-09 10:54:44.232136,"$GPRMC,095442,A,5154.7478,N,00429.1867,E,005.2,207.,091220,01.,E*4D",2020-12-09 10:54:44.232136,51.547478,4.29186,210.3,539.34433991875,5314.5673712021135,529.35,9188.80276263829,535.39,7232.419343861967
2020-12-09 10:54:44.431997,"$GPRMC,095442,A,5154.7478,N,00429.1867,E,005.2,207.,091220,01.,E*4D",2020-12-09 10:54:44.431997,51.547478,4.29186,210.3,539.3292559097481,5294.76608322325,529.35,9239.914882310546,535.39,7261.756346871101
2020-12-09 10:54:44.631963,"$GPRMC,095442,A,5154.7475,N,00429.1865,E,005.2,207.,091220,01.,E*42",2020-12-09 10:54:44.631963,51.547475000000006,4.29186,210.2888355,539.317154732747,5288.059707234246,529.3535736026104,9294.767726640348,535.39,7256.12870990107
2020-12-09 10:54:44.831924,"$GPRMC,095442,A,5154.7470,N,00429.1861,E,005.2,207.,091220,01.,E*43",2020-12-09 10:54:44.831924,51.547470000000004,4.29186,210.2,539.343592273444,5291.12911415059,529.36,9352.668626314482,535.39,7228.987711116503
2020-12-09 10:54:45.031922,"$GPRMC,095442,A,5154.7470,N,00429.1861,E,005.2,207.,091220,01.,E*43",2020-12-09 10:54:45.031922,51.547470000000004,4.29186,210.2,539.329984347602,5311.676876576311,529.36,9253.30719549557,535.39,7240.954045492469
2020-12-09 10:54:45.231834,"$GPRMC,095443,A,5154.7465,N,00429.1857,E,005.2,207.,091220,01.,E*43",2020-12-09 10:54:45.231834,51.547465,4.29185,210.2,539.3165137248991,5305.553193403299,529.3564866752472,9232.368483725853,535.39,7241.799019267689
2020-12-09 10:54:45.431797,"$GPRMC,095443,A,5154.7465,N,00429.1857,E,005.2,207.,091220,01.,E*43",2020-12-09 10:54:45.431797,51.547465,4.29185,210.2,539.3433053978463,5289.616602873651,529.35,9291.89702963747,535.39,7235.172144100174
2020-12-09 10:54:45.631758,"$GPRMC,095443,A,5154.7463,N,00429.1855,E,005.2,207.,091220,01.,E*47",2020-12-09 10:54:45.631758,51.547463,4.29185,210.2,539.35,5282.371305000889,529.35,9216.254677651332,535.39,7237.838664079638
2020-12-09 10:54:45.831704,"$GPRMC,095443,A,5154.7458,N,00429.1850,E,005.2,207.,091220,01.,E*4A",2020-12-09 10:54:45.831704,51.547458,4.29185,210.2,539.3437119173323,5295.598659337091,529.3534090327979,9184.388904720563,535.39,7232.279039221849
2020-12-09 10:54:46.031788,"$GPRMC,095444,A,5154.7455,N,00429.1848,E,005.2,207.,091220,01.,E*49",2020-12-09 10:54:46.031788,51.547455,4.2918400000000005,210.2,539.3171536513898,5312.062502902869,529.36,9204.278892990396,535.39,7222.102060435905
2020-12-09 10:54:46.231680,"$GPRMC,095444,A,5154.7452,N,00429.1846,E,005.2,207.,091220,01.,E*40",2020-12-09 10:54:46.231680,51.547452,4.2918400000000005,210.2,539.3293818306124,5294.157332147857,529.36,9200.505967199566,535.39,7242.715241371052
2020-12-09 10:54:46.431585,"$GPRMC,095444,A,5154.7452,N,00429.1846,E,005.2,207.,091220,01.,E*40",2020-12-09 10:54:46.431585,51.547452,4.2918400000000005,210.2,539.344089106122,5284.067802538223,529.3567565250366,9236.056824765617,535.39,7246.914039896704
2020-12-09 10:54:46.631556,"$GPRMC,095444,A,5154.7447,N,00429.1842,E,005.2,206.,091220,01.,E*41",2020-12-09 10:54:46.631556,51.547447000000005,4.2918400000000005,210.2,539.317583133129,5282.912507033063,529.3501623716015,9318.342373986095,535.39,7237.877684727762
2020-12-09 10:54:46.831517,"$GPRMC,095444,A,5154.7447,N,00429.1842,E,005.2,206.,091220,01.,E*41",2020-12-09 10:54:46.831517,51.547447000000005,4.2918400000000005,210.2,539.3289887797384,5308.209953157304,529.35,9248.064997401429,535.39,7234.576080495602
2020-12-09 10:54:47.031470,"$GPRMC,095444,A,5154.7445,N,00429.1840,E,005.2,206.,091220,01.,E*41",2020-12-09 10:54:47.031470,51.547444999999996,4.2918400000000005,210.2,539.35,5303.569452838083,529.35,9217.35874793763,535.39,7235.745918816473
2020-12-09 10:54:47.231418,"$GPRMC,095445,A,5154.7439,N,00429.1837,E,005.2,206.,091220,01.,E*4B",2020-12-09 10:54:47.231418,51.547439000000004,4.29183,210.2,539.35,5286.584667632223,529.35,9250.547231194665,535.39,7241.0
2020-12-09 10:54:47.431420,"$GPRMC,095445,A,5154.7439,N,00429.1837,E,005.2,206.,091220,01.,E*4B",2020-12-09 10:54:47.431420,51.547439000000004,4.29183,210.2,539.3315421127577,5290.5801128702,529.3563253052062,9257.318879055065,535.39,7215.8623196554845
2020-12-09 10:54:47.631349,"$GPRMC,095445,A,5154.7434,N,00429.1832,E,005.2,206.,091220,01.,E*43",2020-12-09 10:54:47.631349,51.547434,4.29183,210.2,539.3148453228945,5302.237939482222,529.3570427648249,9242.414497811427,535.39,7222.123552777538
2020-12-09 10:54:47.831296,"$GPRMC,095445,A,5154.7434,N,00429.1832,E,005.2,206.,091220,01.,E*43",2020-12-09 10:54:47.831296,51.547434,4.29183,210.2,539.3413553181545,5313.0821663696215,529.3504199637637,9201.020052052525,535.39,7261.303586255455
2020-12-09 10:54:48.031249,"$GPRMC,095446,A,5154.7428,N,00429.1827,E,005.2,206.,091220,01.,E*49",2020-12-09 10:54:48.031249,51.547428,4.29182,210.2,539.332187795351,5291.263557996581,529.3561842726609,9300.360650280936,535.3769312394594,7230.769063086999
2020-12-09 10:54:48.251228,"$GPRMC,095446,A,5154.7426,N,00429.1825,E,005.2,206.,091220,01.,E*45",2020-12-09 10:54:48.251228,51.547425999999994,4.29182,210.2,539.3169235290407,5285.388924587297,529.36,9331.98593409496,535.364984957117,7229.2029549685885
2020-12-09 10:54:48.451185,"$GPRMC,095446,A,5154.7426,N,00429.1825,E,005.2,206.,091220,01.,E*45",2020-12-09 10:54:48.451185,51.547425999999994,4.29182,210.2,539.3434829169807,5291.216731094188,529.3597251981203,9258.04026943142,535.3847956908994,7253.912349297276
2020-12-09 10:54:48.651166,"$GPRMC,095446,A,5154.7421,N,00429.1822,E,005.2,206.,091220,01.,E*45",2020-12-09 10:54:48.651166,51.54742100000001,4.29182,210.2,539.3300555056298,5306.426574120308,529.3398571016979,9299.694116863215,535.39,7252.580297075868
2020-12-09 10:54:48.851083,"$GPRMC,095446,A,5154.7419,N,00429.1820,E,005.2,206.,091220,01.,E*4C",2020-12-09 10:54:48.851083,51.547419,4.29182,210.2,539.3163995163256,5298.518536033653,529.3367036796644,9270.84615895381,535.3884784884607,7246.018037845667
2020-12-09 10:54:49.051091,"$GPRMC,095447,A,5154.7416,N,00429.1818,E,005.2,206.,091220,01.,E*49",2020-12-09 10:54:49.051091,51.547416000000005,4.29181,210.2,539.3429760920044,5284.989253709636,529.35,9165.26670030909,535.381852152479,7236.110527625272
2020-12-09 10:54:49.241013,"$GPRMC,095447,A,5154.7414,N,00429.1816,E,005.2,206.,091220,01.,E*45",2020-12-09 10:54:49.241013,51.547413999999996,4.29181,210.2,539.35,5290.011602423618,529.35,9256.761796050205,534.8861995399216,7238.00064356682
2020-12-09 10:54:49.440968,"$GPRMC,095447,A,5154.7414,N,00429.1816,E,005.2,206.,091220,01.,E*45",2020-12-09 10:54:49.440968,51.547413999999996,4.29181,210.2,539.345314929257,5301.12725954696,529.35,9278.98781195589,534.268915580391,7233.390105955523
